{"202605":[{"zip":"94580","name":"San Lorenzo","pending_pct":0.5152,"pending":17,"active":16,"total":33,"new":16,"median_price":800000,"ppsf":597,"dom":16,"pop":29420,"lat":37.67803,"lng":-122.13334},{"zip":"92129","name":"San Diego","pending_pct":0.4074,"pending":44,"active":60,"total":108,"new":48,"median_price":1100000,"ppsf":664,"dom":33,"pop":52965,"lat":32.96354,"lng":-117.12622},{"zip":"95425","name":"Cloverdale","pending_pct":0.1892,"pending":7,"active":29,"total":37,"new":12,"median_price":810000,"ppsf":452,"dom":51,"pop":10978,"lat":38.81792,"lng":-123.02566},{"zip":"92065","name":"Ramona","pending_pct":0.339,"pending":40,"active":78,"total":118,"new":44,"median_price":924944,"ppsf":414,"dom":45,"pop":36752,"lat":33.04736,"lng":-116.84386},{"zip":"95122","name":"San Jose","pending_pct":0.3824,"pending":13,"active":24,"total":34,"new":8,"median_price":948000,"ppsf":682,"dom":32,"pop":50775,"lat":37.32925,"lng":-121.83481},{"zip":"93426","name":"Bradley","pending_pct":0.0769,"pending":2,"active":23,"total":26,"new":0,"median_price":1047500,"ppsf":469,"dom":86,"pop":1564,"lat":35.84682,"lng":-120.97233},{"zip":"92841","name":"Garden Grove","pending_pct":0.4286,"pending":15,"active":19,"total":35,"new":20,"median_price":1149500,"ppsf":664,"dom":39,"pop":33219,"lat":33.7868,"lng":-117.98207},{"zip":"90062","name":"Los Angeles","pending_pct":0.2727,"pending":12,"active":31,"total":44,"new":8,"median_price":865000,"ppsf":572,"dom":60,"pop":32715,"lat":34.0035,"lng":-118.30904},{"zip":"91306","name":"Winnetka","pending_pct":0.4141,"pending":41,"active":58,"total":99,"new":36,"median_price":799975,"ppsf":458,"dom":31,"pop":47176,"lat":34.20926,"lng":-118.5755},{"zip":"94305","name":"Stanford","pending_pct":0.5,"pending":2,"active":2,"total":4,"new":4,"median_price":3331250,"ppsf":1086,"dom":8,"pop":18509,"lat":37.41623,"lng":-122.17069},{"zip":"93591","name":"Palmdale","pending_pct":0.3421,"pending":13,"active":26,"total":38,"new":8,"median_price":419450,"ppsf":313,"dom":49,"pop":7051,"lat":34.59656,"lng":-117.80955},{"zip":"95945","name":"Grass Valley","pending_pct":0.3452,"pending":29,"active":57,"total":84,"new":32,"median_price":609500,"ppsf":352,"dom":46,"pop":27470,"lat":39.19426,"lng":-120.98199},{"zip":"94963","name":"San Geronimo","pending_pct":0.4,"pending":2,"active":3,"total":5,"new":0,"median_price":1765000,"ppsf":520,"dom":50,"pop":739,"lat":38.00765,"lng":-122.66484},{"zip":"93553","name":"Pearblossom","pending_pct":0.3333,"pending":4,"active":9,"total":12,"new":4,"median_price":449999,"ppsf":263,"dom":53,"pop":1319,"lat":34.44515,"lng":-117.89611},{"zip":"94568","name":"Dublin","pending_pct":0.2212,"pending":46,"active":162,"total":208,"new":92,"median_price":1199000,"ppsf":626,"dom":24,"pop":70803,"lat":37.71596,"lng":-121.90113},{"zip":"93451","name":"San Miguel","pending_pct":0.2632,"pending":5,"active":14,"total":19,"new":0,"median_price":934500,"ppsf":467,"dom":77,"pop":5207,"lat":35.89398,"lng":-120.56733},{"zip":"95460","name":"Mendocino","pending_pct":0.2105,"pending":4,"active":15,"total":19,"new":4,"median_price":1518500,"ppsf":621,"dom":73,"pop":2199,"lat":39.30386,"lng":-123.73737},{"zip":"92127","name":"San Diego","pending_pct":0.2446,"pending":34,"active":104,"total":139,"new":56,"median_price":1487500,"ppsf":697,"dom":37,"pop":50555,"lat":33.01913,"lng":-117.12339},{"zip":"94599","name":"Yountville","pending_pct":0.1538,"pending":2,"active":11,"total":13,"new":4,"median_price":1500000,"ppsf":1000,"dom":48,"pop":3348,"lat":38.41012,"lng":-122.37365},{"zip":"95046","name":"San Martin","pending_pct":0.2222,"pending":2,"active":7,"total":9,"new":4,"median_price":1874500,"ppsf":836,"dom":54,"pop":6324,"lat":37.09576,"lng":-121.59649},{"zip":"93277","name":"Visalia","pending_pct":0.3723,"pending":51,"active":85,"total":137,"new":44,"median_price":430000,"ppsf":242,"dom":57,"pop":53985,"lat":36.29963,"lng":-119.38139},{"zip":"95223","name":"Arnold","pending_pct":0.2348,"pending":27,"active":87,"total":115,"new":48,"median_price":473000,"ppsf":286,"dom":37,"pop":3056,"lat":38.4644,"lng":-119.85939},{"zip":"91403","name":"Sherman Oaks","pending_pct":0.1416,"pending":16,"active":97,"total":113,"new":40,"median_price":2185000,"ppsf":767,"dom":46,"pop":25793,"lat":34.14716,"lng":-118.46311},{"zip":"95436","name":"Forestville","pending_pct":0.3182,"pending":7,"active":16,"total":22,"new":12,"median_price":599500,"ppsf":513,"dom":33,"pop":5821,"lat":38.49108,"lng":-122.91425},{"zip":"91202","name":"Glendale","pending_pct":0.3235,"pending":11,"active":22,"total":34,"new":12,"median_price":1012500,"ppsf":681,"dom":49,"pop":22504,"lat":34.18221,"lng":-118.26761},{"zip":"90036","name":"Los Angeles","pending_pct":0.2264,"pending":12,"active":41,"total":53,"new":16,"median_price":2200000,"ppsf":890,"dom":44,"pop":39278,"lat":34.07013,"lng":-118.34978},{"zip":"94901","name":"San Rafael","pending_pct":0.3404,"pending":32,"active":64,"total":94,"new":40,"median_price":1397500,"ppsf":681,"dom":38,"pop":41307,"lat":37.98053,"lng":-122.50249},{"zip":"93003","name":"Ventura","pending_pct":0.377,"pending":46,"active":76,"total":122,"new":40,"median_price":907000,"ppsf":541,"dom":38,"pop":52906,"lat":34.28434,"lng":-119.22256},{"zip":"96055","name":"Los Molinos","pending_pct":0.3077,"pending":4,"active":10,"total":13,"new":0,"median_price":427500,"ppsf":230,"dom":64,"pop":3473,"lat":40.10249,"lng":-122.03213},{"zip":"95220","name":"Acampo","pending_pct":0.2353,"pending":4,"active":13,"total":17,"new":4,"median_price":1100000,"ppsf":585,"dom":67,"pop":7931,"lat":38.19779,"lng":-121.23603},{"zip":"94610","name":"Oakland","pending_pct":0.3134,"pending":21,"active":45,"total":67,"new":28,"median_price":795000,"ppsf":585,"dom":35,"pop":32628,"lat":37.81229,"lng":-122.24048},{"zip":"93609","name":"Caruthers","pending_pct":0.1667,"pending":1,"active":5,"total":6,"new":0,"median_price":439488,"ppsf":239,"dom":72,"pop":4740,"lat":36.52616,"lng":-119.86388},{"zip":"92555","name":"Moreno Valley","pending_pct":0.5,"pending":55,"active":55,"total":110,"new":48,"median_price":604554,"ppsf":285,"dom":35,"pop":45978,"lat":33.9133,"lng":-117.10867},{"zip":"90704","name":"Avalon","pending_pct":0.1818,"pending":2,"active":10,"total":11,"new":0,"median_price":999900,"ppsf":928,"dom":45,"pop":3421,"lat":33.3765,"lng":-118.43678},{"zip":"93532","name":"Lake Hughes","pending_pct":0.2222,"pending":8,"active":28,"total":36,"new":4,"median_price":402500,"ppsf":357,"dom":52,"pop":2930,"lat":34.68571,"lng":-118.55914},{"zip":"91502","name":"Burbank","pending_pct":0.3,"pending":3,"active":6,"total":10,"new":4,"median_price":695000,"ppsf":662,"dom":47,"pop":11652,"lat":34.17684,"lng":-118.30936},{"zip":"93307","name":"Bakersfield","pending_pct":0.4946,"pending":92,"active":94,"total":186,"new":52,"median_price":360000,"ppsf":254,"dom":40,"pop":85945,"lat":35.2487,"lng":-118.93253},{"zip":"95379","name":"Tuolumne","pending_pct":0.2593,"pending":7,"active":22,"total":27,"new":4,"median_price":399950,"ppsf":249,"dom":65,"pop":3598,"lat":37.96174,"lng":-120.21635},{"zip":"94929","name":"Dillon Beach","pending_pct":0.25,"pending":3,"active":8,"total":12,"new":4,"median_price":1699000,"ppsf":988,"dom":29,"pop":293,"lat":38.25444,"lng":-122.96243},{"zip":"93066","name":"Somis","pending_pct":0.2727,"pending":3,"active":8,"total":11,"new":0,"median_price":5147475,"ppsf":731,"dom":66,"pop":2898,"lat":34.28851,"lng":-119.02848},{"zip":"92126","name":"San Diego","pending_pct":0.4118,"pending":49,"active":70,"total":119,"new":52,"median_price":924333,"ppsf":644,"dom":30,"pop":76059,"lat":32.912,"lng":-117.14344},{"zip":"93535","name":"Lancaster","pending_pct":0.414,"pending":118,"active":168,"total":285,"new":52,"median_price":447000,"ppsf":282,"dom":57,"pop":79409,"lat":34.69908,"lng":-117.89613},{"zip":"92780","name":"Tustin","pending_pct":0.3467,"pending":26,"active":49,"total":75,"new":44,"median_price":1123995,"ppsf":626,"dom":49,"pop":54374,"lat":33.73685,"lng":-117.81968},{"zip":"93428","name":"Cambria","pending_pct":0.2373,"pending":14,"active":45,"total":59,"new":12,"median_price":1244000,"ppsf":725,"dom":67,"pop":6399,"lat":35.58995,"lng":-121.02943},{"zip":"91761","name":"Ontario","pending_pct":0.3692,"pending":72,"active":119,"total":195,"new":64,"median_price":655592,"ppsf":391,"dom":43,"pop":62935,"lat":34.03541,"lng":-117.5915},{"zip":"95249","name":"San Andreas","pending_pct":0.1852,"pending":5,"active":22,"total":27,"new":8,"median_price":392500,"ppsf":283,"dom":46,"pop":4295,"lat":38.18986,"lng":-120.61784},{"zip":"92372","name":"Pinon Hills","pending_pct":0.2162,"pending":8,"active":29,"total":37,"new":12,"median_price":522500,"ppsf":251,"dom":53,"pop":5149,"lat":34.45097,"lng":-117.62859},{"zip":"95148","name":"San Jose","pending_pct":0.3333,"pending":14,"active":29,"total":42,"new":24,"median_price":1589998,"ppsf":820,"dom":20,"pop":44995,"lat":37.33252,"lng":-121.78142},{"zip":"96007","name":"Anderson","pending_pct":0.4545,"pending":45,"active":55,"total":99,"new":32,"median_price":432000,"ppsf":277,"dom":33,"pop":24768,"lat":40.45507,"lng":-122.30468},{"zip":"94526","name":"Danville","pending_pct":0.2653,"pending":26,"active":72,"total":98,"new":44,"median_price":1712383,"ppsf":785,"dom":29,"pop":32584,"lat":37.81472,"lng":-121.98451},{"zip":"91766","name":"Pomona","pending_pct":0.3846,"pending":35,"active":55,"total":91,"new":36,"median_price":637000,"ppsf":431,"dom":40,"pop":69327,"lat":34.04192,"lng":-117.75698},{"zip":"95624","name":"Elk Grove","pending_pct":0.3644,"pending":43,"active":79,"total":118,"new":56,"median_price":652500,"ppsf":314,"dom":36,"pop":67630,"lat":38.43203,"lng":-121.30506},{"zip":"95112","name":"San Jose","pending_pct":0.2911,"pending":23,"active":56,"total":79,"new":28,"median_price":782500,"ppsf":597,"dom":40,"pop":57373,"lat":37.34461,"lng":-121.88346},{"zip":"95032","name":"Los Gatos","pending_pct":0.4156,"pending":32,"active":42,"total":77,"new":24,"median_price":2424944,"ppsf":1135,"dom":31,"pop":27313,"lat":37.20859,"lng":-121.92359},{"zip":"91905","name":"Boulevard","pending_pct":0.3529,"pending":6,"active":11,"total":17,"new":4,"median_price":649000,"ppsf":380,"dom":69,"pop":1683,"lat":32.67773,"lng":-116.30734},{"zip":"93265","name":"Springville","pending_pct":0.0896,"pending":6,"active":61,"total":67,"new":12,"median_price":471000,"ppsf":236,"dom":55,"pop":3397,"lat":36.20713,"lng":-118.70876},{"zip":"90606","name":"Whittier","pending_pct":0.4815,"pending":13,"active":14,"total":27,"new":16,"median_price":840000,"ppsf":575,"dom":32,"pop":32057,"lat":33.97742,"lng":-118.0661},{"zip":"92562","name":"Murrieta","pending_pct":0.2704,"pending":86,"active":229,"total":318,"new":92,"median_price":759500,"ppsf":336,"dom":48,"pop":64781,"lat":33.53579,"lng":-117.35098},{"zip":"95640","name":"Ione","pending_pct":0.2308,"pending":15,"active":48,"total":65,"new":12,"median_price":541475,"ppsf":292,"dom":71,"pop":13926,"lat":38.33922,"lng":-120.94024},{"zip":"90212","name":"Beverly Hills","pending_pct":0.0976,"pending":4,"active":37,"total":41,"new":8,"median_price":2722500,"ppsf":1042,"dom":44,"pop":10728,"lat":34.06208,"lng":-118.40173},{"zip":"93012","name":"Camarillo","pending_pct":0.3397,"pending":53,"active":102,"total":156,"new":44,"median_price":825000,"ppsf":507,"dom":46,"pop":35791,"lat":34.20518,"lng":-118.99309},{"zip":"92539","name":"Anza","pending_pct":0.2917,"pending":7,"active":17,"total":24,"new":4,"median_price":524000,"ppsf":306,"dom":73,"pop":3774,"lat":33.51579,"lng":-116.64432},{"zip":"92385","name":"Skyforest","pending_pct":0.25,"pending":2,"active":8,"total":8,"new":0,"median_price":714000,"ppsf":429,"dom":115,"pop":198,"lat":34.21345,"lng":-117.23057},{"zip":"94403","name":"San Mateo","pending_pct":0.3692,"pending":24,"active":41,"total":65,"new":36,"median_price":1586500,"ppsf":916,"dom":25,"pop":43276,"lat":37.53844,"lng":-122.30454},{"zip":"94131","name":"San Francisco","pending_pct":0.3621,"pending":21,"active":35,"total":58,"new":24,"median_price":1596850,"ppsf":998,"dom":42,"pop":28504,"lat":37.74569,"lng":-122.44243},{"zip":"93664","name":"Shaver Lake","pending_pct":0.129,"pending":8,"active":54,"total":62,"new":16,"median_price":669000,"ppsf":372,"dom":115,"pop":345,"lat":37.05671,"lng":-119.17981},{"zip":"95670","name":"Rancho Cordova","pending_pct":0.3561,"pending":47,"active":86,"total":132,"new":48,"median_price":499999,"ppsf":316,"dom":38,"pop":58819,"lat":38.60461,"lng":-121.27963},{"zip":"95695","name":"Woodland","pending_pct":0.4306,"pending":31,"active":41,"total":72,"new":20,"median_price":530000,"ppsf":341,"dom":44,"pop":37702,"lat":38.68847,"lng":-121.85666},{"zip":"93701","name":"Fresno","pending_pct":0.05,"pending":1,"active":19,"total":20,"new":8,"median_price":314998,"ppsf":223,"dom":61,"pop":9808,"lat":36.74955,"lng":-119.78772},{"zip":"92173","name":"San Ysidro","pending_pct":0.4762,"pending":10,"active":12,"total":21,"new":4,"median_price":422450,"ppsf":601,"dom":58,"pop":27585,"lat":32.55552,"lng":-117.05114},{"zip":"96035","name":"Gerber","pending_pct":0.3333,"pending":2,"active":3,"total":6,"new":4,"median_price":299000,"ppsf":235,"dom":38,"pop":3326,"lat":40.04168,"lng":-122.18254},{"zip":"94112","name":"San Francisco","pending_pct":0.4627,"pending":31,"active":36,"total":67,"new":32,"median_price":1100000,"ppsf":786,"dom":42,"pop":79277,"lat":37.7206,"lng":-122.44311},{"zip":"95007","name":"Brookdale","pending_pct":0.6,"pending":3,"active":2,"total":5,"new":0,"median_price":888000,"ppsf":748,"dom":31,"pop":396,"lat":37.11019,"lng":-122.11434},{"zip":"95630","name":"Folsom","pending_pct":0.3391,"pending":78,"active":145,"total":230,"new":104,"median_price":749475,"ppsf":373,"dom":37,"pop":79484,"lat":38.66558,"lng":-121.141},{"zip":"94710","name":"Berkeley","pending_pct":0.25,"pending":4,"active":13,"total":16,"new":8,"median_price":998500,"ppsf":713,"dom":18,"pop":8380,"lat":37.86705,"lng":-122.303},{"zip":"90061","name":"Los Angeles","pending_pct":0.32,"pending":8,"active":17,"total":25,"new":12,"median_price":674900,"ppsf":466,"dom":32,"pop":30051,"lat":33.92037,"lng":-118.27383},{"zip":"96101","name":"Alturas","pending_pct":0.0256,"pending":1,"active":38,"total":39,"new":4,"median_price":225000,"ppsf":177,"dom":97,"pop":5142,"lat":41.45803,"lng":-120.5043},{"zip":"94805","name":"Richmond","pending_pct":0.4444,"pending":12,"active":14,"total":27,"new":12,"median_price":710500,"ppsf":521,"dom":21,"pop":14670,"lat":37.94215,"lng":-122.32364},{"zip":"93291","name":"Visalia","pending_pct":0.4179,"pending":112,"active":160,"total":268,"new":96,"median_price":446990,"ppsf":259,"dom":33,"pop":63568,"lat":36.38931,"lng":-119.36838},{"zip":"93536","name":"Lancaster","pending_pct":0.3616,"pending":132,"active":237,"total":365,"new":100,"median_price":575000,"ppsf":262,"dom":52,"pop":73412,"lat":34.75267,"lng":-118.3889},{"zip":"92123","name":"San Diego","pending_pct":0.4035,"pending":23,"active":37,"total":57,"new":16,"median_price":906950,"ppsf":645,"dom":35,"pop":33041,"lat":32.80958,"lng":-117.13419},{"zip":"95935","name":"Dobbins","pending_pct":0.6,"pending":3,"active":2,"total":5,"new":0,"median_price":389500,"ppsf":161,"dom":107,"pop":934,"lat":39.37369,"lng":-121.19615},{"zip":"92262","name":"Palm Springs","pending_pct":0.2011,"pending":114,"active":456,"total":567,"new":112,"median_price":775000,"ppsf":472,"dom":67,"pop":26887,"lat":33.86287,"lng":-116.55736},{"zip":"90058","name":"Los Angeles","pending_pct":1.0,"pending":1,"active":1,"total":1,"new":0,"median_price":479900,"ppsf":686,"dom":29,"pop":3585,"lat":34.00264,"lng":-118.21452},{"zip":"92610","name":"Foothill Ranch","pending_pct":0.3514,"pending":13,"active":24,"total":37,"new":16,"median_price":1148000,"ppsf":618,"dom":53,"pop":12867,"lat":33.68336,"lng":-117.65404},{"zip":"93422","name":"Atascadero","pending_pct":0.3778,"pending":34,"active":54,"total":90,"new":24,"median_price":860500,"ppsf":445,"dom":50,"pop":33002,"lat":35.4638,"lng":-120.69007},{"zip":"90023","name":"Los Angeles","pending_pct":0.4444,"pending":8,"active":10,"total":18,"new":8,"median_price":699900,"ppsf":580,"dom":92,"pop":43857,"lat":34.02264,"lng":-118.19986},{"zip":"95722","name":"Meadow Vista","pending_pct":0.2692,"pending":7,"active":19,"total":26,"new":8,"median_price":1100000,"ppsf":407,"dom":40,"pop":4092,"lat":39.00467,"lng":-121.02891},{"zip":"93234","name":"Huron","pending_pct":1.0,"pending":1,"active":0,"total":1,"new":0,"median_price":425000,"ppsf":174,"dom":46,"pop":6519,"lat":36.19608,"lng":-120.08477},{"zip":"96121","name":"Milford","pending_pct":0.5,"pending":1,"active":1,"total":2,"new":0,"median_price":795000,"ppsf":417,"dom":24,"pop":217,"lat":40.16938,"lng":-120.37659},{"zip":"93727","name":"Fresno","pending_pct":0.5506,"pending":147,"active":127,"total":267,"new":64,"median_price":472500,"ppsf":251,"dom":45,"pop":84107,"lat":36.75119,"lng":-119.69736},{"zip":"93512","name":"Benton","pending_pct":1.0,"pending":1,"active":1,"total":1,"new":0,"median_price":599000,"ppsf":285,"dom":9,"pop":206,"lat":37.87379,"lng":-118.53455},{"zip":"94946","name":"Nicasio","pending_pct":0.1111,"pending":1,"active":8,"total":9,"new":0,"median_price":5197500,"ppsf":1189,"dom":68,"pop":715,"lat":38.07176,"lng":-122.68785},{"zip":"95587","name":"Piercy","pending_pct":0.4,"pending":2,"active":3,"total":5,"new":4,"median_price":365000,"ppsf":304,"dom":25,"pop":0,"lat":39.96969,"lng":-123.75537},{"zip":"93606","name":"Biola","pending_pct":0.5,"pending":1,"active":1,"total":2,"new":0,"median_price":299999,"ppsf":273,"dom":28,"pop":988,"lat":36.79871,"lng":-120.01625},{"zip":"92273","name":"Seeley","pending_pct":0.5,"pending":1,"active":1,"total":2,"new":0,"median_price":270000,"ppsf":179,"dom":61,"pop":1090,"lat":32.80798,"lng":-115.69592},{"zip":"95553","name":"Miranda","pending_pct":0.2105,"pending":4,"active":15,"total":19,"new":8,"median_price":305000,"ppsf":198,"dom":51,"pop":789,"lat":40.22981,"lng":-123.87133},{"zip":"95503","name":"Eureka","pending_pct":0.3596,"pending":32,"active":56,"total":89,"new":36,"median_price":499999,"ppsf":326,"dom":40,"pop":25054,"lat":40.72406,"lng":-124.09178},{"zip":"96076","name":"Platina","pending_pct":null,"pending":null,"active":2,"total":2,"new":0,"median_price":152500,"ppsf":239,"dom":221,"pop":148,"lat":40.37547,"lng":-122.92996},{"zip":"95674","name":"Rio Oso","pending_pct":null,"pending":null,"active":3,"total":3,"new":0,"median_price":850000,"ppsf":551,"dom":67,"pop":998,"lat":38.95396,"lng":-121.48187},{"zip":"95463","name":"Navarro","pending_pct":null,"pending":null,"active":3,"total":3,"new":0,"median_price":699000,"ppsf":386,"dom":187,"pop":14,"lat":39.18957,"lng":-123.58059},{"zip":"95020","name":"Gilroy","pending_pct":0.2835,"pending":36,"active":91,"total":127,"new":40,"median_price":1238000,"ppsf":527,"dom":42,"pop":67181,"lat":37.01461,"lng":-121.55718},{"zip":"93650","name":"Fresno","pending_pct":0.6,"pending":3,"active":2,"total":5,"new":4,"median_price":339900,"ppsf":272,"dom":22,"pop":3333,"lat":36.84026,"lng":-119.80038},{"zip":"94542","name":"Hayward","pending_pct":0.3077,"pending":8,"active":16,"total":26,"new":12,"median_price":1269000,"ppsf":592,"dom":22,"pop":14871,"lat":37.6553,"lng":-122.02584},{"zip":"94519","name":"Concord","pending_pct":0.4375,"pending":14,"active":16,"total":32,"new":16,"median_price":759000,"ppsf":504,"dom":24,"pop":19058,"lat":37.98881,"lng":-122.01275},{"zip":"94552","name":"Castro Valley","pending_pct":0.4,"pending":6,"active":9,"total":15,"new":12,"median_price":1567500,"ppsf":658,"dom":29,"pop":14506,"lat":37.70456,"lng":-122.01359},{"zip":"95006","name":"Boulder Creek","pending_pct":0.3103,"pending":18,"active":38,"total":58,"new":20,"median_price":799051,"ppsf":535,"dom":46,"pop":7561,"lat":37.17129,"lng":-122.151},{"zip":"90042","name":"Los Angeles","pending_pct":0.2374,"pending":33,"active":105,"total":139,"new":40,"median_price":899000,"ppsf":694,"dom":49,"pop":56835,"lat":34.11475,"lng":-118.192},{"zip":"92887","name":"Yorba Linda","pending_pct":0.35,"pending":21,"active":38,"total":60,"new":24,"median_price":1450000,"ppsf":586,"dom":45,"pop":19725,"lat":33.88727,"lng":-117.73389},{"zip":"95329","name":"La Grange","pending_pct":0.2333,"pending":7,"active":23,"total":30,"new":8,"median_price":444900,"ppsf":238,"dom":56,"pop":2954,"lat":37.67726,"lng":-120.41363},{"zip":"90221","name":"Compton","pending_pct":0.5116,"pending":22,"active":19,"total":43,"new":20,"median_price":650000,"ppsf":535,"dom":52,"pop":50659,"lat":33.88542,"lng":-118.20614},{"zip":"93704","name":"Fresno","pending_pct":0.3544,"pending":28,"active":50,"total":79,"new":20,"median_price":438777,"ppsf":252,"dom":50,"pop":28932,"lat":36.80012,"lng":-119.80202},{"zip":"92655","name":"Midway City","pending_pct":0.5,"pending":2,"active":2,"total":4,"new":4,"median_price":1254000,"ppsf":847,"dom":51,"pop":8026,"lat":33.74606,"lng":-117.98765},{"zip":"91352","name":"Sun Valley","pending_pct":0.3607,"pending":22,"active":38,"total":61,"new":24,"median_price":899999,"ppsf":529,"dom":50,"pop":46899,"lat":34.23183,"lng":-118.36596},{"zip":"92285","name":"Landers","pending_pct":0.1184,"pending":9,"active":66,"total":76,"new":12,"median_price":349900,"ppsf":322,"dom":71,"pop":2764,"lat":34.33762,"lng":-116.51364},{"zip":"95672","name":"Rescue","pending_pct":0.2308,"pending":6,"active":21,"total":26,"new":12,"median_price":1250000,"ppsf":445,"dom":45,"pop":5764,"lat":38.72664,"lng":-120.99638},{"zip":"93445","name":"Oceano","pending_pct":0.2353,"pending":4,"active":15,"total":17,"new":4,"median_price":824000,"ppsf":619,"dom":65,"pop":6857,"lat":35.03319,"lng":-120.62002},{"zip":"92823","name":"Brea","pending_pct":0.25,"pending":2,"active":5,"total":8,"new":4,"median_price":1656000,"ppsf":609,"dom":69,"pop":5846,"lat":33.92536,"lng":-117.80024},{"zip":"92563","name":"Murrieta","pending_pct":0.348,"pending":87,"active":165,"total":250,"new":84,"median_price":690000,"ppsf":304,"dom":45,"pop":80379,"lat":33.58435,"lng":-117.14458},{"zip":"93446","name":"Paso Robles","pending_pct":0.2541,"pending":46,"active":142,"total":181,"new":64,"median_price":925000,"ppsf":454,"dom":55,"pop":45554,"lat":35.65861,"lng":-120.71888},{"zip":"95119","name":"San Jose","pending_pct":0.3182,"pending":7,"active":15,"total":22,"new":16,"median_price":1368888,"ppsf":837,"dom":25,"pop":10841,"lat":37.22756,"lng":-121.79077},{"zip":"96041","name":"Hayfork","pending_pct":0.25,"pending":9,"active":28,"total":36,"new":4,"median_price":249000,"ppsf":210,"dom":138,"pop":2889,"lat":40.52059,"lng":-123.19991},{"zip":"90250","name":"Hawthorne","pending_pct":0.3194,"pending":23,"active":49,"total":72,"new":24,"median_price":964950,"ppsf":673,"dom":47,"pop":93826,"lat":33.91383,"lng":-118.34996},{"zip":"95982","name":"Sutter","pending_pct":0.4444,"pending":4,"active":6,"total":9,"new":0,"median_price":499995,"ppsf":379,"dom":96,"pop":2795,"lat":39.18051,"lng":-121.80746},{"zip":"92808","name":"Anaheim","pending_pct":0.4318,"pending":19,"active":25,"total":44,"new":24,"median_price":985000,"ppsf":648,"dom":34,"pop":21539,"lat":33.85623,"lng":-117.74018},{"zip":"91326","name":"Porter Ranch","pending_pct":0.2672,"pending":35,"active":98,"total":131,"new":40,"median_price":1550000,"ppsf":597,"dom":51,"pop":38428,"lat":34.28022,"lng":-118.5566},{"zip":"92356","name":"Lucerne Valley","pending_pct":0.26,"pending":13,"active":37,"total":50,"new":4,"median_price":350000,"ppsf":216,"dom":94,"pop":6543,"lat":34.49633,"lng":-116.89265},{"zip":"92103","name":"San Diego","pending_pct":0.2708,"pending":39,"active":107,"total":144,"new":48,"median_price":884500,"ppsf":746,"dom":44,"pop":34836,"lat":32.74782,"lng":-117.16738},{"zip":"91316","name":"Encino","pending_pct":0.2103,"pending":41,"active":155,"total":195,"new":68,"median_price":995000,"ppsf":579,"dom":46,"pop":29491,"lat":34.15836,"lng":-118.51658},{"zip":"93726","name":"Fresno","pending_pct":0.3824,"pending":26,"active":42,"total":68,"new":24,"median_price":329000,"ppsf":216,"dom":47,"pop":44527,"lat":36.79374,"lng":-119.76161},{"zip":"90620","name":"Buena Park","pending_pct":0.5,"pending":24,"active":21,"total":48,"new":20,"median_price":950000,"ppsf":651,"dom":28,"pop":46608,"lat":33.84616,"lng":-118.01176},{"zip":"95842","name":"Sacramento","pending_pct":0.4203,"pending":29,"active":40,"total":69,"new":36,"median_price":399975,"ppsf":300,"dom":46,"pop":34034,"lat":38.687,"lng":-121.34889},{"zip":"91343","name":"North Hills","pending_pct":0.3267,"pending":33,"active":70,"total":101,"new":32,"median_price":873750,"ppsf":483,"dom":43,"pop":60783,"lat":34.23837,"lng":-118.48076},{"zip":"93544","name":"Llano","pending_pct":0.1538,"pending":2,"active":11,"total":13,"new":4,"median_price":270000,"ppsf":225,"dom":52,"pop":1027,"lat":34.49063,"lng":-117.75505},{"zip":"94510","name":"Benicia","pending_pct":0.2353,"pending":20,"active":66,"total":85,"new":40,"median_price":729000,"ppsf":453,"dom":29,"pop":26749,"lat":38.09756,"lng":-122.13189},{"zip":"95983","name":"Taylorsville","pending_pct":0.2,"pending":1,"active":4,"total":5,"new":0,"median_price":957250,"ppsf":327,"dom":43,"pop":302,"lat":40.05827,"lng":-120.73897},{"zip":"94709","name":"Berkeley","pending_pct":0.2667,"pending":4,"active":11,"total":15,"new":4,"median_price":699000,"ppsf":809,"dom":22,"pop":12146,"lat":37.87835,"lng":-122.26613},{"zip":"92253","name":"La Quinta","pending_pct":0.1921,"pending":112,"active":473,"total":583,"new":116,"median_price":897000,"ppsf":414,"dom":71,"pop":38666,"lat":33.65562,"lng":-116.28785},{"zip":"95005","name":"Ben Lomond","pending_pct":0.3158,"pending":6,"active":12,"total":19,"new":4,"median_price":985000,"ppsf":534,"dom":37,"pop":7277,"lat":37.09835,"lng":-122.08931},{"zip":"94931","name":"Cotati","pending_pct":0.4706,"pending":8,"active":8,"total":17,"new":8,"median_price":889000,"ppsf":466,"dom":38,"pop":9487,"lat":38.32229,"lng":-122.71497},{"zip":"90630","name":"Cypress","pending_pct":0.4545,"pending":35,"active":42,"total":77,"new":40,"median_price":999944,"ppsf":616,"dom":35,"pop":49318,"lat":33.81814,"lng":-118.03814},{"zip":"93930","name":"King City","pending_pct":0.6111,"pending":11,"active":10,"total":18,"new":8,"median_price":617450,"ppsf":364,"dom":55,"pop":17243,"lat":36.19924,"lng":-121.07282},{"zip":"94595","name":"Walnut Creek","pending_pct":0.2582,"pending":47,"active":136,"total":182,"new":64,"median_price":599999,"ppsf":503,"dom":38,"pop":16988,"lat":37.87206,"lng":-122.06892},{"zip":"92056","name":"Oceanside","pending_pct":0.3286,"pending":46,"active":91,"total":140,"new":72,"median_price":850000,"ppsf":540,"dom":30,"pop":53616,"lat":33.20197,"lng":-117.28939},{"zip":"92308","name":"Apple Valley","pending_pct":0.3,"pending":66,"active":155,"total":220,"new":76,"median_price":445000,"ppsf":241,"dom":46,"pop":42709,"lat":34.42005,"lng":-117.15558},{"zip":"93615","name":"Cutler","pending_pct":0.5,"pending":1,"active":1,"total":2,"new":0,"median_price":309000,"ppsf":226,"dom":30,"pop":5764,"lat":36.50374,"lng":-119.28385},{"zip":"95938","name":"Durham","pending_pct":0.3,"pending":3,"active":6,"total":10,"new":4,"median_price":689000,"ppsf":379,"dom":46,"pop":3943,"lat":39.60504,"lng":-121.79708},{"zip":"90063","name":"Los Angeles","pending_pct":0.325,"pending":13,"active":28,"total":40,"new":8,"median_price":794500,"ppsf":580,"dom":69,"pop":48397,"lat":34.0452,"lng":-118.18583},{"zip":"95341","name":"Merced","pending_pct":0.3579,"pending":34,"active":61,"total":95,"new":20,"median_price":399900,"ppsf":258,"dom":51,"pop":36385,"lat":37.23037,"lng":-120.50715},{"zip":"90742","name":"Sunset Beach","pending_pct":0.5,"pending":2,"active":2,"total":4,"new":0,"median_price":3324500,"ppsf":1837,"dom":10,"pop":405,"lat":33.71834,"lng":-118.07174},{"zip":"94585","name":"Suisun City","pending_pct":0.4583,"pending":22,"active":28,"total":48,"new":24,"median_price":534500,"ppsf":362,"dom":28,"pop":29357,"lat":38.19061,"lng":-121.94216},{"zip":"96059","name":"Manton","pending_pct":0.3333,"pending":3,"active":6,"total":9,"new":4,"median_price":449400,"ppsf":201,"dom":25,"pop":826,"lat":40.42947,"lng":-121.83465},{"zip":"93117","name":"Goleta","pending_pct":0.383,"pending":18,"active":30,"total":47,"new":16,"median_price":1367500,"ppsf":849,"dom":37,"pop":52934,"lat":34.49102,"lng":-120.08201},{"zip":"91362","name":"Thousand Oaks","pending_pct":0.3741,"pending":52,"active":87,"total":139,"new":60,"median_price":1372500,"ppsf":574,"dom":33,"pop":35996,"lat":34.19244,"lng":-118.81949},{"zip":"94588","name":"Pleasanton","pending_pct":0.2727,"pending":18,"active":48,"total":66,"new":28,"median_price":1298000,"ppsf":743,"dom":23,"pop":34328,"lat":37.73801,"lng":-121.88178},{"zip":"92590","name":"Temecula","pending_pct":0.1364,"pending":6,"active":37,"total":44,"new":16,"median_price":2124500,"ppsf":513,"dom":55,"pop":5089,"lat":33.48391,"lng":-117.22075},{"zip":"94607","name":"Oakland","pending_pct":0.2414,"pending":21,"active":68,"total":87,"new":16,"median_price":519500,"ppsf":450,"dom":62,"pop":28804,"lat":37.80721,"lng":-122.30024},{"zip":"96096","name":"Whitmore","pending_pct":0.125,"pending":1,"active":7,"total":8,"new":0,"median_price":920000,"ppsf":339,"dom":37,"pop":577,"lat":40.63738,"lng":-121.87552},{"zip":"92844","name":"Garden Grove","pending_pct":0.4118,"pending":7,"active":10,"total":17,"new":12,"median_price":722450,"ppsf":617,"dom":32,"pop":23188,"lat":33.76561,"lng":-117.96952},{"zip":"91602","name":"North Hollywood","pending_pct":0.1774,"pending":11,"active":52,"total":62,"new":16,"median_price":935000,"ppsf":643,"dom":44,"pop":20957,"lat":34.15078,"lng":-118.36633},{"zip":"93924","name":"Carmel Valley","pending_pct":0.1463,"pending":6,"active":35,"total":41,"new":8,"median_price":1699000,"ppsf":745,"dom":60,"pop":6316,"lat":36.39489,"lng":-121.63406},{"zip":"94102","name":"San Francisco","pending_pct":0.2432,"pending":9,"active":28,"total":37,"new":12,"median_price":507000,"ppsf":950,"dom":56,"pop":35976,"lat":37.77956,"lng":-122.41931},{"zip":"95389","name":"Yosemite National Park","pending_pct":0.0625,"pending":1,"active":15,"total":16,"new":0,"median_price":1300000,"ppsf":940,"dom":54,"pop":2181,"lat":37.73784,"lng":-119.52556},{"zip":"95678","name":"Roseville","pending_pct":0.3495,"pending":36,"active":67,"total":103,"new":44,"median_price":537450,"ppsf":355,"dom":33,"pop":45346,"lat":38.76536,"lng":-121.28847},{"zip":"90211","name":"Beverly Hills","pending_pct":0.1429,"pending":5,"active":30,"total":35,"new":16,"median_price":1599000,"ppsf":867,"dom":48,"pop":9120,"lat":34.06498,"lng":-118.38293},{"zip":"95124","name":"San Jose","pending_pct":0.3362,"pending":39,"active":78,"total":116,"new":56,"median_price":1798000,"ppsf":1049,"dom":25,"pop":52096,"lat":37.25684,"lng":-121.92286},{"zip":"95703","name":"Applegate","pending_pct":0.3333,"pending":2,"active":4,"total":6,"new":0,"median_price":972000,"ppsf":307,"dom":96,"pop":2589,"lat":38.99156,"lng":-120.9864},{"zip":"90660","name":"Pico Rivera","pending_pct":0.371,"pending":23,"active":38,"total":62,"new":24,"median_price":749999,"ppsf":548,"dom":35,"pop":60272,"lat":33.98868,"lng":-118.09111},{"zip":"95446","name":"Guerneville","pending_pct":0.1042,"pending":5,"active":43,"total":48,"new":20,"median_price":575000,"ppsf":548,"dom":44,"pop":4607,"lat":38.52525,"lng":-123.00423},{"zip":"90745","name":"Carson","pending_pct":0.4783,"pending":22,"active":25,"total":46,"new":24,"median_price":798500,"ppsf":531,"dom":35,"pop":57397,"lat":33.82117,"lng":-118.26458},{"zip":"92242","name":"Earp","pending_pct":0.1111,"pending":1,"active":8,"total":9,"new":0,"median_price":532500,"ppsf":195,"dom":156,"pop":1359,"lat":34.19019,"lng":-114.30755},{"zip":"96073","name":"Palo Cedro","pending_pct":0.24,"pending":6,"active":19,"total":25,"new":8,"median_price":629000,"ppsf":288,"dom":41,"pop":5750,"lat":40.59047,"lng":-122.20537},{"zip":"93313","name":"Bakersfield","pending_pct":0.4562,"pending":73,"active":89,"total":160,"new":64,"median_price":444000,"ppsf":232,"dom":35,"pop":61843,"lat":35.16363,"lng":-119.04715},{"zip":"95338","name":"Mariposa","pending_pct":0.2333,"pending":21,"active":68,"total":90,"new":12,"median_price":467000,"ppsf":261,"dom":71,"pop":10006,"lat":37.50911,"lng":-119.98659},{"zip":"93926","name":"Gonzales","pending_pct":1.0,"pending":2,"active":1,"total":2,"new":0,"median_price":717000,"ppsf":439,"dom":118,"pop":8724,"lat":36.52567,"lng":-121.3991},{"zip":"95449","name":"Hopland","pending_pct":0.1818,"pending":2,"active":10,"total":11,"new":0,"median_price":1090000,"ppsf":406,"dom":116,"pop":1763,"lat":38.94331,"lng":-123.09653},{"zip":"92376","name":"Rialto","pending_pct":0.4646,"pending":46,"active":53,"total":99,"new":48,"median_price":565000,"ppsf":371,"dom":33,"pop":84394,"lat":34.11053,"lng":-117.37997},{"zip":"91351","name":"Canyon Country","pending_pct":0.2907,"pending":25,"active":61,"total":86,"new":32,"median_price":439000,"ppsf":438,"dom":58,"pop":33155,"lat":34.43269,"lng":-118.46276},{"zip":"93401","name":"San Luis Obispo","pending_pct":0.3784,"pending":42,"active":67,"total":111,"new":40,"median_price":1075000,"ppsf":674,"dom":54,"pop":29202,"lat":35.23539,"lng":-120.61834},{"zip":"95531","name":"Crescent City","pending_pct":0.1376,"pending":15,"active":96,"total":109,"new":20,"median_price":542400,"ppsf":280,"dom":70,"pop":22291,"lat":41.79288,"lng":-124.00473},{"zip":"91977","name":"Spring Valley","pending_pct":0.4667,"pending":56,"active":60,"total":120,"new":60,"median_price":777000,"ppsf":508,"dom":31,"pop":61064,"lat":32.72387,"lng":-116.99631},{"zip":"94065","name":"Redwood City","pending_pct":0.3077,"pending":12,"active":29,"total":39,"new":12,"median_price":1198500,"ppsf":908,"dom":41,"pop":11673,"lat":37.53504,"lng":-122.24683},{"zip":"95051","name":"Santa Clara","pending_pct":0.32,"pending":32,"active":70,"total":100,"new":40,"median_price":1664500,"ppsf":988,"dom":28,"pop":62054,"lat":37.3483,"lng":-121.98444},{"zip":"94132","name":"San Francisco","pending_pct":0.3043,"pending":7,"active":16,"total":23,"new":16,"median_price":999000,"ppsf":775,"dom":37,"pop":26859,"lat":37.72219,"lng":-122.48475},{"zip":"95018","name":"Felton","pending_pct":0.4167,"pending":10,"active":14,"total":24,"new":4,"median_price":869000,"ppsf":590,"dom":54,"pop":6594,"lat":37.08027,"lng":-122.05824},{"zip":"95607","name":"Capay","pending_pct":0.5,"pending":1,"active":1,"total":2,"new":0,"median_price":1248000,"ppsf":466,"dom":60,"pop":330,"lat":38.7899,"lng":-122.12585},{"zip":"92059","name":"Pala","pending_pct":0.25,"pending":1,"active":3,"total":4,"new":0,"median_price":1350000,"ppsf":601,"dom":79,"pop":1362,"lat":33.38277,"lng":-117.05193},{"zip":"94972","name":"Valley Ford","pending_pct":1.0,"pending":1,"active":0,"total":1,"new":0,"median_price":1150000,"ppsf":819,"dom":82,"pop":0,"lat":38.33665,"lng":-122.93934},{"zip":"95923","name":"Canyon Dam","pending_pct":null,"pending":null,"active":1,"total":1,"new":2,"median_price":2250000,"ppsf":1202,"dom":5,"pop":68,"lat":40.18385,"lng":-121.13672},{"zip":"91963","name":"Potrero","pending_pct":null,"pending":null,"active":4,"total":4,"new":0,"median_price":632000,"ppsf":557,"dom":48,"pop":689,"lat":32.64798,"lng":-116.5964},{"zip":"95253","name":"Victor","pending_pct":null,"pending":null,"active":1,"total":1,"new":0,"median_price":1575000,"ppsf":2100,"dom":9,"pop":609,"lat":38.14725,"lng":-121.19525},{"zip":"95417","name":"Branscomb","pending_pct":null,"pending":null,"active":1,"total":1,"new":0,"median_price":1950000,"ppsf":1083,"dom":353,"pop":220,"lat":39.68791,"lng":-123.65075},{"zip":"95943","name":"Glenn","pending_pct":null,"pending":null,"active":2,"total":2,"new":0,"median_price":479000,"ppsf":252,"dom":30,"pop":621,"lat":39.57692,"lng":-122.0367},{"zip":"90039","name":"Los Angeles","pending_pct":0.3194,"pending":23,"active":48,"total":72,"new":20,"median_price":1578000,"ppsf":912,"dom":32,"pop":28884,"lat":34.11242,"lng":-118.26153},{"zip":"90803","name":"Long Beach","pending_pct":0.25,"pending":29,"active":88,"total":116,"new":48,"median_price":1780000,"ppsf":825,"dom":55,"pop":31526,"lat":33.76162,"lng":-118.12178},{"zip":"90018","name":"Los Angeles","pending_pct":0.1552,"pending":9,"active":45,"total":58,"new":24,"median_price":999999,"ppsf":688,"dom":52,"pop":48745,"lat":34.0286,"lng":-118.31737},{"zip":"95735","name":"Twin Bridges","pending_pct":0.5,"pending":1,"active":2,"total":2,"new":0,"median_price":1662000,"ppsf":655,"dom":59,"pop":51,"lat":38.82986,"lng":-120.17936},{"zip":"93427","name":"Buellton","pending_pct":0.2778,"pending":5,"active":13,"total":18,"new":4,"median_price":1360000,"ppsf":636,"dom":84,"pop":5737,"lat":34.62724,"lng":-120.22465},{"zip":"94085","name":"Sunnyvale","pending_pct":0.38,"pending":19,"active":32,"total":50,"new":24,"median_price":1592000,"ppsf":913,"dom":29,"pop":24024,"lat":37.38862,"lng":-122.01793},{"zip":"93510","name":"Acton","pending_pct":0.2609,"pending":12,"active":34,"total":46,"new":8,"median_price":1099500,"ppsf":386,"dom":67,"pop":7786,"lat":34.45627,"lng":-118.2109},{"zip":"90802","name":"Long Beach","pending_pct":0.2513,"pending":48,"active":139,"total":191,"new":68,"median_price":507500,"ppsf":617,"dom":62,"pop":40434,"lat":33.75035,"lng":-118.21143},{"zip":"91605","name":"North Hollywood","pending_pct":0.25,"pending":16,"active":47,"total":64,"new":16,"median_price":877500,"ppsf":532,"dom":58,"pop":49868,"lat":34.20699,"lng":-118.40067},{"zip":"90650","name":"Norwalk","pending_pct":0.3736,"pending":34,"active":57,"total":91,"new":44,"median_price":725000,"ppsf":607,"dom":38,"pop":99900,"lat":33.90703,"lng":-118.08249},{"zip":"92121","name":"San Diego","pending_pct":0.4615,"pending":6,"active":8,"total":13,"new":4,"median_price":889500,"ppsf":710,"dom":19,"pop":3974,"lat":32.8973,"lng":-117.20231},{"zip":"93311","name":"Bakersfield","pending_pct":0.4314,"pending":110,"active":148,"total":255,"new":68,"median_price":550970,"ppsf":258,"dom":38,"pop":55555,"lat":35.15378,"lng":-119.16567},{"zip":"95665","name":"Pine Grove","pending_pct":0.2069,"pending":6,"active":24,"total":29,"new":4,"median_price":459999,"ppsf":239,"dom":52,"pop":4465,"lat":38.39587,"lng":-120.65238},{"zip":"94019","name":"Half Moon Bay","pending_pct":0.1277,"pending":6,"active":38,"total":47,"new":12,"median_price":1924500,"ppsf":800,"dom":37,"pop":14419,"lat":37.44826,"lng":-122.4023},{"zip":"93725","name":"Fresno","pending_pct":0.4792,"pending":23,"active":25,"total":48,"new":20,"median_price":402495,"ppsf":274,"dom":45,"pop":24575,"lat":36.62667,"lng":-119.73501},{"zip":"96142","name":"Tahoma","pending_pct":0.2,"pending":5,"active":20,"total":25,"new":8,"median_price":965000,"ppsf":753,"dom":64,"pop":725,"lat":39.0138,"lng":-120.09592},{"zip":"95351","name":"Modesto","pending_pct":0.5,"pending":26,"active":26,"total":52,"new":16,"median_price":437450,"ppsf":333,"dom":35,"pop":48498,"lat":37.6236,"lng":-120.99828},{"zip":"93505","name":"California City","pending_pct":0.2848,"pending":45,"active":115,"total":158,"new":28,"median_price":310000,"ppsf":191,"dom":73,"pop":14353,"lat":35.15708,"lng":-117.90934},{"zip":"92410","name":"San Bernardino","pending_pct":0.3958,"pending":19,"active":28,"total":48,"new":16,"median_price":439950,"ppsf":402,"dom":74,"pop":47869,"lat":34.10655,"lng":-117.29574},{"zip":"93035","name":"Oxnard","pending_pct":0.2053,"pending":31,"active":118,"total":151,"new":32,"median_price":1399000,"ppsf":689,"dom":51,"pop":26853,"lat":34.19034,"lng":-119.22879},{"zip":"94903","name":"San Rafael","pending_pct":0.3378,"pending":25,"active":48,"total":74,"new":28,"median_price":972475,"ppsf":627,"dom":35,"pop":30615,"lat":38.02485,"lng":-122.5522},{"zip":"92371","name":"Phelan","pending_pct":0.3766,"pending":29,"active":48,"total":77,"new":24,"median_price":525000,"ppsf":257,"dom":52,"pop":21580,"lat":34.43837,"lng":-117.54266},{"zip":"95819","name":"Sacramento","pending_pct":0.3947,"pending":15,"active":22,"total":38,"new":28,"median_price":857000,"ppsf":577,"dom":27,"pop":19737,"lat":38.56816,"lng":-121.43772},{"zip":"93243","name":"Lebec","pending_pct":0.25,"pending":2,"active":6,"total":8,"new":0,"median_price":269500,"ppsf":292,"dom":61,"pop":834,"lat":34.84057,"lng":-118.81769},{"zip":"95963","name":"Orland","pending_pct":0.2258,"pending":7,"active":23,"total":31,"new":8,"median_price":483000,"ppsf":280,"dom":72,"pop":16070,"lat":39.73682,"lng":-122.30329},{"zip":"92530","name":"Lake Elsinore","pending_pct":0.3937,"pending":87,"active":133,"total":221,"new":72,"median_price":579995,"ppsf":323,"dom":49,"pop":61768,"lat":33.63386,"lng":-117.37949},{"zip":"96093","name":"Weaverville","pending_pct":0.3571,"pending":10,"active":19,"total":28,"new":4,"median_price":346750,"ppsf":224,"dom":77,"pop":4320,"lat":40.77237,"lng":-122.94329},{"zip":"92571","name":"Perris","pending_pct":0.451,"pending":46,"active":56,"total":102,"new":48,"median_price":572995,"ppsf":286,"dom":52,"pop":60096,"lat":33.84182,"lng":-117.19522},{"zip":"96051","name":"Lakehead","pending_pct":0.125,"pending":2,"active":14,"total":16,"new":0,"median_price":484450,"ppsf":238,"dom":52,"pop":1070,"lat":40.90112,"lng":-122.35664},{"zip":"93286","name":"Woodlake","pending_pct":0.4545,"pending":15,"active":19,"total":33,"new":4,"median_price":399000,"ppsf":285,"dom":94,"pop":10548,"lat":36.45149,"lng":-119.1079},{"zip":"91750","name":"La Verne","pending_pct":0.3871,"pending":24,"active":38,"total":62,"new":28,"median_price":998900,"ppsf":510,"dom":53,"pop":32692,"lat":34.14927,"lng":-117.76647},{"zip":"94621","name":"Oakland","pending_pct":0.34,"pending":17,"active":33,"total":50,"new":12,"median_price":499950,"ppsf":465,"dom":51,"pop":33840,"lat":37.7379,"lng":-122.20794},{"zip":"95833","name":"Sacramento","pending_pct":0.2673,"pending":27,"active":76,"total":101,"new":36,"median_price":505000,"ppsf":304,"dom":45,"pop":42265,"lat":38.61529,"lng":-121.51558},{"zip":"95632","name":"Galt","pending_pct":0.3542,"pending":34,"active":63,"total":96,"new":32,"median_price":583044,"ppsf":323,"dom":50,"pop":32493,"lat":38.27705,"lng":-121.26128},{"zip":"92694","name":"Ladera Ranch","pending_pct":0.3228,"pending":61,"active":125,"total":189,"new":76,"median_price":1199800,"ppsf":653,"dom":45,"pop":35764,"lat":33.51502,"lng":-117.58065},{"zip":"94947","name":"Novato","pending_pct":0.2812,"pending":18,"active":44,"total":64,"new":32,"median_price":1098500,"ppsf":558,"dom":33,"pop":24100,"lat":38.10705,"lng":-122.62813},{"zip":"92070","name":"Santa Ysabel","pending_pct":0.125,"pending":1,"active":7,"total":8,"new":0,"median_price":1295000,"ppsf":632,"dom":43,"pop":607,"lat":33.18513,"lng":-116.74071},{"zip":"92879","name":"Corona","pending_pct":0.3333,"pending":31,"active":63,"total":93,"new":48,"median_price":694500,"ppsf":411,"dom":50,"pop":49317,"lat":33.87979,"lng":-117.5357},{"zip":"95658","name":"Newcastle","pending_pct":0.3125,"pending":10,"active":22,"total":32,"new":12,"median_price":1797000,"ppsf":560,"dom":33,"pop":5894,"lat":38.87938,"lng":-121.15173},{"zip":"93614","name":"Coarsegold","pending_pct":0.2308,"pending":24,"active":84,"total":104,"new":24,"median_price":495000,"ppsf":222,"dom":67,"pop":11445,"lat":37.21282,"lng":-119.72659},{"zip":"92509","name":"Jurupa Valley","pending_pct":0.4593,"pending":62,"active":73,"total":135,"new":52,"median_price":712500,"ppsf":373,"dom":46,"pop":81182,"lat":34.00293,"lng":-117.44547},{"zip":"94025","name":"Menlo Park","pending_pct":0.375,"pending":30,"active":50,"total":80,"new":36,"median_price":3410000,"ppsf":1587,"dom":28,"pop":40721,"lat":37.45087,"lng":-122.1829},{"zip":"93710","name":"Fresno","pending_pct":0.3962,"pending":21,"active":30,"total":53,"new":16,"median_price":422000,"ppsf":242,"dom":44,"pop":31669,"lat":36.82335,"lng":-119.76251},{"zip":"95834","name":"Sacramento","pending_pct":0.3034,"pending":27,"active":62,"total":89,"new":40,"median_price":501000,"ppsf":292,"dom":32,"pop":36245,"lat":38.64207,"lng":-121.51967},{"zip":"91786","name":"Upland","pending_pct":0.3735,"pending":31,"active":51,"total":83,"new":28,"median_price":675000,"ppsf":433,"dom":44,"pop":55829,"lat":34.10525,"lng":-117.66206},{"zip":"94601","name":"Oakland","pending_pct":0.3276,"pending":19,"active":38,"total":58,"new":8,"median_price":602450,"ppsf":435,"dom":50,"pop":53259,"lat":37.77684,"lng":-122.21822},{"zip":"92661","name":"Newport Beach","pending_pct":0.1538,"pending":6,"active":33,"total":39,"new":12,"median_price":4995000,"ppsf":2513,"dom":65,"pop":3079,"lat":33.60231,"lng":-117.89872},{"zip":"93641","name":"Miramonte","pending_pct":0.2,"pending":2,"active":9,"total":10,"new":0,"median_price":437450,"ppsf":267,"dom":155,"pop":466,"lat":36.70481,"lng":-119.02167},{"zip":"95713","name":"Colfax","pending_pct":0.2857,"pending":12,"active":31,"total":42,"new":16,"median_price":649944,"ppsf":324,"dom":48,"pop":9448,"lat":39.08477,"lng":-120.92788},{"zip":"95988","name":"Willows","pending_pct":0.35,"pending":7,"active":14,"total":20,"new":8,"median_price":349500,"ppsf":249,"dom":37,"pop":8808,"lat":39.49825,"lng":-122.28698},{"zip":"95821","name":"Sacramento","pending_pct":0.3281,"pending":21,"active":43,"total":64,"new":32,"median_price":514500,"ppsf":349,"dom":38,"pop":38064,"lat":38.62541,"lng":-121.38479},{"zip":"92104","name":"San Diego","pending_pct":0.2588,"pending":22,"active":64,"total":85,"new":36,"median_price":738888,"ppsf":769,"dom":39,"pop":47410,"lat":32.74191,"lng":-117.12781},{"zip":"93254","name":"New Cuyama","pending_pct":0.0625,"pending":1,"active":15,"total":16,"new":0,"median_price":700000,"ppsf":288,"dom":109,"pop":707,"lat":34.92498,"lng":-119.74834},{"zip":"90254","name":"Hermosa Beach","pending_pct":0.2745,"pending":14,"active":39,"total":51,"new":20,"median_price":2595000,"ppsf":1210,"dom":37,"pop":19063,"lat":33.86532,"lng":-118.39616},{"zip":"92587","name":"Menifee","pending_pct":0.2609,"pending":36,"active":104,"total":138,"new":36,"median_price":838500,"ppsf":395,"dom":57,"pop":18218,"lat":33.69466,"lng":-117.25196},{"zip":"91303","name":"Canoga Park","pending_pct":0.2353,"pending":8,"active":25,"total":34,"new":12,"median_price":699000,"ppsf":564,"dom":45,"pop":29805,"lat":34.19784,"lng":-118.6017},{"zip":"96023","name":"Dorris","pending_pct":0.1176,"pending":2,"active":14,"total":17,"new":0,"median_price":215000,"ppsf":160,"dom":88,"pop":1178,"lat":41.92108,"lng":-121.97592},{"zip":"95348","name":"Merced","pending_pct":0.4062,"pending":52,"active":76,"total":128,"new":40,"median_price":452500,"ppsf":249,"dom":38,"pop":37540,"lat":37.41525,"lng":-120.4979},{"zip":"92277","name":"Twentynine Palms","pending_pct":0.1815,"pending":45,"active":204,"total":248,"new":60,"median_price":279000,"ppsf":250,"dom":68,"pop":26277,"lat":34.11248,"lng":-115.68752},{"zip":"94531","name":"Antioch","pending_pct":0.4336,"pending":49,"active":63,"total":113,"new":40,"median_price":700000,"ppsf":296,"dom":37,"pop":46387,"lat":37.95665,"lng":-121.77777},{"zip":"95126","name":"San Jose","pending_pct":0.25,"pending":19,"active":55,"total":76,"new":32,"median_price":985000,"ppsf":689,"dom":44,"pop":38327,"lat":37.32687,"lng":-121.91677},{"zip":"90008","name":"Los Angeles","pending_pct":0.2568,"pending":19,"active":55,"total":74,"new":20,"median_price":1350000,"ppsf":659,"dom":48,"pop":33252,"lat":34.01037,"lng":-118.3428},{"zip":"92672","name":"San Clemente","pending_pct":0.3684,"pending":35,"active":61,"total":95,"new":40,"median_price":2293500,"ppsf":1077,"dom":51,"pop":36939,"lat":33.3825,"lng":-117.5403},{"zip":"95826","name":"Sacramento","pending_pct":0.3846,"pending":30,"active":48,"total":78,"new":40,"median_price":450000,"ppsf":326,"dom":36,"pop":40165,"lat":38.54554,"lng":-121.37885},{"zip":"95991","name":"Yuba City","pending_pct":0.3152,"pending":29,"active":63,"total":92,"new":32,"median_price":399000,"ppsf":262,"dom":47,"pop":42579,"lat":39.02205,"lng":-121.61317},{"zip":"93620","name":"Dos Palos","pending_pct":0.2941,"pending":5,"active":12,"total":17,"new":8,"median_price":386450,"ppsf":291,"dom":39,"pop":9927,"lat":37.0448,"lng":-120.6223},{"zip":"94116","name":"San Francisco","pending_pct":0.5294,"pending":18,"active":18,"total":34,"new":24,"median_price":1446500,"ppsf":920,"dom":33,"pop":43791,"lat":37.74457,"lng":-122.48611},{"zip":"96025","name":"Dunsmuir","pending_pct":0.1053,"pending":2,"active":17,"total":19,"new":4,"median_price":304250,"ppsf":272,"dom":42,"pop":1906,"lat":41.20409,"lng":-122.32523},{"zip":"90603","name":"Whittier","pending_pct":0.2917,"pending":7,"active":18,"total":24,"new":16,"median_price":959900,"ppsf":546,"dom":52,"pop":21118,"lat":33.94487,"lng":-117.99239},{"zip":"91942","name":"La Mesa","pending_pct":0.325,"pending":26,"active":54,"total":80,"new":32,"median_price":689900,"ppsf":563,"dom":32,"pop":41424,"lat":32.77728,"lng":-117.02129},{"zip":"96114","name":"Janesville","pending_pct":0.2143,"pending":3,"active":10,"total":14,"new":0,"median_price":459000,"ppsf":220,"dom":62,"pop":2959,"lat":40.2945,"lng":-120.49359},{"zip":"95461","name":"Middletown","pending_pct":0.2222,"pending":6,"active":22,"total":27,"new":4,"median_price":425000,"ppsf":265,"dom":100,"pop":3422,"lat":38.762,"lng":-122.59314},{"zip":"91105","name":"Pasadena","pending_pct":0.2941,"pending":20,"active":48,"total":68,"new":24,"median_price":1615000,"ppsf":843,"dom":37,"pop":12531,"lat":34.14045,"lng":-118.16716},{"zip":"94803","name":"El Sobrante","pending_pct":0.4423,"pending":23,"active":32,"total":52,"new":20,"median_price":750000,"ppsf":435,"dom":55,"pop":27659,"lat":37.95683,"lng":-122.28235},{"zip":"94511","name":"Bethel Island","pending_pct":0.1538,"pending":4,"active":22,"total":26,"new":8,"median_price":1187495,"ppsf":461,"dom":85,"pop":1864,"lat":38.02883,"lng":-121.64039},{"zip":"90232","name":"Culver City","pending_pct":0.3158,"pending":6,"active":13,"total":19,"new":8,"median_price":2529000,"ppsf":1183,"dom":23,"pop":16554,"lat":34.01859,"lng":-118.39157},{"zip":"93424","name":"Avila Beach","pending_pct":0.3333,"pending":2,"active":4,"total":6,"new":4,"median_price":2350000,"ppsf":1104,"dom":117,"pop":962,"lat":35.20141,"lng":-120.78394},{"zip":"90006","name":"Los Angeles","pending_pct":0.2444,"pending":11,"active":34,"total":45,"new":8,"median_price":722250,"ppsf":588,"dom":79,"pop":55527,"lat":34.04807,"lng":-118.29411},{"zip":"92337","name":"Fontana","pending_pct":0.4808,"pending":25,"active":27,"total":52,"new":28,"median_price":626028,"ppsf":348,"dom":47,"pop":36026,"lat":34.04967,"lng":-117.47145},{"zip":"94089","name":"Sunnyvale","pending_pct":0.25,"pending":6,"active":18,"total":24,"new":16,"median_price":1488000,"ppsf":912,"dom":28,"pop":22699,"lat":37.41192,"lng":-122.01441},{"zip":"95041","name":"Mount Hermon","pending_pct":0.5,"pending":1,"active":1,"total":2,"new":0,"median_price":1998000,"ppsf":621,"dom":59,"pop":623,"lat":37.05052,"lng":-122.05828},{"zip":"90040","name":"Los Angeles","pending_pct":0.4,"pending":4,"active":6,"total":10,"new":4,"median_price":654500,"ppsf":588,"dom":93,"pop":11430,"lat":33.99318,"lng":-118.1489},{"zip":"94587","name":"Union City","pending_pct":0.3235,"pending":33,"active":70,"total":102,"new":36,"median_price":1295000,"ppsf":709,"dom":25,"pop":67464,"lat":37.59142,"lng":-122.06993},{"zip":"92835","name":"Fullerton","pending_pct":0.4211,"pending":24,"active":33,"total":57,"new":28,"median_price":1099995,"ppsf":615,"dom":42,"pop":26005,"lat":33.90171,"lng":-117.91529},{"zip":"94952","name":"Petaluma","pending_pct":0.3818,"pending":21,"active":34,"total":55,"new":32,"median_price":1299000,"ppsf":657,"dom":36,"pop":33785,"lat":38.23007,"lng":-122.76338},{"zip":"93268","name":"Taft","pending_pct":0.3051,"pending":18,"active":41,"total":59,"new":20,"median_price":235000,"ppsf":204,"dom":40,"pop":16963,"lat":35.16725,"lng":-119.40785},{"zip":"95340","name":"Merced","pending_pct":0.3077,"pending":40,"active":89,"total":130,"new":40,"median_price":415000,"ppsf":253,"dom":51,"pop":38303,"lat":37.34128,"lng":-120.40658},{"zip":"91364","name":"Woodland Hills","pending_pct":0.2925,"pending":43,"active":105,"total":147,"new":36,"median_price":1699000,"ppsf":670,"dom":48,"pop":27748,"lat":34.1548,"lng":-118.59492},{"zip":"92868","name":"Orange","pending_pct":0.3929,"pending":11,"active":16,"total":28,"new":8,"median_price":1054000,"ppsf":584,"dom":36,"pop":26380,"lat":33.78799,"lng":-117.87637},{"zip":"91030","name":"South Pasadena","pending_pct":0.3077,"pending":12,"active":27,"total":39,"new":16,"median_price":1795000,"ppsf":794,"dom":45,"pop":26068,"lat":34.11029,"lng":-118.15748},{"zip":"95942","name":"Forest Ranch","pending_pct":0.3,"pending":6,"active":13,"total":20,"new":4,"median_price":457000,"ppsf":244,"dom":53,"pop":2089,"lat":39.98954,"lng":-121.58872},{"zip":"95692","name":"Wheatland","pending_pct":0.55,"pending":11,"active":7,"total":20,"new":4,"median_price":475000,"ppsf":294,"dom":64,"pop":5032,"lat":39.04699,"lng":-121.40471},{"zip":"94561","name":"Oakley","pending_pct":0.3197,"pending":39,"active":83,"total":122,"new":40,"median_price":719700,"ppsf":324,"dom":36,"pop":46368,"lat":37.99311,"lng":-121.69172},{"zip":"92883","name":"Corona","pending_pct":0.318,"pending":76,"active":162,"total":239,"new":72,"median_price":779500,"ppsf":364,"dom":50,"pop":39990,"lat":33.75994,"lng":-117.47827},{"zip":"95310","name":"Columbia","pending_pct":0.2,"pending":2,"active":9,"total":10,"new":0,"median_price":549000,"ppsf":231,"dom":63,"pop":1356,"lat":38.09944,"lng":-120.36171},{"zip":"93455","name":"Santa Maria","pending_pct":0.4062,"pending":39,"active":60,"total":96,"new":44,"median_price":810000,"ppsf":410,"dom":36,"pop":44611,"lat":34.84195,"lng":-120.45522},{"zip":"92124","name":"San Diego","pending_pct":0.4103,"pending":16,"active":19,"total":39,"new":12,"median_price":939900,"ppsf":590,"dom":30,"pop":30474,"lat":32.82823,"lng":-117.08528},{"zip":"95470","name":"Redwood Valley","pending_pct":0.1739,"pending":4,"active":20,"total":23,"new":4,"median_price":649000,"ppsf":393,"dom":118,"pop":6226,"lat":39.30019,"lng":-123.22984},{"zip":"93111","name":"Santa Barbara","pending_pct":0.3667,"pending":11,"active":20,"total":30,"new":20,"median_price":2095000,"ppsf":974,"dom":25,"pop":18274,"lat":34.44932,"lng":-119.80223},{"zip":"95215","name":"Stockton","pending_pct":0.413,"pending":19,"active":27,"total":46,"new":12,"median_price":513900,"ppsf":373,"dom":45,"pop":24847,"lat":37.9444,"lng":-121.15276},{"zip":"91011","name":"La Canada Flintridge","pending_pct":0.3191,"pending":15,"active":31,"total":47,"new":20,"median_price":2950000,"ppsf":958,"dom":41,"pop":19935,"lat":34.21757,"lng":-118.20346},{"zip":"91340","name":"San Fernando","pending_pct":0.4419,"pending":19,"active":23,"total":43,"new":8,"median_price":751000,"ppsf":526,"dom":65,"pop":33424,"lat":34.28668,"lng":-118.43479},{"zip":"92629","name":"Dana Point","pending_pct":0.303,"pending":30,"active":69,"total":99,"new":36,"median_price":2350000,"ppsf":1257,"dom":53,"pop":25579,"lat":33.47678,"lng":-117.70459},{"zip":"93405","name":"San Luis Obispo","pending_pct":0.3273,"pending":18,"active":37,"total":55,"new":16,"median_price":1222000,"ppsf":631,"dom":49,"pop":25002,"lat":35.29672,"lng":-120.72618},{"zip":"94545","name":"Hayward","pending_pct":0.3333,"pending":13,"active":24,"total":39,"new":20,"median_price":855000,"ppsf":613,"dom":35,"pop":32843,"lat":37.62957,"lng":-122.12048},{"zip":"95558","name":"Petrolia","pending_pct":0.5,"pending":1,"active":2,"total":2,"new":0,"median_price":437000,"ppsf":277,"dom":44,"pop":230,"lat":40.32673,"lng":-124.24017},{"zip":"94576","name":"Deer Park","pending_pct":0.1429,"pending":1,"active":6,"total":7,"new":0,"median_price":702495,"ppsf":573,"dom":57,"pop":103,"lat":38.54932,"lng":-122.47581},{"zip":"92401","name":"San Bernardino","pending_pct":0.3333,"pending":1,"active":2,"total":3,"new":0,"median_price":209000,"ppsf":267,"dom":143,"pop":1659,"lat":34.10586,"lng":-117.29188},{"zip":"95589","name":"Whitethorn","pending_pct":0.2143,"pending":6,"active":22,"total":28,"new":12,"median_price":491500,"ppsf":329,"dom":70,"pop":1115,"lat":40.07927,"lng":-123.98596},{"zip":"95915","name":"Belden","pending_pct":null,"pending":null,"active":2,"total":2,"new":0,"median_price":449900,"ppsf":175,"dom":31,"pop":0,"lat":39.97926,"lng":-121.21492},{"zip":"95934","name":"Crescent Mills","pending_pct":null,"pending":null,"active":1,"total":1,"new":0,"median_price":247000,"ppsf":172,"dom":19,"pop":63,"lat":40.07463,"lng":-120.93108},{"zip":"93452","name":"San Simeon","pending_pct":null,"pending":null,"active":6,"total":6,"new":0,"median_price":726950,"ppsf":623,"dom":112,"pop":217,"lat":35.71078,"lng":-121.20396},{"zip":"96123","name":"Ravendale","pending_pct":null,"pending":null,"active":1,"total":1,"new":0,"median_price":60000,"ppsf":55,"dom":199,"pop":45,"lat":40.80392,"lng":-120.30799},{"zip":"93244","name":"Lemon Cove","pending_pct":null,"pending":null,"active":2,"total":2,"new":0,"median_price":662450,"ppsf":380,"dom":128,"pop":117,"lat":36.3908,"lng":-118.99733},{"zip":"95427","name":"Comptche","pending_pct":null,"pending":null,"active":4,"total":4,"new":0,"median_price":945000,"ppsf":469,"dom":230,"pop":666,"lat":39.25326,"lng":-123.56932},{"zip":"95303","name":"Ballico","pending_pct":null,"pending":null,"active":1,"total":1,"new":0,"median_price":1750000,"ppsf":553,"dom":128,"pop":784,"lat":37.4714,"lng":-120.67744},{"zip":"93554","name":"Randsburg","pending_pct":null,"pending":null,"active":1,"total":1,"new":0,"median_price":199500,"ppsf":223,"dom":null,"pop":19,"lat":35.36914,"lng":-117.75876},{"zip":"95224","name":"Avery","pending_pct":null,"pending":null,"active":3,"total":3,"new":0,"median_price":519000,"ppsf":315,"dom":69,"pop":316,"lat":38.22706,"lng":-120.32562},{"zip":"92327","name":"Daggett","pending_pct":1.0,"pending":2,"active":1,"total":2,"new":0,"median_price":129000,"ppsf":135,"dom":90,"pop":576,"lat":34.86632,"lng":-116.84347},{"zip":"95554","name":"Myers Flat","pending_pct":0.2,"pending":1,"active":4,"total":5,"new":0,"median_price":267500,"ppsf":186,"dom":35,"pop":368,"lat":40.27573,"lng":-123.78414},{"zip":"90302","name":"Inglewood","pending_pct":0.1321,"pending":7,"active":45,"total":53,"new":16,"median_price":552000,"ppsf":509,"dom":39,"pop":29003,"lat":33.97472,"lng":-118.35565},{"zip":"95841","name":"Sacramento","pending_pct":0.3415,"pending":14,"active":29,"total":41,"new":20,"median_price":347000,"ppsf":293,"dom":38,"pop":20500,"lat":38.66031,"lng":-121.34812},{"zip":"91356","name":"Tarzana","pending_pct":0.2365,"pending":35,"active":110,"total":148,"new":40,"median_price":1750000,"ppsf":607,"dom":43,"pop":30942,"lat":34.15504,"lng":-118.54757},{"zip":"95368","name":"Salida","pending_pct":0.3333,"pending":10,"active":18,"total":30,"new":12,"median_price":512500,"ppsf":305,"dom":21,"pop":13900,"lat":37.71544,"lng":-121.09047},{"zip":"93527","name":"Inyokern","pending_pct":0.0909,"pending":1,"active":10,"total":11,"new":4,"median_price":270000,"ppsf":159,"dom":106,"pop":1831,"lat":35.80294,"lng":-117.98504},{"zip":"95645","name":"Knights Landing","pending_pct":0.3333,"pending":1,"active":2,"total":3,"new":0,"median_price":755000,"ppsf":276,"dom":147,"pop":1314,"lat":38.89025,"lng":-121.79992},{"zip":"92027","name":"Escondido","pending_pct":0.4375,"pending":56,"active":74,"total":128,"new":52,"median_price":869000,"ppsf":455,"dom":32,"pop":54113,"lat":33.13263,"lng":-116.98335},{"zip":"95136","name":"San Jose","pending_pct":0.2809,"pending":25,"active":67,"total":89,"new":48,"median_price":1248000,"ppsf":697,"dom":25,"pop":48056,"lat":37.27192,"lng":-121.85237},{"zip":"91934","name":"Jacumba","pending_pct":0.25,"pending":1,"active":4,"total":4,"new":0,"median_price":324900,"ppsf":248,"dom":106,"pop":1200,"lat":32.66488,"lng":-116.16828},{"zip":"96146","name":"Olympic Valley","pending_pct":0.0926,"pending":5,"active":49,"total":54,"new":8,"median_price":785000,"ppsf":898,"dom":96,"pop":1154,"lat":39.22556,"lng":-120.23681},{"zip":"91201","name":"Glendale","pending_pct":0.25,"pending":5,"active":14,"total":20,"new":16,"median_price":1139944,"ppsf":695,"dom":49,"pop":22394,"lat":34.17041,"lng":-118.28902},{"zip":"93611","name":"Clovis","pending_pct":0.4409,"pending":41,"active":54,"total":93,"new":40,"median_price":498500,"ppsf":269,"dom":44,"pop":46624,"lat":36.82552,"lng":-119.68115},{"zip":"90804","name":"Long Beach","pending_pct":0.2979,"pending":14,"active":33,"total":47,"new":20,"median_price":507450,"ppsf":586,"dom":45,"pop":38076,"lat":33.78223,"lng":-118.14917},{"zip":"95464","name":"Nice","pending_pct":0.2941,"pending":5,"active":12,"total":17,"new":0,"median_price":340000,"ppsf":284,"dom":59,"pop":2484,"lat":39.12736,"lng":-122.84733},{"zip":"95956","name":"Meadow Valley","pending_pct":0.3333,"pending":1,"active":3,"total":3,"new":0,"median_price":325000,"ppsf":241,"dom":33,"pop":373,"lat":39.8751,"lng":-121.12209},{"zip":"91935","name":"Jamul","pending_pct":0.3714,"pending":13,"active":22,"total":35,"new":12,"median_price":1200000,"ppsf":442,"dom":52,"pop":9114,"lat":32.70214,"lng":-116.78721},{"zip":"95346","name":"Mi Wuk Village","pending_pct":0.2,"pending":5,"active":20,"total":25,"new":4,"median_price":338000,"ppsf":245,"dom":42,"pop":923,"lat":38.07045,"lng":-120.17291},{"zip":"90003","name":"Los Angeles","pending_pct":0.375,"pending":24,"active":41,"total":64,"new":20,"median_price":615000,"ppsf":599,"dom":50,"pop":70065,"lat":33.96409,"lng":-118.27368},{"zip":"90015","name":"Los Angeles","pending_pct":0.0532,"pending":5,"active":88,"total":94,"new":12,"median_price":677000,"ppsf":635,"dom":69,"pop":24704,"lat":34.03932,"lng":-118.26625},{"zip":"90402","name":"Santa Monica","pending_pct":0.1974,"pending":15,"active":61,"total":76,"new":16,"median_price":5995000,"ppsf":1775,"dom":65,"pop":11337,"lat":34.03598,"lng":-118.50391},{"zip":"93643","name":"North Fork","pending_pct":0.1,"pending":3,"active":26,"total":30,"new":4,"median_price":449000,"ppsf":230,"dom":67,"pop":3041,"lat":37.27155,"lng":-119.45004},{"zip":"91007","name":"Arcadia","pending_pct":0.2113,"pending":15,"active":56,"total":71,"new":20,"median_price":1588000,"ppsf":719,"dom":36,"pop":33029,"lat":34.12842,"lng":-118.04818},{"zip":"90501","name":"Torrance","pending_pct":0.2982,"pending":17,"active":41,"total":57,"new":16,"median_price":929900,"ppsf":604,"dom":46,"pop":41787,"lat":33.8336,"lng":-118.31419},{"zip":"92082","name":"Valley Center","pending_pct":0.2788,"pending":29,"active":70,"total":104,"new":24,"median_price":1159000,"ppsf":418,"dom":46,"pop":21727,"lat":33.2518,"lng":-117.00284},{"zip":"95765","name":"Rocklin","pending_pct":0.3617,"pending":51,"active":88,"total":141,"new":60,"median_price":699000,"ppsf":324,"dom":44,"pop":43871,"lat":38.81982,"lng":-121.27772},{"zip":"93210","name":"Coalinga","pending_pct":0.3846,"pending":15,"active":23,"total":39,"new":8,"median_price":318000,"ppsf":216,"dom":45,"pop":18491,"lat":36.19519,"lng":-120.43245},{"zip":"92806","name":"Anaheim","pending_pct":0.375,"pending":9,"active":14,"total":24,"new":16,"median_price":1112500,"ppsf":589,"dom":25,"pop":41003,"lat":33.83884,"lng":-117.87054},{"zip":"94705","name":"Berkeley","pending_pct":0.4737,"pending":9,"active":10,"total":19,"new":8,"median_price":1995000,"ppsf":817,"dom":21,"pop":13991,"lat":37.86523,"lng":-122.2384},{"zip":"94520","name":"Concord","pending_pct":0.2647,"pending":18,"active":48,"total":68,"new":28,"median_price":569950,"ppsf":441,"dom":34,"pop":37381,"lat":37.99344,"lng":-122.03532},{"zip":"95811","name":"Sacramento","pending_pct":0.0556,"pending":1,"active":17,"total":18,"new":8,"median_price":639450,"ppsf":508,"dom":47,"pop":8810,"lat":38.58761,"lng":-121.49077},{"zip":"92354","name":"Loma Linda","pending_pct":0.2571,"pending":9,"active":26,"total":35,"new":16,"median_price":585000,"ppsf":376,"dom":54,"pop":22051,"lat":34.04933,"lng":-117.25119},{"zip":"91752","name":"Mira Loma","pending_pct":0.2115,"pending":11,"active":43,"total":52,"new":24,"median_price":869950,"ppsf":332,"dom":47,"pop":37983,"lat":33.99575,"lng":-117.53399},{"zip":"92344","name":"Hesperia","pending_pct":0.3088,"pending":42,"active":93,"total":136,"new":24,"median_price":567990,"ppsf":248,"dom":58,"pop":21349,"lat":34.39176,"lng":-117.40657},{"zip":"93667","name":"Tollhouse","pending_pct":0.5,"pending":4,"active":4,"total":8,"new":8,"median_price":462000,"ppsf":228,"dom":14,"pop":2218,"lat":36.96585,"lng":-119.31511},{"zip":"95383","name":"Twain Harte","pending_pct":0.1,"pending":7,"active":63,"total":70,"new":20,"median_price":468000,"ppsf":287,"dom":58,"pop":3782,"lat":38.09534,"lng":-120.22602},{"zip":"95327","name":"Jamestown","pending_pct":0.1852,"pending":5,"active":23,"total":27,"new":8,"median_price":475000,"ppsf":325,"dom":66,"pop":8752,"lat":37.84912,"lng":-120.4858},{"zip":"90013","name":"Los Angeles","pending_pct":0.0395,"pending":3,"active":74,"total":76,"new":12,"median_price":672500,"ppsf":669,"dom":87,"pop":14357,"lat":34.04435,"lng":-118.24},{"zip":"90292","name":"Marina Del Rey","pending_pct":0.142,"pending":23,"active":140,"total":162,"new":36,"median_price":1392500,"ppsf":891,"dom":55,"pop":23982,"lat":33.97865,"lng":-118.44707},{"zip":"90220","name":"Compton","pending_pct":0.4366,"pending":31,"active":36,"total":71,"new":32,"median_price":629900,"ppsf":522,"dom":50,"pop":48354,"lat":33.88058,"lng":-118.23591},{"zip":"90035","name":"Los Angeles","pending_pct":0.194,"pending":13,"active":53,"total":67,"new":16,"median_price":1299000,"ppsf":764,"dom":51,"pop":29000,"lat":34.05139,"lng":-118.38577},{"zip":"95366","name":"Ripon","pending_pct":0.3488,"pending":15,"active":27,"total":43,"new":24,"median_price":799000,"ppsf":351,"dom":32,"pop":18954,"lat":37.76223,"lng":-121.12574},{"zip":"93430","name":"Cayucos","pending_pct":0.2222,"pending":6,"active":22,"total":27,"new":8,"median_price":1574750,"ppsf":1073,"dom":83,"pop":3125,"lat":35.49214,"lng":-120.92422},{"zip":"92536","name":"Aguanga","pending_pct":0.2941,"pending":5,"active":12,"total":17,"new":4,"median_price":685000,"ppsf":370,"dom":69,"pop":2970,"lat":33.48791,"lng":-116.81528},{"zip":"95236","name":"Linden","pending_pct":0.2308,"pending":3,"active":10,"total":13,"new":4,"median_price":1069925,"ppsf":400,"dom":57,"pop":4490,"lat":38.04218,"lng":-121.03176},{"zip":"91745","name":"Hacienda Heights","pending_pct":0.3534,"pending":41,"active":76,"total":116,"new":40,"median_price":999900,"ppsf":545,"dom":44,"pop":54351,"lat":33.99926,"lng":-117.97225},{"zip":"95816","name":"Sacramento","pending_pct":0.3871,"pending":12,"active":20,"total":31,"new":12,"median_price":704500,"ppsf":548,"dom":30,"pop":19225,"lat":38.57555,"lng":-121.46543},{"zip":"92626","name":"Costa Mesa","pending_pct":0.3385,"pending":22,"active":47,"total":65,"new":32,"median_price":1525000,"ppsf":875,"dom":31,"pop":50708,"lat":33.67896,"lng":-117.90844},{"zip":"92054","name":"Oceanside","pending_pct":0.3139,"pending":43,"active":97,"total":137,"new":32,"median_price":1299950,"ppsf":882,"dom":43,"pop":38417,"lat":33.19377,"lng":-117.35508},{"zip":"92508","name":"Riverside","pending_pct":0.3964,"pending":44,"active":65,"total":111,"new":36,"median_price":799450,"ppsf":341,"dom":44,"pop":36909,"lat":33.89039,"lng":-117.3282},{"zip":"92870","name":"Placentia","pending_pct":0.4138,"pending":36,"active":52,"total":87,"new":44,"median_price":1024950,"ppsf":618,"dom":38,"pop":52826,"lat":33.88087,"lng":-117.85522},{"zip":"90012","name":"Los Angeles","pending_pct":0.1136,"pending":10,"active":77,"total":88,"new":16,"median_price":550000,"ppsf":577,"dom":73,"pop":37336,"lat":34.06679,"lng":-118.23878},{"zip":"95376","name":"Tracy","pending_pct":0.3125,"pending":35,"active":81,"total":112,"new":40,"median_price":629888,"ppsf":368,"dom":37,"pop":54488,"lat":37.73678,"lng":-121.43404},{"zip":"95673","name":"Rio Linda","pending_pct":0.4348,"pending":10,"active":13,"total":23,"new":12,"median_price":480000,"ppsf":353,"dom":32,"pop":16512,"lat":38.69029,"lng":-121.46603},{"zip":"91741","name":"Glendora","pending_pct":0.339,"pending":20,"active":39,"total":59,"new":24,"median_price":1199000,"ppsf":576,"dom":39,"pop":26071,"lat":34.1647,"lng":-117.83197},{"zip":"92110","name":"San Diego","pending_pct":0.3556,"pending":32,"active":57,"total":90,"new":28,"median_price":754450,"ppsf":643,"dom":36,"pop":30902,"lat":32.76533,"lng":-117.19965},{"zip":"94574","name":"Saint Helena","pending_pct":0.0824,"pending":7,"active":78,"total":85,"new":20,"median_price":2497500,"ppsf":1062,"dom":60,"pop":7457,"lat":38.52742,"lng":-122.39261},{"zip":"95682","name":"Shingle Springs","pending_pct":0.3023,"pending":39,"active":90,"total":129,"new":52,"median_price":719000,"ppsf":338,"dom":40,"pop":30065,"lat":38.60537,"lng":-120.96175},{"zip":"92363","name":"Needles","pending_pct":0.1429,"pending":6,"active":36,"total":42,"new":8,"median_price":247350,"ppsf":164,"dom":95,"pop":5531,"lat":34.70863,"lng":-114.57562},{"zip":"93256","name":"Pixley","pending_pct":0.4444,"pending":4,"active":5,"total":9,"new":0,"median_price":409000,"ppsf":229,"dom":52,"pop":5578,"lat":35.96805,"lng":-119.31251},{"zip":"94028","name":"Portola Valley","pending_pct":0.24,"pending":6,"active":19,"total":25,"new":4,"median_price":4141500,"ppsf":1469,"dom":43,"pop":6531,"lat":37.37492,"lng":-122.21136},{"zip":"90019","name":"Los Angeles","pending_pct":0.1829,"pending":15,"active":64,"total":82,"new":44,"median_price":1429000,"ppsf":686,"dom":38,"pop":59548,"lat":34.04861,"lng":-118.33874},{"zip":"95823","name":"Sacramento","pending_pct":0.3644,"pending":43,"active":73,"total":118,"new":48,"median_price":429888,"ppsf":302,"dom":41,"pop":83607,"lat":38.47473,"lng":-121.44266},{"zip":"94539","name":"Fremont","pending_pct":0.3298,"pending":31,"active":63,"total":94,"new":48,"median_price":1798880,"ppsf":926,"dom":23,"pop":52396,"lat":37.51635,"lng":-121.9119},{"zip":"90240","name":"Downey","pending_pct":0.4839,"pending":15,"active":17,"total":31,"new":20,"median_price":949000,"ppsf":568,"dom":23,"pop":24853,"lat":33.9564,"lng":-118.11803},{"zip":"90746","name":"Carson","pending_pct":0.425,"pending":17,"active":22,"total":40,"new":8,"median_price":862450,"ppsf":503,"dom":61,"pop":27091,"lat":33.85855,"lng":-118.25518},{"zip":"93638","name":"Madera","pending_pct":0.3871,"pending":24,"active":39,"total":62,"new":28,"median_price":450000,"ppsf":291,"dom":51,"pop":50571,"lat":37.0424,"lng":-120.03816},{"zip":"90049","name":"Los Angeles","pending_pct":0.1597,"pending":42,"active":223,"total":263,"new":56,"median_price":3895000,"ppsf":1122,"dom":54,"pop":37122,"lat":34.08749,"lng":-118.48976},{"zip":"92805","name":"Anaheim","pending_pct":0.2716,"pending":22,"active":59,"total":81,"new":24,"median_price":828000,"ppsf":580,"dom":40,"pop":74661,"lat":33.83003,"lng":-117.90568},{"zip":"90201","name":"Bell Gardens","pending_pct":0.5,"pending":11,"active":11,"total":22,"new":4,"median_price":699000,"ppsf":580,"dom":46,"pop":92763,"lat":33.97113,"lng":-118.1709},{"zip":"94598","name":"Walnut Creek","pending_pct":0.4062,"pending":26,"active":39,"total":64,"new":36,"median_price":1614500,"ppsf":692,"dom":25,"pop":27206,"lat":37.89238,"lng":-121.98283},{"zip":"92832","name":"Fullerton","pending_pct":0.4211,"pending":8,"active":11,"total":19,"new":8,"median_price":950000,"ppsf":652,"dom":40,"pop":27298,"lat":33.86871,"lng":-117.92914},{"zip":"91706","name":"Baldwin Park","pending_pct":0.4462,"pending":29,"active":36,"total":65,"new":24,"median_price":690000,"ppsf":514,"dom":44,"pop":71082,"lat":34.09627,"lng":-117.96855},{"zip":"95442","name":"Glen Ellen","pending_pct":0.125,"pending":4,"active":28,"total":32,"new":8,"median_price":2898000,"ppsf":834,"dom":67,"pop":3449,"lat":38.3785,"lng":-122.51549},{"zip":"93513","name":"Big Pine","pending_pct":0.25,"pending":1,"active":3,"total":4,"new":0,"median_price":487450,"ppsf":258,"dom":38,"pop":1632,"lat":37.18401,"lng":-118.17129},{"zip":"96097","name":"Yreka","pending_pct":0.1935,"pending":12,"active":51,"total":62,"new":16,"median_price":302500,"ppsf":213,"dom":56,"pop":9964,"lat":41.76234,"lng":-122.65921},{"zip":"92058","name":"Oceanside","pending_pct":0.439,"pending":18,"active":23,"total":41,"new":20,"median_price":649750,"ppsf":503,"dom":50,"pop":49834,"lat":33.28379,"lng":-117.34182},{"zip":"91401","name":"Van Nuys","pending_pct":0.3544,"pending":28,"active":51,"total":79,"new":24,"median_price":1399950,"ppsf":672,"dom":44,"pop":39231,"lat":34.17801,"lng":-118.43183},{"zip":"91763","name":"Montclair","pending_pct":0.5,"pending":11,"active":11,"total":22,"new":12,"median_price":656944,"ppsf":413,"dom":48,"pop":37700,"lat":34.07208,"lng":-117.69828},{"zip":"95127","name":"San Jose","pending_pct":0.2969,"pending":19,"active":45,"total":64,"new":28,"median_price":1124000,"ppsf":735,"dom":32,"pop":58825,"lat":37.37453,"lng":-121.78733},{"zip":"95939","name":"Elk Creek","pending_pct":0.5,"pending":1,"active":1,"total":2,"new":0,"median_price":369000,"ppsf":378,"dom":25,"pop":325,"lat":39.56755,"lng":-122.60224},{"zip":"96126","name":"Sierraville","pending_pct":0.3333,"pending":1,"active":2,"total":3,"new":0,"median_price":2876629,"ppsf":690,"dom":282,"pop":351,"lat":39.54764,"lng":-120.38999},{"zip":"96107","name":"Coleville","pending_pct":0.3333,"pending":1,"active":3,"total":3,"new":0,"median_price":332000,"ppsf":212,"dom":295,"pop":793,"lat":38.45215,"lng":-119.51421},{"zip":"95651","name":"Lotus","pending_pct":0.3333,"pending":1,"active":2,"total":3,"new":0,"median_price":814000,"ppsf":291,"dom":51,"pop":729,"lat":38.82088,"lng":-120.93515},{"zip":"95528","name":"Carlotta","pending_pct":0.25,"pending":3,"active":9,"total":12,"new":4,"median_price":415950,"ppsf":255,"dom":54,"pop":1286,"lat":40.4936,"lng":-123.92393},{"zip":"93621","name":"Dunlap","pending_pct":0.6667,"pending":2,"active":1,"total":3,"new":0,"median_price":1135000,"ppsf":626,"dom":116,"pop":441,"lat":36.8067,"lng":-119.13602},{"zip":"95471","name":"Rio Nido","pending_pct":0.6667,"pending":2,"active":1,"total":3,"new":0,"median_price":489000,"ppsf":509,"dom":166,"pop":394,"lat":38.53218,"lng":-122.97362},{"zip":"95456","name":"Little River","pending_pct":0.2,"pending":1,"active":5,"total":5,"new":4,"median_price":1245000,"ppsf":655,"dom":61,"pop":860,"lat":39.25851,"lng":-123.74585},{"zip":"95527","name":"Burnt Ranch","pending_pct":0.1429,"pending":1,"active":6,"total":7,"new":0,"median_price":499930,"ppsf":263,"dom":75,"pop":622,"lat":40.93593,"lng":-123.41966},{"zip":"93603","name":"Badger","pending_pct":null,"pending":null,"active":5,"total":5,"new":0,"median_price":280000,"ppsf":273,"dom":121,"pop":146,"lat":36.55118,"lng":-118.99607},{"zip":"95556","name":"Orleans","pending_pct":null,"pending":null,"active":5,"total":5,"new":0,"median_price":330000,"ppsf":231,"dom":40,"pop":949,"lat":41.31444,"lng":-123.59043},{"zip":"96112","name":"Fort Bidwell","pending_pct":null,"pending":null,"active":2,"total":2,"new":0,"median_price":700000,"ppsf":338,"dom":145,"pop":193,"lat":41.8372,"lng":-120.09403},{"zip":"94022","name":"Los Altos","pending_pct":0.3429,"pending":24,"active":44,"total":70,"new":24,"median_price":3325000,"ppsf":1748,"dom":31,"pop":20027,"lat":37.35534,"lng":-122.14494},{"zip":"95758","name":"Elk Grove","pending_pct":0.3036,"pending":34,"active":78,"total":112,"new":48,"median_price":589999,"ppsf":329,"dom":35,"pop":65725,"lat":38.42932,"lng":-121.44603},{"zip":"94706","name":"Albany","pending_pct":0.1944,"pending":7,"active":30,"total":36,"new":24,"median_price":629000,"ppsf":585,"dom":25,"pop":19969,"lat":37.88969,"lng":-122.29581},{"zip":"96037","name":"Greenview","pending_pct":0.3333,"pending":1,"active":2,"total":3,"new":0,"median_price":367000,"ppsf":290,"dom":92,"pop":168,"lat":41.54368,"lng":-122.93177},{"zip":"96125","name":"Sierra City","pending_pct":0.2,"pending":2,"active":8,"total":10,"new":0,"median_price":279000,"ppsf":199,"dom":46,"pop":263,"lat":39.61526,"lng":-120.60493},{"zip":"92543","name":"Hemet","pending_pct":0.3622,"pending":46,"active":82,"total":127,"new":48,"median_price":399950,"ppsf":281,"dom":60,"pop":39937,"lat":33.69867,"lng":-116.97916},{"zip":"91916","name":"Descanso","pending_pct":0.4444,"pending":4,"active":6,"total":9,"new":4,"median_price":799450,"ppsf":417,"dom":30,"pop":1710,"lat":32.91103,"lng":-116.63201},{"zip":"94037","name":"Montara","pending_pct":0.1111,"pending":1,"active":7,"total":9,"new":0,"median_price":1537500,"ppsf":691,"dom":31,"pop":2917,"lat":37.55327,"lng":-122.49584},{"zip":"95688","name":"Vacaville","pending_pct":0.3719,"pending":45,"active":81,"total":121,"new":40,"median_price":748000,"ppsf":385,"dom":39,"pop":40201,"lat":38.41901,"lng":-122.02571},{"zip":"93245","name":"Lemoore","pending_pct":0.4474,"pending":34,"active":41,"total":76,"new":20,"median_price":394950,"ppsf":243,"dom":43,"pop":37971,"lat":36.28614,"lng":-119.83405},{"zip":"92320","name":"Calimesa","pending_pct":0.3077,"pending":8,"active":18,"total":26,"new":12,"median_price":604500,"ppsf":303,"dom":49,"pop":10902,"lat":33.9874,"lng":-117.05024},{"zip":"92706","name":"Santa Ana","pending_pct":0.3929,"pending":11,"active":18,"total":28,"new":16,"median_price":1150000,"ppsf":633,"dom":44,"pop":37175,"lat":33.76602,"lng":-117.88174},{"zip":"94973","name":"Woodacre","pending_pct":0.25,"pending":1,"active":4,"total":4,"new":0,"median_price":1285000,"ppsf":660,"dom":34,"pop":1689,"lat":38.01259,"lng":-122.63947},{"zip":"92236","name":"Coachella","pending_pct":0.4032,"pending":25,"active":37,"total":62,"new":12,"median_price":550000,"ppsf":295,"dom":56,"pop":43642,"lat":33.70276,"lng":-116.07254},{"zip":"92627","name":"Costa Mesa","pending_pct":0.2841,"pending":25,"active":64,"total":88,"new":40,"median_price":1757000,"ppsf":854,"dom":33,"pop":60393,"lat":33.64786,"lng":-117.9205},{"zip":"93033","name":"Oxnard","pending_pct":0.6786,"pending":19,"active":11,"total":28,"new":12,"median_price":650000,"ppsf":466,"dom":35,"pop":78737,"lat":34.15401,"lng":-119.12296},{"zip":"96064","name":"Montague","pending_pct":0.1471,"pending":5,"active":28,"total":34,"new":8,"median_price":379000,"ppsf":205,"dom":83,"pop":4665,"lat":41.76371,"lng":-122.36433},{"zip":"95454","name":"Laytonville","pending_pct":0.1852,"pending":5,"active":22,"total":27,"new":0,"median_price":349000,"ppsf":305,"dom":77,"pop":1670,"lat":39.78063,"lng":-123.51631},{"zip":"94538","name":"Fremont","pending_pct":0.3,"pending":36,"active":88,"total":120,"new":56,"median_price":1188000,"ppsf":751,"dom":30,"pop":67781,"lat":37.50653,"lng":-121.96361},{"zip":"94115","name":"San Francisco","pending_pct":0.4324,"pending":16,"active":22,"total":37,"new":32,"median_price":1460000,"ppsf":1081,"dom":53,"pop":32629,"lat":37.78608,"lng":-122.43742},{"zip":"95659","name":"Nicolaus","pending_pct":0.5,"pending":1,"active":2,"total":2,"new":0,"median_price":407000,"ppsf":377,"dom":17,"pop":617,"lat":38.84594,"lng":-121.57679},{"zip":"90262","name":"Lynwood","pending_pct":0.5714,"pending":16,"active":12,"total":28,"new":4,"median_price":759000,"ppsf":476,"dom":34,"pop":64235,"lat":33.92384,"lng":-118.20133},{"zip":"93433","name":"Grover Beach","pending_pct":0.4091,"pending":18,"active":26,"total":44,"new":12,"median_price":855250,"ppsf":562,"dom":54,"pop":12600,"lat":35.12045,"lng":-120.61894},{"zip":"94010","name":"Burlingame","pending_pct":0.4225,"pending":30,"active":41,"total":71,"new":32,"median_price":4249000,"ppsf":1317,"dom":34,"pop":43025,"lat":37.57306,"lng":-122.37828},{"zip":"93518","name":"Caliente","pending_pct":0.1304,"pending":3,"active":20,"total":23,"new":4,"median_price":380000,"ppsf":189,"dom":67,"pop":1205,"lat":35.37675,"lng":-118.47314},{"zip":"92676","name":"Silverado","pending_pct":0.1333,"pending":2,"active":12,"total":15,"new":4,"median_price":2774500,"ppsf":769,"dom":66,"pop":2085,"lat":33.75306,"lng":-117.63534},{"zip":"91205","name":"Glendale","pending_pct":0.3846,"pending":10,"active":15,"total":26,"new":12,"median_price":974475,"ppsf":723,"dom":37,"pop":34254,"lat":34.13679,"lng":-118.24339},{"zip":"92557","name":"Moreno Valley","pending_pct":0.5085,"pending":60,"active":59,"total":118,"new":52,"median_price":575000,"ppsf":323,"dom":46,"pop":54061,"lat":33.96855,"lng":-117.25704},{"zip":"95660","name":"North Highlands","pending_pct":0.4528,"pending":24,"active":26,"total":53,"new":32,"median_price":405000,"ppsf":359,"dom":31,"pop":35451,"lat":38.67883,"lng":-121.3805},{"zip":"95320","name":"Escalon","pending_pct":0.3548,"pending":11,"active":21,"total":31,"new":8,"median_price":712500,"ppsf":376,"dom":65,"pop":13500,"lat":37.82453,"lng":-121.01545},{"zip":"92101","name":"San Diego","pending_pct":0.1259,"pending":53,"active":365,"total":421,"new":92,"median_price":699900,"ppsf":719,"dom":52,"pop":51805,"lat":32.7162,"lng":-117.18589},{"zip":"95917","name":"Biggs","pending_pct":0.3636,"pending":4,"active":7,"total":11,"new":0,"median_price":490000,"ppsf":368,"dom":75,"pop":3752,"lat":39.42392,"lng":-121.77178},{"zip":"94133","name":"San Francisco","pending_pct":0.2973,"pending":11,"active":25,"total":37,"new":12,"median_price":2021500,"ppsf":1306,"dom":88,"pop":23804,"lat":37.80193,"lng":-122.41092},{"zip":"93516","name":"Boron","pending_pct":0.1818,"pending":2,"active":10,"total":11,"new":4,"median_price":205000,"ppsf":189,"dom":26,"pop":2889,"lat":35.0081,"lng":-117.64268},{"zip":"92274","name":"Thermal","pending_pct":0.2069,"pending":12,"active":46,"total":58,"new":8,"median_price":320000,"ppsf":236,"dom":71,"pop":18167,"lat":33.47031,"lng":-116.11387},{"zip":"92386","name":"Sugarloaf","pending_pct":0.1146,"pending":11,"active":85,"total":96,"new":28,"median_price":349900,"ppsf":367,"dom":66,"pop":2042,"lat":34.23702,"lng":-116.82523},{"zip":"93249","name":"Lost Hills","pending_pct":1.0,"pending":1,"active":0,"total":1,"new":0,"median_price":329900,"ppsf":269,"dom":88,"pop":2243,"lat":35.67033,"lng":-119.85814},{"zip":"93004","name":"Ventura","pending_pct":0.4737,"pending":18,"active":19,"total":38,"new":12,"median_price":929000,"ppsf":483,"dom":53,"pop":30698,"lat":34.27901,"lng":-119.16537},{"zip":"95691","name":"West Sacramento","pending_pct":0.3294,"pending":28,"active":57,"total":85,"new":36,"median_price":523900,"ppsf":298,"dom":38,"pop":40143,"lat":38.62394,"lng":-121.58272},{"zip":"95035","name":"Milpitas","pending_pct":0.3879,"pending":45,"active":70,"total":116,"new":60,"median_price":1149999,"ppsf":740,"dom":25,"pop":78810,"lat":37.44319,"lng":-121.87632},{"zip":"93927","name":"Greenfield","pending_pct":0.2727,"pending":3,"active":6,"total":11,"new":8,"median_price":582500,"ppsf":394,"dom":100,"pop":21574,"lat":36.26978,"lng":-121.38018},{"zip":"94061","name":"Redwood City","pending_pct":0.25,"pending":13,"active":34,"total":52,"new":32,"median_price":1750000,"ppsf":1071,"dom":23,"pop":37048,"lat":37.46136,"lng":-122.23731},{"zip":"96002","name":"Redding","pending_pct":0.4848,"pending":80,"active":84,"total":165,"new":52,"median_price":456900,"ppsf":263,"dom":44,"pop":33783,"lat":40.5299,"lng":-122.31679},{"zip":"92108","name":"San Diego","pending_pct":0.1867,"pending":28,"active":122,"total":150,"new":56,"median_price":546500,"ppsf":600,"dom":40,"pop":26790,"lat":32.77423,"lng":-117.14097},{"zip":"91732","name":"El Monte","pending_pct":0.2549,"pending":13,"active":38,"total":51,"new":20,"median_price":716500,"ppsf":490,"dom":41,"pop":57431,"lat":34.07239,"lng":-118.01455},{"zip":"90401","name":"Santa Monica","pending_pct":0.0476,"pending":1,"active":21,"total":21,"new":4,"median_price":2195000,"ppsf":1355,"dom":64,"pop":8101,"lat":34.01584,"lng":-118.49251},{"zip":"92679","name":"Trabuco Canyon","pending_pct":0.3032,"pending":47,"active":107,"total":155,"new":36,"median_price":1900000,"ppsf":649,"dom":48,"pop":30818,"lat":33.65274,"lng":-117.56048},{"zip":"91754","name":"Monterey Park","pending_pct":0.2909,"pending":16,"active":37,"total":55,"new":24,"median_price":803500,"ppsf":560,"dom":43,"pop":32248,"lat":34.051,"lng":-118.14451},{"zip":"92352","name":"Lake Arrowhead","pending_pct":0.0996,"pending":48,"active":435,"total":482,"new":128,"median_price":732000,"ppsf":375,"dom":65,"pop":6246,"lat":34.26824,"lng":-117.18486},{"zip":"92683","name":"Westminster","pending_pct":0.3788,"pending":25,"active":43,"total":66,"new":36,"median_price":1198000,"ppsf":634,"dom":41,"pop":89833,"lat":33.75242,"lng":-117.99383},{"zip":"95835","name":"Sacramento","pending_pct":0.326,"pending":59,"active":120,"total":181,"new":72,"median_price":596347,"ppsf":288,"dom":44,"pop":42004,"lat":38.67088,"lng":-121.52464},{"zip":"91906","name":"Campo","pending_pct":0.25,"pending":4,"active":11,"total":16,"new":4,"median_price":522000,"ppsf":313,"dom":33,"pop":3325,"lat":32.66241,"lng":-116.47255},{"zip":"93304","name":"Bakersfield","pending_pct":0.4175,"pending":43,"active":60,"total":103,"new":24,"median_price":329250,"ppsf":243,"dom":54,"pop":51037,"lat":35.33938,"lng":-119.02368},{"zip":"93601","name":"Ahwahnee","pending_pct":0.0526,"pending":1,"active":17,"total":19,"new":0,"median_price":615000,"ppsf":264,"dom":68,"pop":1360,"lat":37.39395,"lng":-119.73702},{"zip":"91950","name":"National City","pending_pct":0.3333,"pending":10,"active":20,"total":30,"new":16,"median_price":705000,"ppsf":563,"dom":37,"pop":59891,"lat":32.66952,"lng":-117.09313},{"zip":"92060","name":"Palomar Mountain","pending_pct":0.1429,"pending":2,"active":12,"total":14,"new":4,"median_price":522000,"ppsf":380,"dom":94,"pop":619,"lat":33.35043,"lng":-116.86451},{"zip":"93905","name":"Salinas","pending_pct":0.4444,"pending":8,"active":10,"total":18,"new":8,"median_price":599000,"ppsf":426,"dom":54,"pop":63898,"lat":36.6849,"lng":-121.60562},{"zip":"92335","name":"Fontana","pending_pct":0.375,"pending":33,"active":57,"total":88,"new":32,"median_price":572245,"ppsf":406,"dom":39,"pop":97511,"lat":34.08733,"lng":-117.46519},{"zip":"95326","name":"Hughson","pending_pct":0.5,"pending":17,"active":18,"total":34,"new":12,"median_price":585000,"ppsf":292,"dom":51,"pop":10593,"lat":37.58998,"lng":-120.8531},{"zip":"91748","name":"Rowland Heights","pending_pct":0.254,"pending":16,"active":48,"total":63,"new":12,"median_price":1179000,"ppsf":561,"dom":55,"pop":42463,"lat":33.9769,"lng":-117.89924},{"zip":"94114","name":"San Francisco","pending_pct":0.4737,"pending":36,"active":42,"total":76,"new":48,"median_price":1399000,"ppsf":1105,"dom":38,"pop":33020,"lat":37.75814,"lng":-122.43547},{"zip":"93646","name":"Orange Cove","pending_pct":0.1429,"pending":1,"active":6,"total":7,"new":0,"median_price":372500,"ppsf":258,"dom":54,"pop":10328,"lat":36.63218,"lng":-119.28938},{"zip":"91302","name":"Calabasas","pending_pct":0.1618,"pending":28,"active":145,"total":173,"new":44,"median_price":3996000,"ppsf":863,"dom":61,"pop":25569,"lat":34.12295,"lng":-118.67193},{"zip":"91381","name":"Stevenson Ranch","pending_pct":0.2614,"pending":40,"active":113,"total":153,"new":48,"median_price":749999,"ppsf":413,"dom":56,"pop":22582,"lat":34.3753,"lng":-118.60744},{"zip":"92057","name":"Oceanside","pending_pct":0.4133,"pending":81,"active":116,"total":196,"new":84,"median_price":716500,"ppsf":489,"dom":33,"pop":56835,"lat":33.25326,"lng":-117.28704},{"zip":"93534","name":"Lancaster","pending_pct":0.415,"pending":61,"active":89,"total":147,"new":40,"median_price":429700,"ppsf":282,"dom":39,"pop":41430,"lat":34.71759,"lng":-118.15079},{"zip":"91913","name":"Chula Vista","pending_pct":0.4558,"pending":67,"active":78,"total":147,"new":56,"median_price":895000,"ppsf":453,"dom":37,"pop":57721,"lat":32.62174,"lng":-116.98609},{"zip":"92131","name":"San Diego","pending_pct":0.3378,"pending":25,"active":49,"total":74,"new":32,"median_price":1030000,"ppsf":628,"dom":29,"pop":35503,"lat":32.89604,"lng":-117.05737},{"zip":"91978","name":"Spring Valley","pending_pct":0.4706,"pending":8,"active":10,"total":17,"new":4,"median_price":697000,"ppsf":499,"dom":23,"pop":10014,"lat":32.71209,"lng":-116.94103},{"zip":"92637","name":"Laguna Woods","pending_pct":0.3673,"pending":54,"active":93,"total":147,"new":44,"median_price":439000,"ppsf":391,"dom":66,"pop":17289,"lat":33.60796,"lng":-117.72799},{"zip":"90004","name":"Los Angeles","pending_pct":0.1528,"pending":11,"active":59,"total":72,"new":24,"median_price":1595000,"ppsf":765,"dom":46,"pop":58484,"lat":34.07624,"lng":-118.31101},{"zip":"93040","name":"Piru","pending_pct":0.1429,"pending":2,"active":11,"total":14,"new":4,"median_price":650000,"ppsf":401,"dom":55,"pop":1799,"lat":34.59337,"lng":-118.93657},{"zip":"91914","name":"Chula Vista","pending_pct":0.4255,"pending":20,"active":27,"total":47,"new":20,"median_price":1397000,"ppsf":489,"dom":34,"pop":16877,"lat":32.66604,"lng":-116.95426},{"zip":"93267","name":"Strathmore","pending_pct":0.4444,"pending":4,"active":5,"total":9,"new":4,"median_price":411950,"ppsf":300,"dom":38,"pop":5531,"lat":36.14279,"lng":-119.0742},{"zip":"93706","name":"Fresno","pending_pct":0.3469,"pending":17,"active":34,"total":49,"new":8,"median_price":324900,"ppsf":242,"dom":60,"pop":40638,"lat":36.65344,"lng":-119.90216},{"zip":"96033","name":"French Gulch","pending_pct":0.5,"pending":2,"active":2,"total":4,"new":0,"median_price":264950,"ppsf":190,"dom":98,"pop":172,"lat":40.75076,"lng":-122.60004},{"zip":"92407","name":"San Bernardino","pending_pct":0.3516,"pending":45,"active":81,"total":128,"new":44,"median_price":637495,"ppsf":328,"dom":42,"pop":71711,"lat":34.22394,"lng":-117.38839},{"zip":"95207","name":"Stockton","pending_pct":0.2923,"pending":38,"active":93,"total":130,"new":44,"median_price":372475,"ppsf":265,"dom":50,"pop":52414,"lat":38.00242,"lng":-121.325},{"zip":"90304","name":"Inglewood","pending_pct":0.4,"pending":4,"active":5,"total":10,"new":0,"median_price":916500,"ppsf":551,"dom":108,"pop":25430,"lat":33.93736,"lng":-118.35879},{"zip":"94530","name":"El Cerrito","pending_pct":0.2571,"pending":9,"active":25,"total":35,"new":24,"median_price":1014000,"ppsf":594,"dom":18,"pop":26401,"lat":37.92076,"lng":-122.30068},{"zip":"90222","name":"Compton","pending_pct":0.3265,"pending":16,"active":30,"total":49,"new":20,"median_price":649900,"ppsf":573,"dom":54,"pop":32340,"lat":33.91213,"lng":-118.23721},{"zip":"94020","name":"La Honda","pending_pct":0.2222,"pending":2,"active":7,"total":9,"new":8,"median_price":1179000,"ppsf":997,"dom":30,"pop":1694,"lat":37.28473,"lng":-122.21969},{"zip":"91390","name":"Santa Clarita","pending_pct":0.2955,"pending":26,"active":66,"total":88,"new":32,"median_price":899999,"ppsf":415,"dom":51,"pop":19308,"lat":34.53159,"lng":-118.40668},{"zip":"93923","name":"Carmel","pending_pct":0.1683,"pending":17,"active":84,"total":101,"new":24,"median_price":2625000,"ppsf":1104,"dom":65,"pop":12565,"lat":36.40394,"lng":-121.79867},{"zip":"92677","name":"Laguna Niguel","pending_pct":0.2986,"pending":63,"active":140,"total":211,"new":80,"median_price":1600000,"ppsf":780,"dom":47,"pop":64139,"lat":33.52777,"lng":-117.70523},{"zip":"95242","name":"Lodi","pending_pct":0.4,"pending":40,"active":64,"total":100,"new":40,"median_price":668950,"ppsf":321,"dom":46,"pop":28427,"lat":38.13204,"lng":-121.38875},{"zip":"96003","name":"Redding","pending_pct":0.3315,"pending":61,"active":125,"total":184,"new":64,"median_price":467450,"ppsf":252,"dom":40,"pop":44923,"lat":40.66664,"lng":-122.31564},{"zip":"95605","name":"West Sacramento","pending_pct":0.2381,"pending":5,"active":16,"total":21,"new":12,"median_price":499000,"ppsf":324,"dom":47,"pop":14896,"lat":38.59289,"lng":-121.53929},{"zip":"96020","name":"Chester","pending_pct":0.1429,"pending":5,"active":30,"total":35,"new":12,"median_price":575000,"ppsf":288,"dom":37,"pop":2222,"lat":40.30089,"lng":-121.26286},{"zip":"91773","name":"San Dimas","pending_pct":0.3538,"pending":23,"active":42,"total":65,"new":32,"median_price":1050000,"ppsf":503,"dom":44,"pop":33598,"lat":34.1072,"lng":-117.80928},{"zip":"93458","name":"Santa Maria","pending_pct":0.4348,"pending":10,"active":12,"total":23,"new":12,"median_price":645000,"ppsf":433,"dom":24,"pop":59148,"lat":34.95477,"lng":-120.49042},{"zip":"91214","name":"La Crescenta","pending_pct":0.4237,"pending":25,"active":36,"total":59,"new":32,"median_price":1212500,"ppsf":744,"dom":37,"pop":30817,"lat":34.23759,"lng":-118.24778},{"zip":"95472","name":"Sebastopol","pending_pct":0.2647,"pending":18,"active":48,"total":68,"new":24,"median_price":1395000,"ppsf":648,"dom":39,"pop":28747,"lat":38.39738,"lng":-122.86668},{"zip":"92118","name":"Coronado","pending_pct":0.1818,"pending":26,"active":116,"total":143,"new":40,"median_price":3062495,"ppsf":1689,"dom":47,"pop":18929,"lat":32.67466,"lng":-117.16915},{"zip":"93526","name":"Independence","pending_pct":1.0,"pending":1,"active":1,"total":1,"new":0,"median_price":530000,"ppsf":182,"dom":39,"pop":825,"lat":36.85941,"lng":-118.25378},{"zip":"91103","name":"Pasadena","pending_pct":0.3235,"pending":11,"active":24,"total":34,"new":16,"median_price":1124000,"ppsf":752,"dom":44,"pop":25142,"lat":34.16738,"lng":-118.16446},{"zip":"92111","name":"San Diego","pending_pct":0.3372,"pending":29,"active":57,"total":86,"new":28,"median_price":859000,"ppsf":618,"dom":30,"pop":45249,"lat":32.8065,"lng":-117.16897},{"zip":"95054","name":"Santa Clara","pending_pct":0.4074,"pending":11,"active":16,"total":27,"new":20,"median_price":1549444,"ppsf":961,"dom":19,"pop":25704,"lat":37.39308,"lng":-121.96483},{"zip":"95363","name":"Patterson","pending_pct":0.2653,"pending":26,"active":73,"total":98,"new":32,"median_price":519995,"ppsf":243,"dom":60,"pop":30769,"lat":37.37251,"lng":-121.27192},{"zip":"90020","name":"Los Angeles","pending_pct":0.1509,"pending":8,"active":44,"total":53,"new":16,"median_price":750000,"ppsf":598,"dom":62,"pop":38994,"lat":34.06638,"lng":-118.30986},{"zip":"95403","name":"Santa Rosa","pending_pct":0.271,"pending":29,"active":77,"total":107,"new":36,"median_price":855000,"ppsf":432,"dom":38,"pop":45806,"lat":38.50326,"lng":-122.75358},{"zip":"95601","name":"Amador City","pending_pct":0.125,"pending":1,"active":8,"total":8,"new":0,"median_price":592500,"ppsf":394,"dom":68,"pop":294,"lat":38.42713,"lng":-120.82997},{"zip":"95547","name":"Hydesville","pending_pct":0.2857,"pending":2,"active":6,"total":7,"new":4,"median_price":722500,"ppsf":387,"dom":40,"pop":1263,"lat":40.56952,"lng":-124.07751},{"zip":"95951","name":"Hamilton City","pending_pct":0.25,"pending":1,"active":3,"total":4,"new":0,"median_price":337500,"ppsf":241,"dom":80,"pop":2698,"lat":39.71473,"lng":-122.00197},{"zip":"91210","name":"Glendale","pending_pct":null,"pending":null,"active":3,"total":3,"new":0,"median_price":1300000,"ppsf":970,"dom":36,"pop":312,"lat":34.14468,"lng":-118.25809},{"zip":"96024","name":"Douglas City","pending_pct":null,"pending":null,"active":14,"total":14,"new":4,"median_price":500000,"ppsf":234,"dom":54,"pop":1082,"lat":40.58767,"lng":-122.90143},{"zip":"95568","name":"Somes Bar","pending_pct":null,"pending":null,"active":1,"total":1,"new":0,"median_price":350000,"ppsf":152,"dom":12,"pop":223,"lat":41.48454,"lng":-123.48543},{"zip":"95970","name":"Princeton","pending_pct":null,"pending":null,"active":1,"total":1,"new":0,"median_price":297000,"ppsf":173,"dom":53,"pop":453,"lat":39.41159,"lng":-122.05176},{"zip":"95699","name":"Drytown","pending_pct":null,"pending":null,"active":3,"total":3,"new":0,"median_price":1194000,"ppsf":537,"dom":32,"pop":147,"lat":38.44074,"lng":-120.85702},{"zip":"95555","name":"Orick","pending_pct":null,"pending":null,"active":1,"total":1,"new":0,"median_price":647000,"ppsf":443,"dom":73,"pop":216,"lat":41.29519,"lng":-123.97774},{"zip":"95564","name":"Samoa","pending_pct":null,"pending":null,"active":1,"total":1,"new":0,"median_price":399549,"ppsf":344,"dom":11,"pop":444,"lat":40.79023,"lng":-124.20312},{"zip":"96039","name":"Happy Camp","pending_pct":null,"pending":null,"active":6,"total":6,"new":4,"median_price":352000,"ppsf":199,"dom":94,"pop":583,"lat":41.66376,"lng":-123.37711},{"zip":"95467","name":"Hidden Valley Lake","pending_pct":0.2162,"pending":16,"active":60,"total":74,"new":20,"median_price":379000,"ppsf":235,"dom":76,"pop":5778,"lat":38.80453,"lng":-122.54948},{"zip":"93301","name":"Bakersfield","pending_pct":0.3421,"pending":13,"active":26,"total":38,"new":12,"median_price":395000,"ppsf":236,"dom":54,"pop":13620,"lat":35.38428,"lng":-119.02057},{"zip":"95237","name":"Lockeford","pending_pct":0.3636,"pending":4,"active":7,"total":11,"new":0,"median_price":994975,"ppsf":431,"dom":64,"pop":3639,"lat":38.15953,"lng":-121.14845},{"zip":"95065","name":"Santa Cruz","pending_pct":0.3158,"pending":6,"active":14,"total":19,"new":8,"median_price":1600000,"ppsf":725,"dom":42,"pop":7997,"lat":37.03229,"lng":-121.98444},{"zip":"95776","name":"Woodland","pending_pct":0.5,"pending":27,"active":28,"total":54,"new":20,"median_price":670000,"ppsf":308,"dom":22,"pop":28718,"lat":38.68889,"lng":-121.70776},{"zip":"92675","name":"San Juan Capistrano","pending_pct":0.3365,"pending":35,"active":69,"total":104,"new":44,"median_price":1995000,"ppsf":751,"dom":40,"pop":35095,"lat":33.49977,"lng":-117.65366},{"zip":"90712","name":"Lakewood","pending_pct":0.4359,"pending":17,"active":21,"total":39,"new":16,"median_price":949450,"ppsf":591,"dom":26,"pop":30800,"lat":33.849,"lng":-118.14677},{"zip":"93960","name":"Soledad","pending_pct":0.5,"pending":7,"active":8,"total":14,"new":4,"median_price":677000,"ppsf":471,"dom":50,"pop":27471,"lat":36.40489,"lng":-121.32121},{"zip":"90048","name":"Los Angeles","pending_pct":0.1389,"pending":15,"active":93,"total":108,"new":20,"median_price":2237500,"ppsf":996,"dom":50,"pop":21476,"lat":34.07293,"lng":-118.3727},{"zip":"93292","name":"Visalia","pending_pct":0.4198,"pending":68,"active":89,"total":162,"new":36,"median_price":420945,"ppsf":239,"dom":45,"pop":45780,"lat":36.3763,"lng":-119.22183},{"zip":"91345","name":"Mission Hills","pending_pct":0.25,"pending":7,"active":22,"total":28,"new":12,"median_price":895000,"ppsf":534,"dom":43,"pop":18714,"lat":34.26591,"lng":-118.45948},{"zip":"92583","name":"San Jacinto","pending_pct":0.3472,"pending":25,"active":47,"total":72,"new":20,"median_price":445000,"ppsf":255,"dom":46,"pop":33778,"lat":33.79662,"lng":-116.93188},{"zip":"92845","name":"Garden Grove","pending_pct":0.52,"pending":13,"active":12,"total":25,"new":8,"median_price":1149500,"ppsf":715,"dom":36,"pop":16143,"lat":33.78292,"lng":-118.0264},{"zip":"93648","name":"Parlier","pending_pct":0.4667,"pending":7,"active":9,"total":15,"new":0,"median_price":399900,"ppsf":259,"dom":66,"pop":15184,"lat":36.6206,"lng":-119.52062},{"zip":"92662","name":"Newport Beach","pending_pct":0.1111,"pending":2,"active":16,"total":18,"new":4,"median_price":6195000,"ppsf":2551,"dom":44,"pop":2294,"lat":33.60547,"lng":-117.89218},{"zip":"95932","name":"Colusa","pending_pct":0.2222,"pending":6,"active":20,"total":27,"new":4,"median_price":487000,"ppsf":249,"dom":46,"pop":7701,"lat":39.26839,"lng":-122.00426},{"zip":"95247","name":"Murphys","pending_pct":0.2364,"pending":13,"active":43,"total":55,"new":20,"median_price":599000,"ppsf":312,"dom":53,"pop":3858,"lat":38.14264,"lng":-120.44359},{"zip":"95360","name":"Newman","pending_pct":0.2558,"pending":11,"active":32,"total":43,"new":8,"median_price":479500,"ppsf":288,"dom":68,"pop":13779,"lat":37.32918,"lng":-121.03827},{"zip":"91733","name":"South El Monte","pending_pct":0.4375,"pending":21,"active":27,"total":48,"new":12,"median_price":749500,"ppsf":511,"dom":39,"pop":41255,"lat":34.0454,"lng":-118.05314},{"zip":"91803","name":"Alhambra","pending_pct":0.2143,"pending":6,"active":20,"total":28,"new":8,"median_price":1018500,"ppsf":674,"dom":31,"pop":27715,"lat":34.0749,"lng":-118.14624},{"zip":"92504","name":"Riverside","pending_pct":0.3895,"pending":37,"active":59,"total":95,"new":44,"median_price":699000,"ppsf":413,"dom":38,"pop":57132,"lat":33.90607,"lng":-117.39854},{"zip":"90025","name":"Los Angeles","pending_pct":0.2193,"pending":25,"active":90,"total":114,"new":44,"median_price":1034500,"ppsf":721,"dom":39,"pop":46508,"lat":34.04551,"lng":-118.44583},