{"202606":[{"zip":"96701","name":"Aiea","pending_pct":0.3051,"pending":36,"active":82,"total":118,"new":38,"median_price":450000,"ppsf":544,"dom":65,"pop":39200,"lat":21.40368,"lng":-157.89875},{"zip":"96703","name":"Anahola","pending_pct":0.25,"pending":3,"active":9,"total":12,"new":2,"median_price":2922500,"ppsf":1380,"dom":52,"pop":3366,"lat":22.1349,"lng":-159.37152},{"zip":"96704","name":"Captain Cook","pending_pct":0.1111,"pending":6,"active":49,"total":54,"new":8,"median_price":822500,"ppsf":561,"dom":88,"pop":7261,"lat":19.30612,"lng":-155.83884},{"zip":"96705","name":"Eleele","pending_pct":0.5,"pending":1,"active":1,"total":2,"new":0,"median_price":898000,"ppsf":891,"dom":27,"pop":2522,"lat":21.89973,"lng":-159.56252},{"zip":"96706","name":"Ewa Beach","pending_pct":0.4536,"pending":176,"active":213,"total":388,"new":68,"median_price":767139,"ppsf":641,"dom":56,"pop":83692,"lat":21.34033,"lng":-158.01704},{"zip":"96707","name":"Kapolei","pending_pct":0.3542,"pending":96,"active":174,"total":271,"new":62,"median_price":747000,"ppsf":655,"dom":55,"pop":48807,"lat":21.36455,"lng":-158.08141},{"zip":"96708","name":"Haiku","pending_pct":0.1333,"pending":8,"active":52,"total":60,"new":16,"median_price":1996000,"ppsf":996,"dom":87,"pop":11152,"lat":20.88083,"lng":-156.23763},{"zip":"96710","name":"Hakalau","pending_pct":0.4286,"pending":3,"active":4,"total":7,"new":0,"median_price":931250,"ppsf":916,"dom":131,"pop":162,"lat":19.85516,"lng":-155.21784},{"zip":"96712","name":"Haleiwa","pending_pct":0.2895,"pending":11,"active":28,"total":38,"new":6,"median_price":2317500,"ppsf":1233,"dom":65,"pop":8204,"lat":21.626,"lng":-158.03534},{"zip":"96713","name":"Hana","pending_pct":0.04,"pending":1,"active":24,"total":25,"new":4,"median_price":1492000,"ppsf":1151,"dom":167,"pop":1023,"lat":20.73684,"lng":-156.1159},{"zip":"96714","name":"","pending_pct":0.1429,"pending":2,"active":13,"total":14,"new":0,"median_price":4712500,"ppsf":2651,"dom":149,"pop":1592,"lat":22.15734,"lng":-159.54472},{"zip":"96716","name":"Hanapepe","pending_pct":0.2,"pending":1,"active":4,"total":5,"new":4,"median_price":980675,"ppsf":757,"dom":17,"pop":2650,"lat":21.91167,"lng":-159.60134},{"zip":"96717","name":"Hauula","pending_pct":0.1875,"pending":6,"active":26,"total":32,"new":2,"median_price":770000,"ppsf":710,"dom":86,"pop":4580,"lat":21.55556,"lng":-157.89605},{"zip":"96719","name":"Hawi","pending_pct":0.2222,"pending":2,"active":7,"total":9,"new":4,"median_price":2125000,"ppsf":691,"dom":47,"pop":1974,"lat":20.24005,"lng":-155.83344},{"zip":"96720","name":"Hilo","pending_pct":0.2647,"pending":36,"active":101,"total":136,"new":22,"median_price":575000,"ppsf":420,"dom":81,"pop":52979,"lat":19.67022,"lng":-155.21718},{"zip":"96722","name":"Princeville","pending_pct":0.1748,"pending":18,"active":84,"total":103,"new":18,"median_price":1537500,"ppsf":979,"dom":118,"pop":2377,"lat":22.16689,"lng":-159.45826},{"zip":"96725","name":"Holualoa","pending_pct":0.0588,"pending":1,"active":16,"total":17,"new":4,"median_price":1455000,"ppsf":702,"dom":135,"pop":5009,"lat":19.61243,"lng":-155.8824},{"zip":"96727","name":"Honokaa","pending_pct":0.3043,"pending":7,"active":16,"total":23,"new":8,"median_price":823500,"ppsf":429,"dom":67,"pop":4577,"lat":20.00803,"lng":-155.54842},{"zip":"96730","name":"Kaaawa","pending_pct":0.4286,"pending":3,"active":6,"total":7,"new":4,"median_price":1092500,"ppsf":913,"dom":48,"pop":1478,"lat":21.54615,"lng":-157.85112},{"zip":"96731","name":"Kahuku","pending_pct":0.2222,"pending":6,"active":21,"total":27,"new":2,"median_price":1880000,"ppsf":1794,"dom":88,"pop":2782,"lat":21.68488,"lng":-157.96999},{"zip":"96732","name":"Kahului","pending_pct":0.209,"pending":14,"active":54,"total":67,"new":12,"median_price":1043500,"ppsf":608,"dom":95,"pop":27444,"lat":20.87593,"lng":-156.46092},{"zip":"96734","name":"Kailua","pending_pct":0.3462,"pending":54,"active":101,"total":156,"new":44,"median_price":1636500,"ppsf":895,"dom":47,"pop":50670,"lat":21.39002,"lng":-157.75387},{"zip":"96737","name":"Ocean View","pending_pct":0.0833,"pending":8,"active":89,"total":96,"new":14,"median_price":284000,"ppsf":278,"dom":114,"pop":4380,"lat":19.10735,"lng":-155.78062},{"zip":"96738","name":"Waikoloa","pending_pct":0.1704,"pending":23,"active":114,"total":135,"new":24,"median_price":952000,"ppsf":726,"dom":90,"pop":7862,"lat":19.90341,"lng":-155.79392},{"zip":"96740","name":"Kailua Kona","pending_pct":0.1598,"pending":58,"active":305,"total":363,"new":76,"median_price":949000,"ppsf":708,"dom":74,"pop":39338,"lat":19.74422,"lng":-155.89951},{"zip":"96741","name":"Kalaheo","pending_pct":0.1905,"pending":4,"active":18,"total":21,"new":4,"median_price":1573750,"ppsf":751,"dom":53,"pop":6183,"lat":21.94986,"lng":-159.51847},{"zip":"96743","name":"Kamuela","pending_pct":0.1695,"pending":20,"active":98,"total":118,"new":26,"median_price":2350000,"ppsf":1227,"dom":99,"pop":12422,"lat":20.02619,"lng":-155.72266},{"zip":"96744","name":"Kaneohe","pending_pct":0.3522,"pending":56,"active":101,"total":159,"new":48,"median_price":1049250,"ppsf":734,"dom":46,"pop":57620,"lat":21.4427,"lng":-157.83328},{"zip":"96746","name":"Kapaa","pending_pct":0.1809,"pending":17,"active":77,"total":94,"new":16,"median_price":1198975,"ppsf":920,"dom":78,"pop":19329,"lat":22.09167,"lng":-159.34951},{"zip":"96748","name":"Kaunakakai","pending_pct":0.0882,"pending":3,"active":30,"total":34,"new":2,"median_price":264875,"ppsf":420,"dom":143,"pop":5609,"lat":21.1138,"lng":-156.8794},{"zip":"96749","name":"Keaau","pending_pct":0.2909,"pending":48,"active":120,"total":165,"new":42,"median_price":554950,"ppsf":379,"dom":77,"pop":19132,"lat":19.61031,"lng":-155.00281},{"zip":"96750","name":"Kealakekua","pending_pct":0.1667,"pending":1,"active":6,"total":6,"new":0,"median_price":7315000,"ppsf":1871,"dom":54,"pop":3203,"lat":19.52404,"lng":-155.91463},{"zip":"96751","name":"","pending_pct":null,"pending":null,"active":0,"total":0,"new":0,"median_price":21000000,"ppsf":3498,"dom":61,"pop":0,"lat":22.10668,"lng":-159.30516},{"zip":"96752","name":"Kekaha","pending_pct":0.3333,"pending":2,"active":4,"total":6,"new":4,"median_price":2311250,"ppsf":1061,"dom":12,"pop":3809,"lat":22.07823,"lng":-159.72077},{"zip":"96753","name":"Kihei","pending_pct":0.1259,"pending":68,"active":473,"total":540,"new":82,"median_price":975000,"ppsf":966,"dom":113,"pop":28003,"lat":20.7317,"lng":-156.43606},{"zip":"96754","name":"Kilauea","pending_pct":0.04,"pending":1,"active":24,"total":25,"new":6,"median_price":3925000,"ppsf":1582,"dom":118,"pop":4272,"lat":22.18537,"lng":-159.40246},{"zip":"96755","name":"Kapaau","pending_pct":0.2778,"pending":5,"active":14,"total":18,"new":4,"median_price":852000,"ppsf":555,"dom":110,"pop":3677,"lat":20.19602,"lng":-155.78158},{"zip":"96756","name":"Koloa","pending_pct":0.097,"pending":13,"active":122,"total":134,"new":20,"median_price":1498500,"ppsf":1147,"dom":94,"pop":6448,"lat":21.9085,"lng":-159.45368},{"zip":"96757","name":"Kualapuu","pending_pct":null,"pending":null,"active":2,"total":2,"new":0,"median_price":437000,"ppsf":355,"dom":132,"pop":881,"lat":21.15536,"lng":-156.99513},{"zip":"96760","name":"Kurtistown","pending_pct":0.2368,"pending":9,"active":30,"total":38,"new":8,"median_price":320000,"ppsf":350,"dom":125,"pop":4261,"lat":19.55234,"lng":-155.05483},{"zip":"96761","name":"Lahaina","pending_pct":0.0818,"pending":50,"active":565,"total":611,"new":102,"median_price":949000,"ppsf":1032,"dom":117,"pop":20952,"lat":20.90961,"lng":-156.62226},{"zip":"96762","name":"Laie","pending_pct":0.1111,"pending":1,"active":8,"total":9,"new":4,"median_price":2499250,"ppsf":866,"dom":70,"pop":5710,"lat":21.62468,"lng":-157.94201},{"zip":"96763","name":"Lanai City","pending_pct":0.125,"pending":2,"active":14,"total":16,"new":4,"median_price":762250,"ppsf":740,"dom":71,"pop":3443,"lat":20.83512,"lng":-156.92717},{"zip":"96764","name":"Laupahoehoe","pending_pct":0.1429,"pending":1,"active":6,"total":7,"new":0,"median_price":878750,"ppsf":624,"dom":171,"pop":516,"lat":19.97766,"lng":-155.23985},{"zip":"96765","name":"","pending_pct":0.5,"pending":1,"active":1,"total":2,"new":0,"median_price":3200000,"ppsf":682,"dom":168,"pop":513,"lat":21.92608,"lng":-159.49831},{"zip":"96766","name":"Lihue","pending_pct":0.1774,"pending":11,"active":51,"total":62,"new":10,"median_price":584000,"ppsf":722,"dom":110,"pop":17526,"lat":22.00556,"lng":-159.41931},{"zip":"96768","name":"Makawao","pending_pct":0.2632,"pending":10,"active":28,"total":38,"new":10,"median_price":1396750,"ppsf":852,"dom":103,"pop":18569,"lat":20.83231,"lng":-156.29787},{"zip":"96770","name":"Maunaloa","pending_pct":0.0488,"pending":2,"active":39,"total":41,"new":4,"median_price":330500,"ppsf":491,"dom":126,"pop":501,"lat":21.13465,"lng":-157.20354},{"zip":"96771","name":"Mountain View","pending_pct":0.1731,"pending":9,"active":44,"total":52,"new":10,"median_price":315000,"ppsf":320,"dom":94,"pop":7793,"lat":19.53348,"lng":-155.13573},{"zip":"96772","name":"Naalehu","pending_pct":0.2381,"pending":10,"active":32,"total":42,"new":8,"median_price":555125,"ppsf":386,"dom":81,"pop":2470,"lat":19.0683,"lng":-155.66077},{"zip":"96773","name":"Ninole","pending_pct":0.25,"pending":1,"active":3,"total":4,"new":0,"median_price":1150000,"ppsf":485,"dom":48,"pop":95,"lat":19.90677,"lng":-155.25218},{"zip":"96774","name":"Ookala","pending_pct":null,"pending":null,"active":2,"total":2,"new":0,"median_price":960000,"ppsf":588,"dom":162,"pop":579,"lat":19.96871,"lng":-155.31503},{"zip":"96776","name":"Paauilo","pending_pct":0.3333,"pending":1,"active":2,"total":3,"new":0,"median_price":1535000,"ppsf":396,"dom":177,"pop":1355,"lat":20.00156,"lng":-155.38777},{"zip":"96777","name":"Pahala","pending_pct":0.1111,"pending":1,"active":8,"total":9,"new":0,"median_price":304250,"ppsf":262,"dom":37,"pop":1822,"lat":19.23137,"lng":-155.4705},{"zip":"96778","name":"Pahoa","pending_pct":0.1796,"pending":37,"active":169,"total":206,"new":50,"median_price":306750,"ppsf":275,"dom":75,"pop":15262,"lat":19.45221,"lng":-154.98624},{"zip":"96779","name":"Paia","pending_pct":0.0556,"pending":1,"active":17,"total":18,"new":0,"median_price":2112250,"ppsf":1404,"dom":138,"pop":2780,"lat":20.90534,"lng":-156.38208},{"zip":"96780","name":"Papaaloa","pending_pct":0.25,"pending":1,"active":3,"total":4,"new":0,"median_price":2462500,"ppsf":959,"dom":113,"pop":400,"lat":19.96592,"lng":-155.225},{"zip":"96781","name":"Papaikou","pending_pct":0.5,"pending":2,"active":2,"total":4,"new":0,"median_price":947500,"ppsf":533,"dom":192,"pop":2073,"lat":19.80066,"lng":-155.18194},{"zip":"96782","name":"Pearl City","pending_pct":0.3968,"pending":25,"active":38,"total":63,"new":18,"median_price":506250,"ppsf":595,"dom":44,"pop":37475,"lat":21.43471,"lng":-157.94694},{"zip":"96783","name":"Pepeekeo","pending_pct":0.5,"pending":3,"active":3,"total":6,"new":0,"median_price":1178500,"ppsf":429,"dom":102,"pop":2251,"lat":19.84293,"lng":-155.1074},{"zip":"96785","name":"Volcano","pending_pct":0.1333,"pending":10,"active":65,"total":75,"new":6,"median_price":416000,"ppsf":393,"dom":107,"pop":4433,"lat":19.47818,"lng":-155.23017},{"zip":"96786","name":"Wahiawa","pending_pct":0.2424,"pending":8,"active":25,"total":33,"new":8,"median_price":538750,"ppsf":534,"dom":58,"pop":40658,"lat":21.53733,"lng":-158.02331},{"zip":"96789","name":"Mililani","pending_pct":0.3641,"pending":67,"active":117,"total":184,"new":46,"median_price":522000,"ppsf":561,"dom":47,"pop":54278,"lat":21.47823,"lng":-157.97264},{"zip":"96790","name":"Kula","pending_pct":0.2045,"pending":9,"active":35,"total":44,"new":10,"median_price":2624750,"ppsf":1274,"dom":118,"pop":9756,"lat":20.6975,"lng":-156.31121},{"zip":"96791","name":"Waialua","pending_pct":0.1111,"pending":4,"active":33,"total":36,"new":4,"median_price":1183250,"ppsf":1024,"dom":81,"pop":6377,"lat":21.55072,"lng":-158.15857},{"zip":"96792","name":"Waianae","pending_pct":0.2088,"pending":57,"active":213,"total":273,"new":42,"median_price":532000,"ppsf":455,"dom":94,"pop":49618,"lat":21.46311,"lng":-158.16418},{"zip":"96793","name":"Wailuku","pending_pct":0.2258,"pending":35,"active":120,"total":155,"new":20,"median_price":957250,"ppsf":744,"dom":99,"pop":32739,"lat":20.88998,"lng":-156.53215},{"zip":"96795","name":"Waimanalo","pending_pct":0.1667,"pending":2,"active":10,"total":12,"new":6,"median_price":2655000,"ppsf":1420,"dom":39,"pop":10675,"lat":21.33934,"lng":-157.71643},{"zip":"96796","name":"Waimea","pending_pct":0.6667,"pending":2,"active":1,"total":3,"new":0,"median_price":1199000,"ppsf":443,"dom":91,"pop":1840,"lat":21.96512,"lng":-159.66793},{"zip":"96797","name":"Waipahu","pending_pct":0.4234,"pending":47,"active":64,"total":111,"new":26,"median_price":536250,"ppsf":683,"dom":55,"pop":72435,"lat":21.40734,"lng":-158.01658},{"zip":"96813","name":"Honolulu","pending_pct":0.1667,"pending":34,"active":171,"total":204,"new":48,"median_price":688250,"ppsf":778,"dom":66,"pop":26766,"lat":21.31628,"lng":-157.84359},{"zip":"96814","name":"Honolulu","pending_pct":0.1951,"pending":111,"active":458,"total":569,"new":158,"median_price":807450,"ppsf":1199,"dom":81,"pop":24689,"lat":21.29405,"lng":-157.84637},{"zip":"96815","name":"Honolulu","pending_pct":0.1242,"pending":115,"active":804,"total":926,"new":148,"median_price":513750,"ppsf":937,"dom":88,"pop":27530,"lat":21.27375,"lng":-157.82108},{"zip":"96816","name":"Honolulu","pending_pct":0.3566,"pending":46,"active":84,"total":129,"new":44,"median_price":1598500,"ppsf":763,"dom":58,"pop":50883,"lat":21.29379,"lng":-157.79009},{"zip":"96817","name":"Honolulu","pending_pct":0.3097,"pending":35,"active":78,"total":113,"new":28,"median_price":536000,"ppsf":599,"dom":60,"pop":55492,"lat":21.34016,"lng":-157.83749},{"zip":"96818","name":"Honolulu","pending_pct":0.1855,"pending":23,"active":102,"total":124,"new":26,"median_price":469250,"ppsf":572,"dom":71,"pop":54822,"lat":21.34637,"lng":-157.93704},{"zip":"96819","name":"Honolulu","pending_pct":0.3714,"pending":13,"active":22,"total":35,"new":8,"median_price":1062500,"ppsf":535,"dom":85,"pop":50345,"lat":21.34968,"lng":-157.87527},{"zip":"96821","name":"Honolulu","pending_pct":0.2917,"pending":14,"active":34,"total":48,"new":18,"median_price":2362000,"ppsf":881,"dom":42,"pop":20053,"lat":21.29952,"lng":-157.75004},{"zip":"96822","name":"Honolulu","pending_pct":0.2063,"pending":39,"active":151,"total":189,"new":46,"median_price":418750,"ppsf":585,"dom":73,"pop":43747,"lat":21.32046,"lng":-157.81037},{"zip":"96825","name":"Honolulu","pending_pct":0.2143,"pending":33,"active":122,"total":154,"new":32,"median_price":993750,"ppsf":764,"dom":56,"pop":30913,"lat":21.29575,"lng":-157.69234},{"zip":"96826","name":"Honolulu","pending_pct":0.2204,"pending":41,"active":143,"total":186,"new":28,"median_price":421000,"ppsf":602,"dom":80,"pop":29174,"lat":21.29171,"lng":-157.82698}]}