{"202605":[{"zip":"46259","name":"Indianapolis","pending_pct":0.2651,"pending":22,"active":60,"total":83,"new":36,"median_price":417000,"ppsf":156,"dom":45,"pop":15169,"lat":39.65078,"lng":-85.98692},{"zip":"47578","name":"Sandborn","pending_pct":1.0,"pending":2,"active":0,"total":2,"new":0,"median_price":null,"ppsf":null,"dom":null,"pop":566,"lat":38.89288,"lng":-87.19055},{"zip":"46342","name":"Hobart","pending_pct":0.4924,"pending":65,"active":68,"total":132,"new":32,"median_price":273900,"ppsf":178,"dom":36,"pop":32224,"lat":41.51761,"lng":-87.24468},{"zip":"46746","name":"Howe","pending_pct":0.6,"pending":3,"active":2,"total":5,"new":0,"median_price":466450,"ppsf":256,"dom":31,"pop":4697,"lat":41.72257,"lng":-85.34914},{"zip":"46958","name":"Mexico","pending_pct":1.0,"pending":1,"active":1,"total":1,"new":0,"median_price":144900,"ppsf":109,"dom":1,"pop":620,"lat":40.81817,"lng":-86.12107},{"zip":"47562","name":"Odon","pending_pct":0.3333,"pending":4,"active":8,"total":12,"new":4,"median_price":229900,"ppsf":164,"dom":25,"pop":4967,"lat":38.83493,"lng":-86.98268},{"zip":"47336","name":"Dunkirk","pending_pct":0.1905,"pending":4,"active":18,"total":21,"new":8,"median_price":82675,"ppsf":67,"dom":44,"pop":2851,"lat":40.39694,"lng":-85.20821},{"zip":"47615","name":"Grandview","pending_pct":0.2,"pending":1,"active":4,"total":5,"new":0,"median_price":162400,"ppsf":148,"dom":53,"pop":1631,"lat":37.97214,"lng":-86.95643},{"zip":"47460","name":"Spencer","pending_pct":0.3913,"pending":18,"active":32,"total":46,"new":16,"median_price":362400,"ppsf":171,"dom":59,"pop":11006,"lat":39.28153,"lng":-86.78951},{"zip":"46226","name":"Indianapolis","pending_pct":0.3571,"pending":60,"active":103,"total":168,"new":60,"median_price":174900,"ppsf":140,"dom":36,"pop":47099,"lat":39.83968,"lng":-86.05117},{"zip":"46919","name":"Converse","pending_pct":0.5,"pending":3,"active":4,"total":6,"new":0,"median_price":185000,"ppsf":119,"dom":82,"pop":1968,"lat":40.58826,"lng":-85.8706},{"zip":"46776","name":"Orland","pending_pct":0.1429,"pending":1,"active":6,"total":7,"new":4,"median_price":330950,"ppsf":197,"dom":39,"pop":1547,"lat":41.72793,"lng":-85.16878},{"zip":"47957","name":"Medaryville","pending_pct":0.2857,"pending":2,"active":5,"total":7,"new":4,"median_price":172000,"ppsf":81,"dom":43,"pop":2071,"lat":41.08937,"lng":-86.8772},{"zip":"47635","name":"Rockport","pending_pct":0.381,"pending":8,"active":13,"total":21,"new":8,"median_price":249000,"ppsf":133,"dom":63,"pop":5362,"lat":37.8862,"lng":-87.10751},{"zip":"47905","name":"Lafayette","pending_pct":0.4964,"pending":68,"active":69,"total":137,"new":48,"median_price":379900,"ppsf":177,"dom":35,"pop":42219,"lat":40.4218,"lng":-86.76418},{"zip":"47920","name":"Battle Ground","pending_pct":0.625,"pending":5,"active":3,"total":8,"new":4,"median_price":451900,"ppsf":180,"dom":10,"pop":2329,"lat":40.54712,"lng":-86.8195},{"zip":"46055","name":"Mccordsville","pending_pct":0.5315,"pending":76,"active":67,"total":143,"new":44,"median_price":428415,"ppsf":182,"dom":39,"pop":16010,"lat":39.88627,"lng":-85.90404},{"zip":"46701","name":"Albion","pending_pct":0.5652,"pending":13,"active":7,"total":23,"new":4,"median_price":274900,"ppsf":170,"dom":38,"pop":7944,"lat":41.35846,"lng":-85.43034},{"zip":"46737","name":"Fremont","pending_pct":0.3824,"pending":13,"active":21,"total":34,"new":12,"median_price":479900,"ppsf":247,"dom":38,"pop":7402,"lat":41.72209,"lng":-84.92233},{"zip":"47840","name":"Centerpoint","pending_pct":0.3333,"pending":1,"active":3,"total":3,"new":0,"median_price":487450,"ppsf":140,"dom":58,"pop":1970,"lat":39.40863,"lng":-87.05937},{"zip":"47978","name":"Rensselaer","pending_pct":0.4571,"pending":16,"active":19,"total":35,"new":16,"median_price":267450,"ppsf":125,"dom":58,"pop":10261,"lat":40.97991,"lng":-87.1163},{"zip":"46774","name":"New Haven","pending_pct":0.5467,"pending":41,"active":33,"total":75,"new":28,"median_price":299900,"ppsf":159,"dom":37,"pop":17858,"lat":41.09103,"lng":-84.96955},{"zip":"46365","name":"Mill Creek","pending_pct":0.3333,"pending":1,"active":2,"total":3,"new":0,"median_price":747500,"ppsf":225,"dom":156,"pop":992,"lat":41.60605,"lng":-86.54112},{"zip":"46031","name":"Atlanta","pending_pct":0.6667,"pending":4,"active":2,"total":6,"new":4,"median_price":625000,"ppsf":215,"dom":37,"pop":2456,"lat":40.20935,"lng":-86.01018},{"zip":"46112","name":"Brownsburg","pending_pct":0.5876,"pending":104,"active":70,"total":177,"new":72,"median_price":394250,"ppsf":173,"dom":37,"pop":44220,"lat":39.86561,"lng":-86.38215},{"zip":"47274","name":"Seymour","pending_pct":0.3571,"pending":40,"active":73,"total":112,"new":28,"median_price":298500,"ppsf":159,"dom":47,"pop":33068,"lat":38.96261,"lng":-85.92877},{"zip":"47452","name":"Orleans","pending_pct":0.2308,"pending":3,"active":9,"total":13,"new":0,"median_price":349900,"ppsf":122,"dom":50,"pop":5152,"lat":38.6422,"lng":-86.41901},{"zip":"46392","name":"Wheatfield","pending_pct":0.5172,"pending":15,"active":13,"total":29,"new":8,"median_price":402000,"ppsf":181,"dom":42,"pop":8302,"lat":41.18509,"lng":-87.04948},{"zip":"47167","name":"Salem","pending_pct":0.2344,"pending":15,"active":51,"total":64,"new":20,"median_price":219900,"ppsf":152,"dom":45,"pop":15375,"lat":38.6077,"lng":-86.09047},{"zip":"46037","name":"Fishers","pending_pct":0.5272,"pending":97,"active":87,"total":184,"new":72,"median_price":450000,"ppsf":173,"dom":36,"pop":48713,"lat":39.96077,"lng":-85.94446},{"zip":"46254","name":"Indianapolis","pending_pct":0.49,"pending":49,"active":51,"total":100,"new":44,"median_price":229500,"ppsf":156,"dom":42,"pop":40674,"lat":39.84796,"lng":-86.26936},{"zip":"46960","name":"Monterey","pending_pct":0.4286,"pending":3,"active":4,"total":7,"new":0,"median_price":405000,"ppsf":196,"dom":260,"pop":1018,"lat":41.15735,"lng":-86.52397},{"zip":"46526","name":"Goshen","pending_pct":0.44,"pending":33,"active":42,"total":75,"new":28,"median_price":345000,"ppsf":171,"dom":22,"pop":33668,"lat":41.55307,"lng":-85.88448},{"zip":"46989","name":"Upland","pending_pct":0.2,"pending":2,"active":7,"total":10,"new":0,"median_price":358400,"ppsf":172,"dom":37,"pop":5385,"lat":40.45056,"lng":-85.48115},{"zip":"46582","name":"Warsaw","pending_pct":0.575,"pending":23,"active":21,"total":40,"new":24,"median_price":365000,"ppsf":204,"dom":26,"pop":14604,"lat":41.28323,"lng":-85.85235},{"zip":"47138","name":"Lexington","pending_pct":0.375,"pending":6,"active":10,"total":16,"new":4,"median_price":351250,"ppsf":172,"dom":43,"pop":4859,"lat":38.68215,"lng":-85.59759},{"zip":"46143","name":"Greenwood","pending_pct":0.372,"pending":125,"active":204,"total":336,"new":124,"median_price":385000,"ppsf":164,"dom":44,"pop":61803,"lat":39.59484,"lng":-86.11323},{"zip":"47017","name":"Cross Plains","pending_pct":1.0,"pending":1,"active":1,"total":1,"new":0,"median_price":599900,"ppsf":134,"dom":68,"pop":540,"lat":38.93745,"lng":-85.17713},{"zip":"46910","name":"Akron","pending_pct":0.625,"pending":5,"active":3,"total":8,"new":0,"median_price":350000,"ppsf":188,"dom":20,"pop":3221,"lat":41.04537,"lng":-86.04151},{"zip":"47160","name":"New Middletown","pending_pct":1.0,"pending":1,"active":1,"total":1,"new":0,"median_price":152000,"ppsf":76,"dom":13,"pop":55,"lat":38.14817,"lng":-86.04711},{"zip":"47382","name":"Saratoga","pending_pct":1.0,"pending":2,"active":1,"total":2,"new":0,"median_price":25000,"ppsf":14,"dom":17,"pop":144,"lat":40.23692,"lng":-84.91845},{"zip":"47016","name":"Cedar Grove","pending_pct":null,"pending":null,"active":1,"total":1,"new":0,"median_price":799999,"ppsf":354,"dom":15,"pop":773,"lat":39.37414,"lng":-84.89484},{"zip":"47858","name":"Lewis","pending_pct":0.5,"pending":1,"active":1,"total":2,"new":0,"median_price":169900,"ppsf":116,"dom":15,"pop":946,"lat":39.26268,"lng":-87.22868},{"zip":"47273","name":"Scipio","pending_pct":0.3333,"pending":1,"active":3,"total":3,"new":4,"median_price":149950,"ppsf":135,"dom":36,"pop":1800,"lat":39.07472,"lng":-85.7359},{"zip":"46711","name":"Berne","pending_pct":0.5,"pending":6,"active":6,"total":12,"new":0,"median_price":235000,"ppsf":144,"dom":103,"pop":8353,"lat":40.6635,"lng":-84.92398},{"zip":"47421","name":"Bedford","pending_pct":0.3333,"pending":43,"active":87,"total":129,"new":44,"median_price":269450,"ppsf":162,"dom":42,"pop":27599,"lat":38.86415,"lng":-86.45122},{"zip":"47305","name":"Muncie","pending_pct":0.4444,"pending":8,"active":11,"total":18,"new":4,"median_price":120000,"ppsf":62,"dom":61,"pop":3556,"lat":40.19387,"lng":-85.38556},{"zip":"46104","name":"Arlington","pending_pct":0.3333,"pending":1,"active":2,"total":3,"new":0,"median_price":118500,"ppsf":124,"dom":70,"pop":1121,"lat":39.66041,"lng":-85.59545},{"zip":"46785","name":"Saint Joe","pending_pct":0.5,"pending":1,"active":2,"total":2,"new":0,"median_price":330000,"ppsf":131,"dom":16,"pop":1491,"lat":41.31974,"lng":-84.88506},{"zip":"47161","name":"New Salisbury","pending_pct":0.1786,"pending":5,"active":21,"total":28,"new":4,"median_price":273900,"ppsf":188,"dom":128,"pop":3611,"lat":38.32281,"lng":-86.10366},{"zip":"47807","name":"Terre Haute","pending_pct":0.4474,"pending":17,"active":19,"total":38,"new":8,"median_price":81900,"ppsf":52,"dom":52,"pop":13140,"lat":39.47061,"lng":-87.40262},{"zip":"47012","name":"Brookville","pending_pct":0.2381,"pending":10,"active":31,"total":42,"new":16,"median_price":238500,"ppsf":160,"dom":37,"pop":10733,"lat":39.41892,"lng":-84.97944},{"zip":"46957","name":"Matthews","pending_pct":0.6667,"pending":2,"active":1,"total":3,"new":0,"median_price":152475,"ppsf":65,"dom":95,"pop":443,"lat":40.38866,"lng":-85.49917},{"zip":"47708","name":"Evansville","pending_pct":0.2,"pending":1,"active":3,"total":5,"new":0,"median_price":483700,"ppsf":186,"dom":44,"pop":696,"lat":37.97387,"lng":-87.57357},{"zip":"47354","name":"Losantville","pending_pct":0.5,"pending":2,"active":3,"total":4,"new":0,"median_price":249975,"ppsf":127,"dom":29,"pop":1182,"lat":40.04628,"lng":-85.19933},{"zip":"47542","name":"Huntingburg","pending_pct":0.3889,"pending":7,"active":11,"total":18,"new":8,"median_price":259000,"ppsf":145,"dom":48,"pop":10350,"lat":38.29928,"lng":-86.96712},{"zip":"46151","name":"Martinsville","pending_pct":0.4191,"pending":57,"active":84,"total":136,"new":36,"median_price":369000,"ppsf":188,"dom":48,"pop":32446,"lat":39.44783,"lng":-86.4275},{"zip":"46702","name":"Andrews","pending_pct":0.375,"pending":3,"active":5,"total":8,"new":0,"median_price":187400,"ppsf":110,"dom":102,"pop":1983,"lat":40.82681,"lng":-85.61732},{"zip":"47264","name":"Norman","pending_pct":0.5,"pending":1,"active":1,"total":2,"new":0,"median_price":144900,"ppsf":131,"dom":45,"pop":1574,"lat":38.96434,"lng":-86.26313},{"zip":"47929","name":"Chalmers","pending_pct":0.5,"pending":1,"active":1,"total":2,"new":0,"median_price":350000,"ppsf":104,"dom":16,"pop":758,"lat":40.67587,"lng":-86.9185},{"zip":"47003","name":"West College Corner","pending_pct":1.0,"pending":1,"active":2,"total":1,"new":0,"median_price":192400,"ppsf":142,"dom":12,"pop":1182,"lat":39.55628,"lng":-84.84491},{"zip":"47374","name":"Richmond","pending_pct":0.3714,"pending":65,"active":110,"total":175,"new":56,"median_price":199000,"ppsf":117,"dom":46,"pop":44615,"lat":39.83376,"lng":-84.88997},{"zip":"46391","name":"Westville","pending_pct":0.4,"pending":4,"active":7,"total":10,"new":4,"median_price":367400,"ppsf":179,"dom":51,"pop":8986,"lat":41.5455,"lng":-86.91446},{"zip":"46540","name":"Middlebury","pending_pct":0.5652,"pending":13,"active":10,"total":23,"new":12,"median_price":459900,"ppsf":177,"dom":16,"pop":12993,"lat":41.67571,"lng":-85.69768},{"zip":"47971","name":"Oxford","pending_pct":0.3333,"pending":3,"active":6,"total":9,"new":4,"median_price":175000,"ppsf":125,"dom":22,"pop":1645,"lat":40.52946,"lng":-87.23751},{"zip":"47006","name":"Batesville","pending_pct":0.2759,"pending":8,"active":21,"total":29,"new":16,"median_price":384000,"ppsf":177,"dom":29,"pop":12988,"lat":39.29141,"lng":-85.21365},{"zip":"47928","name":"Cayuga","pending_pct":0.3333,"pending":1,"active":2,"total":3,"new":0,"median_price":190000,"ppsf":195,"dom":130,"pop":1730,"lat":39.93237,"lng":-87.46501},{"zip":"47243","name":"Hanover","pending_pct":0.3438,"pending":11,"active":21,"total":32,"new":4,"median_price":307400,"ppsf":187,"dom":45,"pop":6225,"lat":38.67214,"lng":-85.48177},{"zip":"47871","name":"Riley","pending_pct":1.0,"pending":1,"active":1,"total":1,"new":0,"median_price":184000,"ppsf":181,"dom":3,"pop":441,"lat":39.38978,"lng":-87.30026},{"zip":"46049","name":"Kempton","pending_pct":0.6667,"pending":2,"active":1,"total":3,"new":0,"median_price":200000,"ppsf":123,"dom":58,"pop":763,"lat":40.29757,"lng":-86.22165},{"zip":"46952","name":"Marion","pending_pct":0.3788,"pending":25,"active":40,"total":66,"new":24,"median_price":149900,"ppsf":101,"dom":39,"pop":18189,"lat":40.59882,"lng":-85.63249},{"zip":"46142","name":"Greenwood","pending_pct":0.437,"pending":52,"active":60,"total":119,"new":48,"median_price":325000,"ppsf":172,"dom":37,"pop":34348,"lat":39.62029,"lng":-86.1764},{"zip":"46123","name":"Avon","pending_pct":0.4924,"pending":97,"active":98,"total":197,"new":64,"median_price":374500,"ppsf":164,"dom":52,"pop":43353,"lat":39.76502,"lng":-86.40015},{"zip":"46580","name":"Warsaw","pending_pct":0.3962,"pending":21,"active":30,"total":53,"new":20,"median_price":394900,"ppsf":175,"dom":44,"pop":21794,"lat":41.20884,"lng":-85.87212},{"zip":"47666","name":"Patoka","pending_pct":0.25,"pending":1,"active":3,"total":4,"new":0,"median_price":114900,"ppsf":144,"dom":161,"pop":1335,"lat":38.41922,"lng":-87.60042},{"zip":"46160","name":"Morgantown","pending_pct":0.3429,"pending":12,"active":23,"total":35,"new":16,"median_price":499950,"ppsf":248,"dom":27,"pop":6514,"lat":39.35429,"lng":-86.26753},{"zip":"47532","name":"Ferdinand","pending_pct":0.4286,"pending":3,"active":4,"total":7,"new":0,"median_price":425000,"ppsf":147,"dom":66,"pop":4447,"lat":38.2198,"lng":-86.86036},{"zip":"47145","name":"Milltown","pending_pct":1.0,"pending":1,"active":1,"total":1,"new":0,"median_price":295000,"ppsf":144,"dom":2,"pop":1782,"lat":38.33454,"lng":-86.30115},{"zip":"46590","name":"Winona Lake","pending_pct":0.4,"pending":8,"active":12,"total":20,"new":4,"median_price":429910,"ppsf":209,"dom":45,"pop":5080,"lat":41.21612,"lng":-85.80862},{"zip":"46045","name":"Goldsmith","pending_pct":null,"pending":null,"active":1,"total":1,"new":0,"median_price":102900,"ppsf":93,"dom":177,"pop":162,"lat":40.2898,"lng":-86.14832},{"zip":"47522","name":"Crane","pending_pct":null,"pending":null,"active":2,"total":2,"new":0,"median_price":174250,"ppsf":135,"dom":234,"pop":319,"lat":38.88545,"lng":-86.80543},{"zip":"47130","name":"Jeffersonville","pending_pct":0.4148,"pending":129,"active":182,"total":311,"new":100,"median_price":299450,"ppsf":193,"dom":43,"pop":50514,"lat":38.33528,"lng":-85.69689},{"zip":"46506","name":"Bremen","pending_pct":0.4375,"pending":7,"active":7,"total":16,"new":4,"median_price":365000,"ppsf":154,"dom":73,"pop":9994,"lat":41.46316,"lng":-86.16915},{"zip":"46615","name":"South Bend","pending_pct":0.7234,"pending":34,"active":13,"total":47,"new":28,"median_price":187500,"ppsf":146,"dom":29,"pop":14190,"lat":41.67494,"lng":-86.21151},{"zip":"47429","name":"Ellettsville","pending_pct":0.3448,"pending":20,"active":38,"total":58,"new":20,"median_price":329000,"ppsf":216,"dom":43,"pop":7399,"lat":39.27581,"lng":-86.61444},{"zip":"46994","name":"Walton","pending_pct":0.7778,"pending":7,"active":2,"total":9,"new":0,"median_price":234900,"ppsf":124,"dom":27,"pop":2132,"lat":40.66661,"lng":-86.25766},{"zip":"46135","name":"Greencastle","pending_pct":0.3913,"pending":18,"active":27,"total":46,"new":20,"median_price":274500,"ppsf":153,"dom":40,"pop":19632,"lat":39.65909,"lng":-86.89107},{"zip":"46710","name":"Avilla","pending_pct":0.4444,"pending":4,"active":5,"total":9,"new":4,"median_price":339900,"ppsf":204,"dom":74,"pop":4506,"lat":41.35167,"lng":-85.25168},{"zip":"47960","name":"Monticello","pending_pct":0.3217,"pending":46,"active":95,"total":143,"new":48,"median_price":357450,"ppsf":225,"dom":46,"pop":14825,"lat":40.78261,"lng":-86.74938},{"zip":"47302","name":"Muncie","pending_pct":0.3918,"pending":38,"active":56,"total":97,"new":32,"median_price":104900,"ppsf":96,"dom":50,"pop":25473,"lat":40.12992,"lng":-85.37553},{"zip":"46783","name":"Roanoke","pending_pct":0.5161,"pending":16,"active":14,"total":31,"new":8,"median_price":427500,"ppsf":209,"dom":31,"pop":7764,"lat":40.97399,"lng":-85.35578},{"zip":"46628","name":"South Bend","pending_pct":0.4672,"pending":57,"active":65,"total":122,"new":44,"median_price":175000,"ppsf":126,"dom":38,"pop":27685,"lat":41.72103,"lng":-86.33465},{"zip":"46374","name":"San Pierre","pending_pct":1.0,"pending":1,"active":1,"total":1,"new":0,"median_price":227450,"ppsf":174,"dom":23,"pop":1290,"lat":41.20616,"lng":-86.895},{"zip":"46536","name":"Lakeville","pending_pct":0.5,"pending":6,"active":7,"total":12,"new":4,"median_price":569950,"ppsf":198,"dom":58,"pop":2964,"lat":41.51913,"lng":-86.2867},{"zip":"47436","name":"Heltonville","pending_pct":0.4,"pending":2,"active":3,"total":5,"new":0,"median_price":424000,"ppsf":262,"dom":42,"pop":1796,"lat":38.9598,"lng":-86.38358},{"zip":"46804","name":"Fort Wayne","pending_pct":0.575,"pending":46,"active":31,"total":80,"new":36,"median_price":315000,"ppsf":153,"dom":37,"pop":29661,"lat":41.05421,"lng":-85.23913},{"zip":"46319","name":"Griffith","pending_pct":0.5319,"pending":25,"active":21,"total":47,"new":12,"median_price":279900,"ppsf":165,"dom":37,"pop":17847,"lat":41.52217,"lng":-87.42091},{"zip":"47670","name":"Princeton","pending_pct":0.3571,"pending":15,"active":27,"total":42,"new":16,"median_price":225000,"ppsf":138,"dom":43,"pop":11756,"lat":38.34355,"lng":-87.57797},{"zip":"46056","name":"Markleville","pending_pct":0.4286,"pending":3,"active":4,"total":7,"new":0,"median_price":324900,"ppsf":184,"dom":50,"pop":2076,"lat":39.97351,"lng":-85.6105},{"zip":"47112","name":"Corydon","pending_pct":0.4648,"pending":33,"active":39,"total":71,"new":20,"median_price":267450,"ppsf":166,"dom":33,"pop":17464,"lat":38.19235,"lng":-86.14512},{"zip":"47456","name":"Quincy","pending_pct":0.5,"pending":1,"active":2,"total":2,"new":0,"median_price":364950,"ppsf":192,"dom":36,"pop":1455,"lat":39.46314,"lng":-86.69781},{"zip":"47032","name":"Moores Hill","pending_pct":0.125,"pending":1,"active":7,"total":8,"new":0,"median_price":424950,"ppsf":216,"dom":62,"pop":3285,"lat":39.08109,"lng":-85.05503},{"zip":"47116","name":"Eckerty","pending_pct":0.25,"pending":1,"active":3,"total":4,"new":0,"median_price":300000,"ppsf":143,"dom":11,"pop":490,"lat":38.32521,"lng":-86.61668},{"zip":"47404","name":"Bloomington","pending_pct":0.4016,"pending":49,"active":75,"total":122,"new":44,"median_price":335000,"ppsf":200,"dom":40,"pop":22744,"lat":39.22064,"lng":-86.5896},{"zip":"47648","name":"Fort Branch","pending_pct":0.4286,"pending":3,"active":4,"total":7,"new":4,"median_price":214000,"ppsf":156,"dom":46,"pop":4346,"lat":38.24611,"lng":-87.54851},{"zip":"46760","name":"Kimmell","pending_pct":0.5,"pending":2,"active":2,"total":4,"new":4,"median_price":159950,"ppsf":130,"dom":15,"pop":1179,"lat":41.34441,"lng":-85.55654},{"zip":"46939","name":"Kewanna","pending_pct":0.1429,"pending":1,"active":6,"total":7,"new":0,"median_price":295000,"ppsf":141,"dom":118,"pop":1909,"lat":40.99337,"lng":-86.40359},{"zip":"47401","name":"Bloomington","pending_pct":0.2635,"pending":78,"active":215,"total":296,"new":96,"median_price":435000,"ppsf":202,"dom":51,"pop":40607,"lat":39.08613,"lng":-86.45138},{"zip":"47373","name":"Redkey","pending_pct":1.0,"pending":2,"active":1,"total":2,"new":0,"median_price":150750,"ppsf":88,"dom":34,"pop":2200,"lat":40.33863,"lng":-85.15356},{"zip":"47424","name":"Bloomfield","pending_pct":0.2727,"pending":6,"active":16,"total":22,"new":8,"median_price":289900,"ppsf":155,"dom":96,"pop":8861,"lat":39.01918,"lng":-86.86998},{"zip":"47541","name":"Holland","pending_pct":1.0,"pending":1,"active":1,"total":1,"new":0,"median_price":394500,"ppsf":108,"dom":36,"pop":1332,"lat":38.23777,"lng":-87.04673},{"zip":"46814","name":"Fort Wayne","pending_pct":0.4268,"pending":35,"active":52,"total":82,"new":36,"median_price":519900,"ppsf":201,"dom":38,"pop":16778,"lat":41.04616,"lng":-85.30805},{"zip":"47841","name":"Clay City","pending_pct":0.6667,"pending":2,"active":2,"total":3,"new":0,"median_price":179950,"ppsf":134,"dom":23,"pop":2534,"lat":39.27764,"lng":-87.11492},{"zip":"46926","name":"Denver","pending_pct":0.5,"pending":1,"active":0,"total":2,"new":0,"median_price":299900,"ppsf":126,"dom":59,"pop":1359,"lat":40.88283,"lng":-86.04945},{"zip":"46808","name":"Fort Wayne","pending_pct":0.4717,"pending":25,"active":29,"total":53,"new":24,"median_price":177200,"ppsf":137,"dom":35,"pop":19684,"lat":41.09887,"lng":-85.17619},{"zip":"46182","name":"Waldron","pending_pct":0.5,"pending":3,"active":3,"total":6,"new":0,"median_price":290000,"ppsf":108,"dom":39,"pop":1803,"lat":39.46157,"lng":-85.67005},{"zip":"46742","name":"Hamilton","pending_pct":0.2353,"pending":4,"active":12,"total":17,"new":8,"median_price":464450,"ppsf":224,"dom":34,"pop":3292,"lat":41.54919,"lng":-84.87892},{"zip":"46383","name":"Valparaiso","pending_pct":0.4207,"pending":61,"active":84,"total":145,"new":64,"median_price":386995,"ppsf":185,"dom":37,"pop":42183,"lat":41.45838,"lng":-87.00156},{"zip":"47124","name":"Greenville","pending_pct":0.4706,"pending":8,"active":7,"total":17,"new":8,"median_price":375000,"ppsf":178,"dom":27,"pop":5357,"lat":38.36591,"lng":-86.00523},{"zip":"47951","name":"Kentland","pending_pct":0.3333,"pending":5,"active":10,"total":15,"new":4,"median_price":180000,"ppsf":106,"dom":36,"pop":2279,"lat":40.79049,"lng":-87.4435},{"zip":"47620","name":"Mount Vernon","pending_pct":0.375,"pending":18,"active":30,"total":48,"new":20,"median_price":220000,"ppsf":122,"dom":62,"pop":12361,"lat":37.93284,"lng":-87.90555},{"zip":"47714","name":"Evansville","pending_pct":0.3923,"pending":51,"active":76,"total":130,"new":44,"median_price":129000,"ppsf":119,"dom":39,"pop":32132,"lat":37.95768,"lng":-87.52102},{"zip":"47469","name":"West Baden Springs","pending_pct":0.2143,"pending":3,"active":10,"total":14,"new":0,"median_price":290000,"ppsf":185,"dom":92,"pop":1567,"lat":38.61892,"lng":-86.61172},{"zip":"46791","name":"Uniondale","pending_pct":0.5,"pending":1,"active":1,"total":2,"new":0,"median_price":844500,"ppsf":171,"dom":202,"pop":1210,"lat":40.83699,"lng":-85.24325},{"zip":"46140","name":"Greenfield","pending_pct":0.4495,"pending":89,"active":111,"total":198,"new":76,"median_price":320000,"ppsf":163,"dom":43,"pop":43511,"lat":39.80358,"lng":-85.77049},{"zip":"46115","name":"Carthage","pending_pct":0.4,"pending":2,"active":3,"total":5,"new":0,"median_price":189900,"ppsf":95,"dom":47,"pop":1588,"lat":39.7375,"lng":-85.56623},{"zip":"47850","name":"Farmersburg","pending_pct":0.4545,"pending":5,"active":5,"total":11,"new":4,"median_price":210000,"ppsf":159,"dom":51,"pop":2104,"lat":39.24441,"lng":-87.43763},{"zip":"47353","name":"Liberty","pending_pct":0.2609,"pending":6,"active":16,"total":23,"new":4,"median_price":127450,"ppsf":172,"dom":59,"pop":4857,"lat":39.62757,"lng":-84.92057},{"zip":"47340","name":"Farmland","pending_pct":0.4,"pending":2,"active":3,"total":5,"new":0,"median_price":335000,"ppsf":171,"dom":29,"pop":3051,"lat":40.181,"lng":-85.1318},{"zip":"46126","name":"Fairland","pending_pct":0.2353,"pending":4,"active":13,"total":17,"new":8,"median_price":289000,"ppsf":170,"dom":35,"pop":3902,"lat":39.62053,"lng":-85.88694},{"zip":"47958","name":"Mellott","pending_pct":1.0,"pending":1,"active":0,"total":1,"new":0,"median_price":125000,"ppsf":87,"dom":56,"pop":195,"lat":40.16452,"lng":-87.14862},{"zip":"47531","name":"Evanston","pending_pct":1.0,"pending":1,"active":1,"total":1,"new":0,"median_price":164900,"ppsf":42,"dom":83,"pop":868,"lat":38.04161,"lng":-86.84867},{"zip":"47537","name":"Gentryville","pending_pct":null,"pending":null,"active":1,"total":1,"new":0,"median_price":649500,"ppsf":460,"dom":31,"pop":702,"lat":38.10971,"lng":-87.06888},{"zip":"46219","name":"Indianapolis","pending_pct":0.3742,"pending":61,"active":92,"total":163,"new":44,"median_price":192450,"ppsf":144,"dom":45,"pop":38855,"lat":39.78314,"lng":-86.04444},{"zip":"46996","name":"Winamac","pending_pct":0.3226,"pending":10,"active":20,"total":31,"new":8,"median_price":249900,"ppsf":124,"dom":56,"pop":6441,"lat":41.0626,"lng":-86.65906},{"zip":"47610","name":"Chandler","pending_pct":0.5,"pending":9,"active":10,"total":18,"new":4,"median_price":215000,"ppsf":163,"dom":38,"pop":5606,"lat":38.06041,"lng":-87.39988},{"zip":"47334","name":"Daleville","pending_pct":0.5,"pending":7,"active":7,"total":14,"new":4,"median_price":274950,"ppsf":169,"dom":31,"pop":3336,"lat":40.11267,"lng":-85.52357},{"zip":"46772","name":"Monroe","pending_pct":0.6,"pending":3,"active":2,"total":5,"new":0,"median_price":339900,"ppsf":114,"dom":134,"pop":3288,"lat":40.7221,"lng":-84.91153},{"zip":"46366","name":"North Judson","pending_pct":0.3043,"pending":7,"active":16,"total":23,"new":8,"median_price":198450,"ppsf":114,"dom":50,"pop":5601,"lat":41.21443,"lng":-86.76922},{"zip":"47203","name":"Columbus","pending_pct":0.5263,"pending":40,"active":37,"total":76,"new":32,"median_price":299900,"ppsf":166,"dom":40,"pop":26200,"lat":39.23189,"lng":-85.83281},{"zip":"46161","name":"Morristown","pending_pct":0.3333,"pending":2,"active":4,"total":6,"new":0,"median_price":335400,"ppsf":149,"dom":88,"pop":2347,"lat":39.66959,"lng":-85.69395},{"zip":"47380","name":"Ridgeville","pending_pct":0.6,"pending":3,"active":1,"total":5,"new":0,"median_price":12900,"ppsf":14,"dom":228,"pop":1924,"lat":40.28553,"lng":-85.03439},{"zip":"46825","name":"Fort Wayne","pending_pct":0.5882,"pending":40,"active":28,"total":68,"new":40,"median_price":299900,"ppsf":186,"dom":28,"pop":29296,"lat":41.15397,"lng":-85.12425},{"zip":"47906","name":"West Lafayette","pending_pct":0.4215,"pending":102,"active":143,"total":242,"new":92,"median_price":457000,"ppsf":194,"dom":37,"pop":75198,"lat":40.48541,"lng":-86.98584},{"zip":"46235","name":"Indianapolis","pending_pct":0.4098,"pending":50,"active":68,"total":122,"new":40,"median_price":249990,"ppsf":141,"dom":35,"pop":36317,"lat":39.83784,"lng":-85.97651},{"zip":"46256","name":"Indianapolis","pending_pct":0.5579,"pending":53,"active":39,"total":95,"new":32,"median_price":324900,"ppsf":173,"dom":50,"pop":20990,"lat":39.90682,"lng":-86.01152},{"zip":"47885","name":"West Terre Haute","pending_pct":0.3636,"pending":8,"active":13,"total":22,"new":4,"median_price":204950,"ppsf":116,"dom":54,"pop":9209,"lat":39.50872,"lng":-87.47679},{"zip":"46201","name":"Indianapolis","pending_pct":0.2846,"pending":72,"active":187,"total":253,"new":64,"median_price":219900,"ppsf":147,"dom":53,"pop":30335,"lat":39.77369,"lng":-86.10949},{"zip":"46394","name":"Whiting","pending_pct":0.4375,"pending":7,"active":9,"total":16,"new":4,"median_price":249500,"ppsf":115,"dom":51,"pop":11894,"lat":41.67733,"lng":-87.50279},{"zip":"47031","name":"Milan","pending_pct":0.2105,"pending":4,"active":15,"total":19,"new":12,"median_price":314000,"ppsf":182,"dom":40,"pop":5659,"lat":39.12872,"lng":-85.15333},{"zip":"47443","name":"Lyons","pending_pct":0.5,"pending":1,"active":1,"total":2,"new":0,"median_price":380000,"ppsf":166,"dom":49,"pop":1274,"lat":38.96651,"lng":-87.09059},{"zip":"46340","name":"Hanna","pending_pct":0.5,"pending":2,"active":3,"total":4,"new":4,"median_price":245000,"ppsf":206,"dom":22,"pop":1524,"lat":41.38339,"lng":-86.76846},{"zip":"46988","name":"Twelve Mile","pending_pct":0.6667,"pending":2,"active":1,"total":3,"new":0,"median_price":121000,"ppsf":71,"dom":151,"pop":1086,"lat":40.8802,"lng":-86.23451},{"zip":"46793","name":"Waterloo","pending_pct":0.5,"pending":3,"active":3,"total":6,"new":0,"median_price":319950,"ppsf":185,"dom":64,"pop":4104,"lat":41.46106,"lng":-85.01928},{"zip":"46573","name":"Wakarusa","pending_pct":1.0,"pending":2,"active":1,"total":2,"new":0,"median_price":447125,"ppsf":259,"dom":44,"pop":3936,"lat":41.53941,"lng":-86.06054},{"zip":"46176","name":"Shelbyville","pending_pct":0.4492,"pending":53,"active":66,"total":118,"new":44,"median_price":263500,"ppsf":149,"dom":39,"pop":28782,"lat":39.52684,"lng":-85.77297},{"zip":"47854","name":"Hillsdale","pending_pct":1.0,"pending":1,"active":0,"total":1,"new":0,"median_price":259900,"ppsf":104,"dom":70,"pop":902,"lat":39.80874,"lng":-87.41299},{"zip":"46781","name":"Poneto","pending_pct":1.0,"pending":1,"active":0,"total":1,"new":0,"median_price":169900,"ppsf":100,"dom":40,"pop":1046,"lat":40.63659,"lng":-85.27339},{"zip":"46565","name":"Shipshewana","pending_pct":0.3846,"pending":5,"active":9,"total":13,"new":0,"median_price":429900,"ppsf":166,"dom":32,"pop":9014,"lat":41.69285,"lng":-85.5831},{"zip":"46165","name":"North Salem","pending_pct":0.6667,"pending":4,"active":2,"total":6,"new":0,"median_price":600000,"ppsf":272,"dom":56,"pop":1992,"lat":39.84522,"lng":-86.64716},{"zip":"47220","name":"Brownstown","pending_pct":0.5333,"pending":8,"active":8,"total":15,"new":0,"median_price":274900,"ppsf":147,"dom":65,"pop":6136,"lat":38.87786,"lng":-86.05471},{"zip":"47989","name":"Waveland","pending_pct":0.6667,"pending":2,"active":1,"total":3,"new":0,"median_price":377175,"ppsf":302,"dom":190,"pop":1274,"lat":39.88871,"lng":-87.05243},{"zip":"47330","name":"Centerville","pending_pct":0.45,"pending":9,"active":11,"total":20,"new":8,"median_price":302450,"ppsf":170,"dom":25,"pop":5488,"lat":39.78792,"lng":-85.02226},{"zip":"46371","name":"Rolling Prairie","pending_pct":0.3333,"pending":3,"active":6,"total":9,"new":4,"median_price":399500,"ppsf":135,"dom":70,"pop":3396,"lat":41.67683,"lng":-86.6005},{"zip":"46324","name":"Hammond","pending_pct":0.5385,"pending":21,"active":16,"total":39,"new":16,"median_price":207450,"ppsf":143,"dom":34,"pop":21409,"lat":41.58324,"lng":-87.50155},{"zip":"46341","name":"Hebron","pending_pct":0.5238,"pending":11,"active":9,"total":21,"new":4,"median_price":364950,"ppsf":203,"dom":65,"pop":10048,"lat":41.30666,"lng":-87.21962},{"zip":"47950","name":"Idaville","pending_pct":1.0,"pending":1,"active":0,"total":1,"new":0,"median_price":199900,"ppsf":128,"dom":72,"pop":657,"lat":40.80175,"lng":-86.65355},{"zip":"47564","name":"Otwell","pending_pct":null,"pending":null,"active":3,"total":3,"new":0,"median_price":254900,"ppsf":105,"dom":168,"pop":1378,"lat":38.48166,"lng":-87.09566},{"zip":"47135","name":"Laconia","pending_pct":null,"pending":null,"active":1,"total":1,"new":0,"median_price":785000,"ppsf":331,"dom":26,"pop":1257,"lat":38.04108,"lng":-86.0744},{"zip":"46157","name":"Monrovia","pending_pct":0.4643,"pending":13,"active":15,"total":28,"new":8,"median_price":324000,"ppsf":172,"dom":37,"pop":4558,"lat":39.55623,"lng":-86.52741},{"zip":"47568","name":"Plainville","pending_pct":0.4,"pending":2,"active":3,"total":5,"new":0,"median_price":275900,"ppsf":140,"dom":38,"pop":538,"lat":38.79121,"lng":-87.13654},{"zip":"46348","name":"La Crosse","pending_pct":0.2,"pending":1,"active":4,"total":5,"new":0,"median_price":234900,"ppsf":154,"dom":59,"pop":1217,"lat":41.30981,"lng":-86.86244},{"zip":"47270","name":"Paris Crossing","pending_pct":1.0,"pending":1,"active":1,"total":1,"new":0,"median_price":119900,"ppsf":102,"dom":63,"pop":510,"lat":38.8397,"lng":-85.71913},{"zip":"47357","name":"Milton","pending_pct":0.5,"pending":2,"active":2,"total":4,"new":0,"median_price":567000,"ppsf":208,"dom":59,"pop":1131,"lat":39.75773,"lng":-85.14795},{"zip":"47558","name":"Montgomery","pending_pct":0.2,"pending":1,"active":4,"total":5,"new":0,"median_price":412400,"ppsf":194,"dom":163,"pop":5354,"lat":38.64506,"lng":-87.04578},{"zip":"47932","name":"Covington","pending_pct":0.4,"pending":12,"active":18,"total":30,"new":12,"median_price":289450,"ppsf":175,"dom":35,"pop":5035,"lat":40.12764,"lng":-87.40761},{"zip":"46011","name":"Anderson","pending_pct":0.5082,"pending":31,"active":30,"total":61,"new":24,"median_price":284500,"ppsf":143,"dom":32,"pop":16534,"lat":40.12759,"lng":-85.76178},{"zip":"46530","name":"Granger","pending_pct":0.5703,"pending":73,"active":52,"total":128,"new":64,"median_price":525000,"ppsf":160,"dom":28,"pop":31598,"lat":41.74031,"lng":-86.12749},{"zip":"47331","name":"Connersville","pending_pct":0.29,"pending":29,"active":73,"total":100,"new":36,"median_price":179900,"ppsf":118,"dom":52,"pop":22786,"lat":39.63086,"lng":-85.16313},{"zip":"46051","name":"Lapel","pending_pct":0.2727,"pending":3,"active":8,"total":11,"new":8,"median_price":250000,"ppsf":172,"dom":73,"pop":2919,"lat":40.05855,"lng":-85.83794},{"zip":"46221","name":"Indianapolis","pending_pct":0.4312,"pending":47,"active":64,"total":109,"new":40,"median_price":209900,"ppsf":153,"dom":37,"pop":27027,"lat":39.69288,"lng":-86.23664},{"zip":"47942","name":"Earl Park","pending_pct":0.3333,"pending":2,"active":4,"total":6,"new":0,"median_price":184500,"ppsf":134,"dom":64,"pop":767,"lat":40.68791,"lng":-87.4472},{"zip":"46356","name":"Lowell","pending_pct":0.528,"pending":85,"active":80,"total":161,"new":44,"median_price":364202,"ppsf":190,"dom":39,"pop":19721,"lat":41.26117,"lng":-87.41863},{"zip":"47519","name":"Cannelburg","pending_pct":0.6667,"pending":2,"active":1,"total":3,"new":0,"median_price":179000,"ppsf":190,"dom":59,"pop":378,"lat":38.5976,"lng":-86.98793},{"zip":"47805","name":"Terre Haute","pending_pct":0.52,"pending":26,"active":25,"total":50,"new":16,"median_price":244950,"ppsf":139,"dom":39,"pop":12619,"lat":39.54768,"lng":-87.32739},{"zip":"47338","name":"Eaton","pending_pct":0.6,"pending":3,"active":2,"total":5,"new":0,"median_price":474900,"ppsf":196,"dom":112,"pop":2355,"lat":40.34363,"lng":-85.33977},{"zip":"46290","name":"Indianapolis","pending_pct":0.125,"pending":1,"active":7,"total":8,"new":0,"median_price":719999,"ppsf":242,"dom":43,"pop":81,"lat":39.93376,"lng":-86.16256},{"zip":"47516","name":"Bruceville","pending_pct":0.5,"pending":1,"active":2,"total":2,"new":0,"median_price":161500,"ppsf":70,"dom":72,"pop":988,"lat":38.7645,"lng":-87.41857},{"zip":"47360","name":"Mooreland","pending_pct":0.5,"pending":2,"active":2,"total":4,"new":0,"median_price":208950,"ppsf":158,"dom":88,"pop":1643,"lat":40.01677,"lng":-85.2614},{"zip":"46375","name":"Schererville","pending_pct":0.4706,"pending":48,"active":53,"total":102,"new":48,"median_price":332450,"ppsf":180,"dom":30,"pop":24188,"lat":41.49162,"lng":-87.45193},{"zip":"46156","name":"Milroy","pending_pct":0.4,"pending":2,"active":3,"total":5,"new":0,"median_price":176950,"ppsf":119,"dom":87,"pop":952,"lat":39.48451,"lng":-85.4806},{"zip":"46953","name":"Marion","pending_pct":0.3387,"pending":21,"active":41,"total":62,"new":32,"median_price":83000,"ppsf":60,"dom":48,"pop":23372,"lat":40.51928,"lng":-85.643},{"zip":"46106","name":"Bargersville","pending_pct":0.3562,"pending":26,"active":48,"total":73,"new":16,"median_price":515000,"ppsf":184,"dom":50,"pop":10159,"lat":39.51555,"lng":-86.20524},{"zip":"46788","name":"Spencerville","pending_pct":0.25,"pending":1,"active":2,"total":4,"new":0,"median_price":697450,"ppsf":261,"dom":84,"pop":4373,"lat":41.27005,"lng":-84.90876},{"zip":"47633","name":"Poseyville","pending_pct":0.3333,"pending":1,"active":3,"total":3,"new":0,"median_price":342000,"ppsf":152,"dom":114,"pop":2602,"lat":38.16835,"lng":-87.78736},{"zip":"47557","name":"Monroe City","pending_pct":0.6,"pending":3,"active":2,"total":5,"new":0,"median_price":312450,"ppsf":102,"dom":108,"pop":1345,"lat":38.57005,"lng":-87.34132},{"zip":"46911","name":"Amboy","pending_pct":0.6,"pending":3,"active":1,"total":5,"new":0,"median_price":575000,"ppsf":165,"dom":22,"pop":1656,"lat":40.62859,"lng":-85.94673},{"zip":"46001","name":"Alexandria","pending_pct":0.3056,"pending":11,"active":23,"total":36,"new":12,"median_price":159450,"ppsf":91,"dom":30,"pop":10375,"lat":40.25141,"lng":-85.65838},{"zip":"47462","name":"Springville","pending_pct":0.4211,"pending":8,"active":11,"total":19,"new":8,"median_price":434950,"ppsf":200,"dom":44,"pop":4595,"lat":38.95755,"lng":-86.64815},{"zip":"46164","name":"Nineveh","pending_pct":0.2979,"pending":14,"active":33,"total":47,"new":16,"median_price":500000,"ppsf":247,"dom":65,"pop":3840,"lat":39.3036,"lng":-86.12301},{"zip":"46755","name":"Kendallville","pending_pct":0.4643,"pending":26,"active":30,"total":56,"new":28,"median_price":250000,"ppsf":155,"dom":44,"pop":15441,"lat":41.45119,"lng":-85.27209},{"zip":"46407","name":"Gary","pending_pct":0.2118,"pending":18,"active":67,"total":85,"new":12,"median_price":55000,"ppsf":50,"dom":53,"pop":8577,"lat":41.57844,"lng":-87.33047},{"zip":"47638","name":"Wadesville","pending_pct":0.25,"pending":1,"active":3,"total":4,"new":0,"median_price":317450,"ppsf":141,"dom":46,"pop":3633,"lat":38.06959,"lng":-87.77489},{"zip":"47847","name":"Dana","pending_pct":0.3333,"pending":2,"active":5,"total":6,"new":0,"median_price":144000,"ppsf":69,"dom":50,"pop":882,"lat":39.82293,"lng":-87.48865},{"zip":"46150","name":"Manilla","pending_pct":1.0,"pending":1,"active":0,"total":1,"new":0,"median_price":35000,"ppsf":29,"dom":199,"pop":854,"lat":39.54695,"lng":-85.60232},{"zip":"47358","name":"Modoc","pending_pct":0.4,"pending":2,"active":3,"total":5,"new":0,"median_price":92500,"ppsf":61,"dom":33,"pop":818,"lat":40.05488,"lng":-85.11204},{"zip":"47585","name":"Stendal","pending_pct":0.5,"pending":1,"active":1,"total":2,"new":0,"median_price":205000,"ppsf":116,"dom":18,"pop":592,"lat":38.26787,"lng":-87.16617},{"zip":"47930","name":"Clarks Hill","pending_pct":0.5,"pending":1,"active":1,"total":2,"new":4,"median_price":242000,"ppsf":160,"dom":8,"pop":1049,"lat":40.23764,"lng":-86.74137},{"zip":"47236","name":"Grammer","pending_pct":1.0,"pending":1,"active":0,"total":1,"new":0,"median_price":248500,"ppsf":161,"dom":50,"pop":336,"lat":39.15181,"lng":-85.72536},{"zip":"46175","name":"Russellville","pending_pct":null,"pending":null,"active":1,"total":1,"new":0,"median_price":370000,"ppsf":171,"dom":57,"pop":489,"lat":39.82199,"lng":-86.97292},{"zip":"47520","name":"Cannelton","pending_pct":0.1905,"pending":4,"active":17,"total":21,"new":4,"median_price":171500,"ppsf":136,"dom":85,"pop":2933,"lat":37.99351,"lng":-86.5902},{"zip":"46130","name":"Fountaintown","pending_pct":0.5,"pending":3,"active":3,"total":6,"new":0,"median_price":384950,"ppsf":180,"dom":100,"pop":2455,"lat":39.67464,"lng":-85.83571},{"zip":"47838","name":"Carlisle","pending_pct":0.375,"pending":3,"active":5,"total":8,"new":0,"median_price":82500,"ppsf":88,"dom":87,"pop":4089,"lat":38.95679,"lng":-87.37812},{"zip":"46107","name":"Beech Grove","pending_pct":0.5714,"pending":32,"active":24,"total":56,"new":20,"median_price":214900,"ppsf":164,"dom":30,"pop":13020,"lat":39.71661,"lng":-86.09161},{"zip":"46550","name":"Nappanee","pending_pct":0.56,"pending":14,"active":12,"total":25,"new":12,"median_price":298000,"ppsf":185,"dom":33,"pop":12843,"lat":41.44701,"lng":-86.00028},{"zip":"47946","name":"Francesville","pending_pct":0.3333,"pending":2,"active":4,"total":6,"new":0,"median_price":194900,"ppsf":123,"dom":145,"pop":1801,"lat":40.98427,"lng":-86.87014},{"zip":"46507","name":"Bristol","pending_pct":0.3,"pending":12,"active":27,"total":40,"new":20,"median_price":418450,"ppsf":191,"dom":29,"pop":9991,"lat":41.72138,"lng":-85.81571},{"zip":"46554","name":"North Liberty","pending_pct":0.3846,"pending":5,"active":8,"total":13,"new":4,"median_price":380000,"ppsf":192,"dom":50,"pop":4405,"lat":41.56252,"lng":-86.41947},{"zip":"47713","name":"Evansville","pending_pct":0.3,"pending":18,"active":40,"total":60,"new":12,"median_price":110450,"ppsf":85,"dom":45,"pop":9988,"lat":37.9475,"lng":-87.55432},{"zip":"46234","name":"Indianapolis","pending_pct":0.5181,"pending":43,"active":38,"total":83,"new":40,"median_price":300000,"ppsf":161,"dom":37,"pop":28300,"lat":39.81077,"lng":-86.32665},{"zip":"46545","name":"Mishawaka","pending_pct":0.525,"pending":21,"active":21,"total":40,"new":20,"median_price":349000,"ppsf":180,"dom":36,"pop":26606,"lat":41.69376,"lng":-86.14602},{"zip":"47949","name":"Hillsboro","pending_pct":0.5,"pending":1,"active":2,"total":2,"new":0,"median_price":236950,"ppsf":89,"dom":20,"pop":1555,"lat":40.06288,"lng":-87.13504},{"zip":"46347","name":"Kouts","pending_pct":0.4167,"pending":5,"active":7,"total":12,"new":4,"median_price":280000,"ppsf":169,"dom":32,"pop":4951,"lat":41.30502,"lng":-87.00859},{"zip":"46068","name":"Sharpsville","pending_pct":0.5,"pending":3,"active":4,"total":6,"new":4,"median_price":284900,"ppsf":156,"dom":65,"pop":2538,"lat":40.37511,"lng":-86.1112},{"zip":"46017","name":"Anderson","pending_pct":0.3846,"pending":5,"active":8,"total":13,"new":4,"median_price":234950,"ppsf":155,"dom":37,"pop":5181,"lat":40.07358,"lng":-85.60687},{"zip":"46917","name":"Camden","pending_pct":0.5,"pending":1,"active":1,"total":2,"new":0,"median_price":73000,"ppsf":33,"dom":185,"pop":1924,"lat":40.62071,"lng":-86.46893},{"zip":"46181","name":"Trafalgar","pending_pct":0.4583,"pending":11,"active":13,"total":24,"new":12,"median_price":349900,"ppsf":185,"dom":42,"pop":4964,"lat":39.38044,"lng":-86.16119},{"zip":"46402","name":"Gary","pending_pct":0.2812,"pending":9,"active":24,"total":32,"new":8,"median_price":98900,"ppsf":61,"dom":62,"pop":5836,"lat":41.61032,"lng":-87.33297},{"zip":"46936","name":"Greentown","pending_pct":0.4706,"pending":8,"active":9,"total":17,"new":8,"median_price":226750,"ppsf":141,"dom":39,"pop":5901,"lat":40.47942,"lng":-85.93102},{"zip":"46409","name":"Gary","pending_pct":0.2609,"pending":12,"active":34,"total":46,"new":12,"median_price":130950,"ppsf":89,"dom":43,"pop":7184,"lat":41.54828,"lng":-87.32422},{"zip":"47523","name":"Dale","pending_pct":0.75,"pending":3,"active":2,"total":4,"new":0,"median_price":140450,"ppsf":282,"dom":104,"pop":3518,"lat":38.17354,"lng":-87.02934},{"zip":"46951","name":"Macy","pending_pct":0.25,"pending":2,"active":6,"total":8,"new":4,"median_price":199900,"ppsf":143,"dom":60,"pop":2376,"lat":40.94616,"lng":-86.10528},{"zip":"47106","name":"Borden","pending_pct":0.3529,"pending":6,"active":12,"total":17,"new":4,"median_price":322750,"ppsf":185,"dom":31,"pop":4670,"lat":38.46071,"lng":-85.90326},{"zip":"46158","name":"Mooresville","pending_pct":0.5,"pending":36,"active":35,"total":72,"new":28,"median_price":382000,"ppsf":172,"dom":67,"pop":24878,"lat":39.58275,"lng":-86.37405},{"zip":"46220","name":"Indianapolis","pending_pct":0.5363,"pending":96,"active":83,"total":179,"new":92,"median_price":347450,"ppsf":208,"dom":37,"pop":36952,"lat":39.8676,"lng":-86.10818},{"zip":"47326","name":"Bryant","pending_pct":0.5,"pending":1,"active":2,"total":2,"new":0,"median_price":350000,"ppsf":145,"dom":19,"pop":1803,"lat":40.54597,"lng":-84.97018},{"zip":"46403","name":"Gary","pending_pct":0.2653,"pending":13,"active":35,"total":49,"new":16,"median_price":224900,"ppsf":130,"dom":54,"pop":10929,"lat":41.60636,"lng":-87.25803},{"zip":"46741","name":"Grabill","pending_pct":0.2857,"pending":2,"active":5,"total":7,"new":4,"median_price":342450,"ppsf":193,"dom":37,"pop":4713,"lat":41.21161,"lng":-84.95176},{"zip":"47941","name":"Dayton","pending_pct":1.0,"pending":1,"active":0,"total":1,"new":0,"median_price":247500,"ppsf":131,"dom":49,"pop":1159,"lat":40.37539,"lng":-86.77128},{"zip":"47453","name":"Owensburg","pending_pct":0.6667,"pending":2,"active":1,"total":3,"new":0,"median_price":1549900,"ppsf":403,"dom":198,"pop":538,"lat":38.93472,"lng":-86.76773},{"zip":"47282","name":"Vernon","pending_pct":1.0,"pending":1,"active":1,"total":1,"new":0,"median_price":350000,"ppsf":148,"dom":73,"pop":193,"lat":38.98538,"lng":-85.6101},{"zip":"46514","name":"Elkhart","pending_pct":0.4161,"pending":62,"active":74,"total":149,"new":68,"median_price":366950,"ppsf":163,"dom":42,"pop":42389,"lat":41.72328,"lng":-85.97547},{"zip":"46202","name":"Indianapolis","pending_pct":0.2373,"pending":42,"active":136,"total":177,"new":36,"median_price":442450,"ppsf":238,"dom":73,"pop":20180,"lat":39.78363,"lng":-86.16187},{"zip":"46985","name":"Star City","pending_pct":0.4,"pending":2,"active":3,"total":5,"new":0,"median_price":179999,"ppsf":96,"dom":176,"pop":1419,"lat":40.95485,"lng":-86.58225},{"zip":"47175","name":"Taswell","pending_pct":0.4,"pending":2,"active":3,"total":5,"new":0,"median_price":195000,"ppsf":196,"dom":56,"pop":847,"lat":38.35902,"lng":-86.55236},{"zip":"46943","name":"Laketon","pending_pct":1.0,"pending":1,"active":1,"total":1,"new":0,"median_price":43000,"ppsf":29,"dom":53,"pop":150,"lat":40.9735,"lng":-85.84038},{"zip":"47917","name":"Ambia","pending_pct":0.5,"pending":1,"active":1,"total":2,"new":0,"median_price":295000,"ppsf":137,"dom":26,"pop":239,"lat":40.46881,"lng":-87.47633},{"zip":"47036","name":"Oldenburg","pending_pct":null,"pending":null,"active":1,"total":1,"new":0,"median_price":179900,"ppsf":159,"dom":68,"pop":1173,"lat":39.38563,"lng":-85.23972},{"zip":"46731","name":"Craigville","pending_pct":null,"pending":null,"active":1,"total":1,"new":0,"median_price":595000,"ppsf":161,"dom":12,"pop":657,"lat":40.79751,"lng":-85.10267},{"zip":"47550","name":"Lamar","pending_pct":null,"pending":null,"active":1,"total":1,"new":0,"median_price":325000,"ppsf":206,"dom":13,"pop":791,"lat":38.06213,"lng":-86.92877},{"zip":"46998","name":"Young America","pending_pct":null,"pending":null,"active":1,"total":1,"new":0,"median_price":79900,"ppsf":70,"dom":12,"pop":138,"lat":40.57536,"lng":-86.35081},{"zip":"46818","name":"Fort Wayne","pending_pct":0.4494,"pending":80,"active":102,"total":178,"new":44,"median_price":375000,"ppsf":205,"dom":61,"pop":21954,"lat":41.14698,"lng":-85.25111},{"zip":"46510","name":"Claypool","pending_pct":0.6364,"pending":7,"active":5,"total":11,"new":0,"median_price":279900,"ppsf":164,"dom":33,"pop":2984,"lat":41.12068,"lng":-85.874},{"zip":"46504","name":"Bourbon","pending_pct":0.5,"pending":1,"active":1,"total":2,"new":0,"median_price":287000,"ppsf":178,"dom":9,"pop":3500,"lat":41.30057,"lng":-86.11204},{"zip":"46323","name":"Hammond","pending_pct":0.6591,"pending":29,"active":14,"total":44,"new":12,"median_price":199750,"ppsf":157,"dom":30,"pop":23047,"lat":41.58961,"lng":-87.45323},{"zip":"46725","name":"Columbia City","pending_pct":0.4528,"pending":24,"active":30,"total":53,"new":36,"median_price":344900,"ppsf":181,"dom":27,"pop":23297,"lat":41.1518,"lng":-85.47655},{"zip":"47922","name":"Brook","pending_pct":0.2,"pending":1,"active":4,"total":5,"new":0,"median_price":214900,"ppsf":120,"dom":53,"pop":1315,"lat":40.8762,"lng":-87.35369},{"zip":"46538","name":"Leesburg","pending_pct":0.25,"pending":8,"active":22,"total":32,"new":12,"median_price":425000,"ppsf":329,"dom":50,"pop":4291,"lat":41.32829,"lng":-85.82703},{"zip":"46987","name":"Sweetser","pending_pct":0.2857,"pending":2,"active":4,"total":7,"new":0,"median_price":292450,"ppsf":127,"dom":74,"pop":1055,"lat":40.56847,"lng":-85.76722},{"zip":"46555","name":"North Webster","pending_pct":0.3077,"pending":4,"active":9,"total":13,"new":4,"median_price":384900,"ppsf":243,"dom":60,"pop":2517,"lat":41.32858,"lng":-85.68833},{"zip":"47201","name":"Columbus","pending_pct":0.377,"pending":72,"active":114,"total":191,"new":68,"median_price":299900,"ppsf":171,"dom":51,"pop":47900,"lat":39.15074,"lng":-85.99432},{"zip":"47465","name":"Switz City","pending_pct":1.0,"pending":1,"active":0,"total":1,"new":0,"median_price":null,"ppsf":null,"dom":null,"pop":628,"lat":39.05474,"lng":-87.04338},{"zip":"46036","name":"Elwood","pending_pct":0.4138,"pending":24,"active":32,"total":58,"new":20,"median_price":163950,"ppsf":129,"dom":60,"pop":11683,"lat":40.29689,"lng":-85.83289},{"zip":"47037","name":"Osgood","pending_pct":0.1667,"pending":1,"active":5,"total":6,"new":0,"median_price":149950,"ppsf":144,"dom":68,"pop":4330,"lat":39.16431,"lng":-85.31908},{"zip":"46208","name":"Indianapolis","pending_pct":0.3439,"pending":54,"active":103,"total":157,"new":52,"median_price":225000,"ppsf":141,"dom":53,"pop":22379,"lat":39.82307,"lng":-86.17307},{"zip":"47553","name":"Loogootee","pending_pct":0.2,"pending":5,"active":19,"total":25,"new":4,"median_price":319900,"ppsf":169,"dom":50,"pop":8777,"lat":38.65398,"lng":-86.91108},{"zip":"46062","name":"Noblesville","pending_pct":0.545,"pending":103,"active":86,"total":189,"new":76,"median_price":465000,"ppsf":189,"dom":42,"pop":41060,"lat":40.06146,"lng":-86.05523},{"zip":"46408","name":"Gary","pending_pct":0.2857,"pending":20,"active":50,"total":70,"new":12,"median_price":130000,"ppsf":101,"dom":49,"pop":15747,"lat":41.54468,"lng":-87.36941},{"zip":"46124","name":"Edinburgh","pending_pct":0.375,"pending":6,"active":10,"total":16,"new":4,"median_price":237900,"ppsf":168,"dom":56,"pop":7304,"lat":39.36914,"lng":-85.94551},{"zip":"47342","name":"Gaston","pending_pct":0.8,"pending":4,"active":0,"total":5,"new":0,"median_price":209450,"ppsf":144,"dom":127,"pop":2710,"lat":40.32184,"lng":-85.5105},{"zip":"46552","name":"New Carlisle","pending_pct":0.1071,"pending":3,"active":25,"total":28,"new":12,"median_price":521900,"ppsf":190,"dom":40,"pop":7047,"lat":41.70731,"lng":-86.485},{"zip":"46052","name":"Lebanon","pending_pct":0.439,"pending":36,"active":48,"total":82,"new":36,"median_price":367500,"ppsf":191,"dom":40,"pop":23553,"lat":40.04448,"lng":-86.46086},{"zip":"47346","name":"Hagerstown","pending_pct":0.6667,"pending":4,"active":3,"total":6,"new":4,"median_price":319000,"ppsf":140,"dom":60,"pop":3876,"lat":39.93442,"lng":-85.16306},{"zip":"47591","name":"Vincennes","pending_pct":0.2714,"pending":19,"active":49,"total":70,"new":28,"median_price":159900,"ppsf":100,"dom":57,"pop":25168,"lat":38.62136,"lng":-87.50594},{"zip":"47040","name":"Rising Sun","pending_pct":0.3846,"pending":5,"active":8,"total":13,"new":4,"median_price":405000,"ppsf":154,"dom":64,"pop":5275,"lat":38.91703,"lng":-84.92809},{"zip":"46703","name":"Angola","pending_pct":0.3636,"pending":28,"active":51,"total":77,"new":28,"median_price":599000,"ppsf":238,"dom":58,"pop":18572,"lat":41.65305,"lng":-85.00976},{"zip":"47303","name":"Muncie","pending_pct":0.4521,"pending":33,"active":38,"total":73,"new":28,"median_price":134900,"ppsf":111,"dom":33,"pop":24392,"lat":40.27108,"lng":-85.37648},{"zip":"47952","name":"Kingman","pending_pct":0.5,"pending":7,"active":10,"total":14,"new":4,"median_price":237499,"ppsf":131,"dom":34,"pop":2538,"lat":39.96186,"lng":-87.30049},{"zip":"47631","name":"New Harmony","pending_pct":0.4444,"pending":4,"active":5,"total":9,"new":4,"median_price":310000,"ppsf":127,"dom":53,"pop":2148,"lat":38.10082,"lng":-87.90967},{"zip":"47042","name":"Versailles","pending_pct":0.1429,"pending":1,"active":6,"total":7,"new":0,"median_price":397400,"ppsf":183,"dom":58,"pop":3839,"lat":39.01247,"lng":-85.25484},{"zip":"47804","name":"Terre Haute","pending_pct":0.3571,"pending":15,"active":27,"total":42,"new":16,"median_price":127500,"ppsf":76,"dom":36,"pop":10553,"lat":39.49756,"lng":-87.39031},{"zip":"46117","name":"Charlottesville","pending_pct":0.3333,"pending":1,"active":3,"total":3,"new":0,"median_price":459900,"ppsf":256,"dom":183,"pop":527,"lat":39.81507,"lng":-85.61763},{"zip":"47665","name":"Owensville","pending_pct":0.4444,"pending":4,"active":6,"total":9,"new":8,"median_price":183500,"ppsf":82,"dom":68,"pop":3947,"lat":38.28016,"lng":-87.72738},{"zip":"46118","name":"Clayton","pending_pct":0.6667,"pending":10,"active":5,"total":15,"new":4,"median_price":344000,"ppsf":177,"dom":34,"pop":4709,"lat":39.65317,"lng":-86.52394},{"zip":"46038","name":"Fishers","pending_pct":0.6383,"pending":90,"active":52,"total":141,"new":60,"median_price":359900,"ppsf":187,"dom":33,"pop":43754,"lat":39.96722,"lng":-86.01712},{"zip":"47041","name":"Sunman","pending_pct":0.3333,"pending":3,"active":6,"total":9,"new":4,"median_price":249900,"ppsf":189,"dom":58,"pop":5884,"lat":39.23432,"lng":-85.0797},{"zip":"47122","name":"Georgetown","pending_pct":0.3913,"pending":27,"active":42,"total":69,"new":20,"median_price":372400,"ppsf":186,"dom":35,"pop":11357,"lat":38.3041,"lng":-85.98303},{"zip":"46228","name":"Indianapolis","pending_pct":0.4262,"pending":26,"active":35,"total":61,"new":20,"median_price":289950,"ppsf":171,"dom":49,"pop":15724,"lat":39.8487,"lng":-86.20045},{"zip":"47177","name":"Underwood","pending_pct":0.8,"pending":4,"active":1,"total":5,"new":0,"median_price":410000,"ppsf":231,"dom":50,"pop":1782,"lat":38.59947,"lng":-85.78197},{"zip":"47118","name":"English","pending_pct":0.2,"pending":2,"active":8,"total":10,"new":4,"median_price":325000,"ppsf":178,"dom":94,"pop":3529,"lat":38.29788,"lng":-86.48449},{"zip":"46229","name":"Indianapolis","pending_pct":0.463,"pending":50,"active":62,"total":108,"new":28,"median_price":234950,"ppsf":136,"dom":37,"pop":28457,"lat":39.78852,"lng":-85.978},{"zip":"47024","name":"Laurel","pending_pct":0.2,"pending":2,"active":8,"total":10,"new":4,"median_price":194950,"ppsf":136,"dom":47,"pop":2901,"lat":39.47611,"lng":-85.19724},{"zip":"47866","name":"Pimento","pending_pct":null,"pending":null,"active":1,"total":1,"new":0,"median_price":184999,"ppsf":80,"dom":12,"pop":733,"lat":39.28302,"lng":-87.3247},{"zip":"47859","name":"Marshall","pending_pct":null,"pending":null,"active":1,"total":1,"new":0,"median_price":159000,"ppsf":122,"dom":174,"pop":934,"lat":39.88595,"lng":-87.16999},{"zip":"47968","name":"New Ross","pending_pct":null,"pending":null,"active":0,"total":0,"new":0,"median_price":295000,"ppsf":105,"dom":226,"pop":1356,"lat":39.96209,"lng":-86.74542},{"zip":"47926","name":"Burnettsville","pending_pct":null,"pending":null,"active":2,"total":2,"new":0,"median_price":127451,"ppsf":72,"dom":79,"pop":863,"lat":40.77789,"lng":-86.59707},{"zip":"47574","name":"Rome","pending_pct":null,"pending":null,"active":3,"total":3,"new":0,"median_price":224500,"ppsf":350,"dom":79,"pop":46,"lat":37.95265,"lng":-86.56323},{"zip":"46302","name":"Boone Grove","pending_pct":1.0,"pending":1,"active":1,"total":1,"new":0,"median_price":148000,"ppsf":118,"dom":261,"pop":29,"lat":41.3604,"lng":-87.12645},{"zip":"47060","name":"West Harrison","pending_pct":0.4286,"pending":3,"active":3,"total":7,"new":4,"median_price":385000,"ppsf":212,"dom":19,"pop":6309,"lat":39.29828,"lng":-84.8788},{"zip":"46121","name":"Coatesville","pending_pct":0.3696,"pending":17,"active":31,"total":46,"new":12,"median_price":379900,"ppsf":211,"dom":31,"pop":5271,"lat":39.67776,"lng":-86.67345},{"zip":"47862","name":"Montezuma","pending_pct":0.5714,"pending":4,"active":3,"total":7,"new":0,"median_price":139900,"ppsf":117,"dom":82,"pop":1438,"lat":39.77184,"lng":-87.34527},{"zip":"46809","name":"Fort Wayne","pending_pct":0.56,"pending":14,"active":11,"total":25,"new":16,"median_price":204950,"ppsf":154,"dom":25,"pop":8589,"lat":41.00088,"lng":-85.2102},{"zip":"47304","name":"Muncie","pending_pct":0.4264,"pending":55,"active":72,"total":129,"new":48,"median_price":245000,"ppsf":127,"dom":41,"pop":31237,"lat":40.23398,"lng":-85.45973},{"zip":"47022","name":"Guilford","pending_pct":0.3333,"pending":2,"active":3,"total":6,"new":0,"median_price":449900,"ppsf":269,"dom":99,"pop":3074,"lat":39.20722,"lng":-84.95089},{"zip":"46815","name":"Fort Wayne","pending_pct":0.6812,"pending":47,"active":21,"total":69,"new":44,"median_price":270700,"ppsf":143,"dom":27,"pop":27238,"lat":41.1034,"lng":-85.05913},{"zip":"46723","name":"Churubusco","pending_pct":0.4706,"pending":8,"active":8,"total":17,"new":8,"median_price":299900,"ppsf":144,"dom":51,"pop":7617,"lat":41.23828,"lng":-85.32441},{"zip":"47630","name":"Newburgh","pending_pct":0.405,"pending":81,"active":123,"total":200,"new":60,"median_price":417000,"ppsf":164,"dom":59,"pop":39818,"lat":37.95615,"lng":-87.35569},{"zip":"46070","name":"Summitville","pending_pct":0.2857,"pending":2,"active":5,"total":7,"new":4,"median_price":144900,"ppsf":99,"dom":39,"pop":2100,"lat":40.34315,"lng":-85.65928},{"zip":"46131","name":"Franklin","pending_pct":0.5556,"pending":70,"active":58,"total":126,"new":52,"median_price":349900,"ppsf":177,"dom":31,"pop":34647,"lat":39.47196,"lng":-86.04233},{"zip":"46241","name":"Indianapolis","pending_pct":0.4574,"pending":43,"active":49,"total":94,"new":28,"median_price":169900,"ppsf":156,"dom":45,"pop":32565,"lat":39.72389,"lng":-86.26842},{"zip":"47362","name":"New Castle","pending_pct":0.4,"pending":44,"active":66,"total":110,"new":36,"median_price":151000,"ppsf":119,"dom":39,"pop":29337,"lat":39.93186,"lng":-85.36998},{"zip":"47001","name":"Aurora","pending_pct":0.25,"pending":6,"active":19,"total":24,"new":8,"median_price":304000,"ppsf":145,"dom":39,"pop":10696,"lat":39.0579,"lng":-84.95689},{"zip":"46217","name":"Indianapolis","pending_pct":0.4357,"pending":61,"active":79,"total":140,"new":52,"median_price":269900,"ppsf":158,"dom":39,"pop":36917,"lat":39.67254,"lng":-86.19338},{"zip":"47990","name":"Waynetown","pending_pct":0.2,"pending":1,"active":4,"total":5,"new":0,"median_price":154950,"ppsf":96,"dom":50,"pop":1374,"lat":40.06118,"lng":-87.05952},{"zip":"46601","name":"South Bend","pending_pct":0.4286,"pending":3,"active":4,"total":7,"new":0,"median_price":275000,"ppsf":103,"dom":70,"pop":4800,"lat":41.67065,"lng":-86.252},{"zip":"46147","name":"Jamestown","pending_pct":0.2727,"pending":3,"active":8,"total":11,"new":4,"median_price":382200,"ppsf":175,"dom":25,"pop":2518,"lat":39.96988,"lng":-86.62693},{"zip":"46807","name":"Fort Wayne","pending_pct":0.4464,"pending":25,"active":31,"total":56,"new":24,"median_price":178700,"ppsf":120,"dom":48,"pop":16317,"lat":41.04489,"lng":-85.14763},{"zip":"46303","name":"Cedar Lake","pending_pct":0.3239,"pending":46,"active":96,"total":142,"new":36,"median_price":409900,"ppsf":211,"dom":60,"pop":17680,"lat":41.37198,"lng":-87.4765},{"zip":"46773","name":"Monroeville","pending_pct":0.5714,"pending":4,"active":3,"total":7,"new":0,"median_price":182200,"ppsf":139,"dom":41,"pop":3474,"lat":40.98401,"lng":-84.8759},{"zip":"46770","name":"Markle","pending_pct":0.2,"pending":2,"active":9,"total":10,"new":4,"median_price":345000,"ppsf":201,"dom":27,"pop":2530,"lat":40.8298,"lng":-85.31873},{"zip":"47246","name":"Hope","pending_pct":0.3333,"pending":5,"active":11,"total":15,"new":0,"median_price":412450,"ppsf":172,"dom":46,"pop":4326,"lat":39.29804,"lng":-85.76606},{"zip":"47992","name":"Westpoint","pending_pct":0.5714,"pending":4,"active":2,"total":7,"new":0,"median_price":872500,"ppsf":298,"dom":25,"pop":1663,"lat":40.31933,"lng":-87.0519},{"zip":"46320","name":"Hammond","pending_pct":0.3,"pending":9,"active":21,"total":30,"new":4,"median_price":255000,"ppsf":155,"dom":59,"pop":14353,"lat":41.60893,"lng":-87.49754},{"zip":"47386","name":"Springport","pending_pct":0.5,"pending":1,"active":1,"total":2,"new":4,"median_price":167450,"ppsf":115,"dom":15,"pop":1249,"lat":40.05277,"lng":-85.38305},{"zip":"46301","name":"Beverly Shores","pending_pct":0.4167,"pending":5,"active":6,"total":12,"new":0,"median_price":1280000,"ppsf":384,"dom":37,"pop":650,"lat":41.68687,"lng":-86.97438},{"zip":"47327","name":"Cambridge City","pending_pct":0.2778,"pending":5,"active":13,"total":18,"new":4,"median_price":150000,"ppsf":94,"dom":52,"pop":4477,"lat":39.8318,"lng":-85.17314},{"zip":"46346","name":"Kingsford Heights","pending_pct":0.5926,"pending":16,"active":13,"total":27,"new":0,"median_price":259990,"ppsf":147,"dom":16,"pop":1358,"lat":41.47816,"lng":-86.69332},{"zip":"47371","name":"Portland","pending_pct":0.4091,"pending":9,"active":13,"total":22,"new":4,"median_price":169900,"ppsf":116,"dom":66,"pop":12424,"lat":40.41874,"lng":-84.95896},{"zip":"46404","name":"Gary","pending_pct":0.4286,"pending":21,"active":35,"total":49,"new":12,"median_price":142500,"ppsf":97,"dom":48,"pop":15428,"lat":41.58475,"lng":-87.37502},{"zip":"46204","name":"Indianapolis","pending_pct":0.129,"pending":8,"active":54,"total":62,"new":8,"median_price":389900,"ppsf":280,"dom":74,"pop":11400,"lat":39.77134,"lng":-86.15703},{"zip":"47963","name":"Morocco","pending_pct":0.2222,"pending":2,"active":7,"total":9,"new":0,"median_price":239950,"ppsf":149,"dom":24,"pop":2306,"lat":40.96811,"lng":-87.44371},{"zip":"46060","name":"Noblesville","pending_pct":0.5765,"pending":98,"active":69,"total":170,"new":64,"median_price":399000,"ppsf":188,"dom":36,"pop":47610,"lat":40.06616,"lng":-85.93137},{"zip":"47129","name":"Clarksville","pending_pct":0.4242,"pending":28,"active":39,"total":66,"new":24,"median_price":229900,"ppsf":155,"dom":39,"pop":19582,"lat":38.31378,"lng":-85.76874},{"zip":"46069","name":"Sheridan","pending_pct":0.5897,"pending":23,"active":16,"total":39,"new":8,"median_price":329900,"ppsf":182,"dom":44,"pop":7504,"lat":40.13829,"lng":-86.23144},{"zip":"46203","name":"Indianapolis","pending_pct":0.3251,"pending":105,"active":218,"total":323,"new":104,"median_price":237000,"ppsf":176,"dom":45,"pop":37758,"lat":39.7368,"lng":-86.09586},{"zip":"47170","name":"Scottsburg","pending_pct":0.4314,"pending":22,"active":28,"total":51,"new":20,"median_price":239900,"ppsf":167,"dom":35,"pop":15451,"lat":38.68734,"lng":-85.84667},{"zip":"46835","name":"Fort Wayne","pending_pct":0.5739,"pending":66,"active":46,"total":115,"new":72,"median_price":324900,"ppsf":157,"dom":29,"pop":38166,"lat":41.15086,"lng":-85.04536},{"zip":"47904","name":"Lafayette","pending_pct":0.58,"pending":29,"active":22,"total":50,"new":20,"median_price":215000,"ppsf":159,"dom":37,"pop":16257,"lat":40.43835,"lng":-86.87609},{"zip":"46947","name":"Logansport","pending_pct":0.4533,"pending":34,"active":39,"total":75,"new":24,"median_price":219900,"ppsf":125,"dom":50,"pop":28687,"lat":40.76044,"lng":-86.37303},{"zip":"46524","name":"Etna Green","pending_pct":0.5,"pending":2,"active":2,"total":4,"new":0,"median_price":1298750,"ppsf":225,"dom":39,"pop":2023,"lat":41.2979,"lng":-86.02143},{"zip":"47231","name":"Dupont","pending_pct":null,"pending":null,"active":1,"total":1,"new":0,"median_price":209900,"ppsf":128,"dom":73,"pop":675,"lat":38.89792,"lng":-85.4996},{"zip":"47227","name":"Commiskey","pending_pct":null,"pending":null,"active":1,"total":1,"new":0,"median_price":479900,"ppsf":235,"dom":92,"pop":1177,"lat":38.87506,"lng":-85.65678},{"zip":"46508","name":"Burket","pending_pct":null,"pending":null,"active":1,"total":1,"new":0,"median_price":125000,"ppsf":91,"dom":163,"pop":203,"lat":41.15499,"lng":-85.96904},{"zip":"46405","name":"Lake Station","pending_pct":0.4688,"pending":15,"active":19,"total":32,"new":16,"median_price":195950,"ppsf":148,"dom":48,"pop":12184,"lat":41.57409,"lng":-87.26285},{"zip":"47345","name":"Greens Fork","pending_pct":0.5,"pending":1,"active":2,"total":2,"new":0,"median_price":249675,"ppsf":144,"dom":43,"pop":1362,"lat":39.892,"lng":-85.04765},{"zip":"46635","name":"South Bend","pending_pct":0.5455,"pending":12,"active":10,"total":22,"new":12,"median_price":277500,"ppsf":144,"dom":26,"pop":6410,"lat":41.71518,"lng":-86.20832},{"zip":"47394","name":"Winchester","pending_pct":0.3333,"pending":11,"active":21,"total":33,"new":8,"median_price":184900,"ppsf":120,"dom":44,"pop":7879,"lat":40.1679,"lng":-84.98667},{"zip":"47611","name":"Chrisney","pending_pct":0.6667,"pending":4,"active":2,"total":6,"new":4,"median_price":189000,"ppsf":112,"dom":56,"pop":988,"lat":38.02474,"lng":-87.05812},{"zip":"46794","name":"Wawaka","pending_pct":0.4,"pending":2,"active":3,"total":5,"new":0,"median_price":469000,"ppsf":234,"dom":28,"pop":1066,"lat":41.46654,"lng":-85.45946},{"zip":"47712","name":"Evansville","pending_pct":0.4423,"pending":23,"active":28,"total":52,"new":20,"median_price":175000,"ppsf":137,"dom":35,"pop":25444,"lat":37.92869,"lng":-87.65951},{"zip":"46072","name":"Tipton","pending_pct":0.4333,"pending":13,"active":17,"total":30,"new":20,"median_price":254900,"ppsf":141,"dom":34,"pop":9049,"lat":40.28526,"lng":-86.06891},{"zip":"47955","name":"Linden","pending_pct":0.75,"pending":3,"active":2,"total":4,"new":0,"median_price":89900,"ppsf":107,"dom":21,"pop":854,"lat":40.1954,"lng":-86.86513},{"zip":"47470","name":"Williams","pending_pct":0.5,"pending":2,"active":2,"total":4,"new":0,"median_price":824900,"ppsf":264,"dom":25,"pop":1646,"lat":38.81623,"lng":-86.64799},{"zip":"46561","name":"Osceola","pending_pct":0.4912,"pending":28,"active":31,"total":57,"new":20,"median_price":499950,"ppsf":197,"dom":46,"pop":13996,"lat":41.66683,"lng":-86.07599},{"zip":"46940","name":"La Fontaine","pending_pct":0.4,"pending":2,"active":4,"total":5,"new":0,"median_price":315000,"ppsf":170,"dom":65,"pop":2540,"lat":40.6882,"lng":-85.69857},{"zip":"47043","name":"Vevay","pending_pct":0.1579,"pending":3,"active":16,"total":19,"new":8,"median_price":249900,"ppsf":169,"dom":33,"pop":4852,"lat":38.7949,"lng":-85.10009},{"zip":"46745","name":"Hoagland","pending_pct":0.3333,"pending":1,"active":2,"total":3,"new":0,"median_price":409900,"ppsf":162,"dom":79,"pop":1793,"lat":40.95194,"lng":-85.00887},{"zip":"47720","name":"Evansville","pending_pct":0.4286,"pending":18,"active":24,"total":42,"new":16,"median_price":397450,"ppsf":165,"dom":37,"pop":17124,"lat":38.06065,"lng":-87.64247},{"zip":"47601","name":"Boonville","pending_pct":0.4151,"pending":22,"active":31,"total":53,"new":28,"median_price":257400,"ppsf":146,"dom":48,"pop":13258,"lat":38.05301,"lng":-87.25526},{"zip":"46914","name":"Bunker Hill","pending_pct":1.0,"pending":1,"active":1,"total":1,"new":0,"median_price":115000,"ppsf":119,"dom":10,"pop":4142,"lat":40.63068,"lng":-86.09515},{"zip":"47619","name":"Lynnville","pending_pct":0.4,"pending":2,"active":3,"total":5,"new":4,"median_price":239500,"ppsf":175,"dom":37,"pop":1593,"lat":38.1924,"lng":-87.30742},{"zip":"47639","name":"Haubstadt","pending_pct":0.5,"pending":1,"active":1,"total":2,"new":0,"median_price":476225,"ppsf":168,"dom":94,"pop":4730,"lat":38.18228,"lng":-87.57132},{"zip":"47396","name":"Yorktown","pending_pct":0.4839,"pending":15,"active":18,"total":31,"new":16,"median_price":327450,"ppsf":145,"dom":58,"pop":7712,"lat":40.18661,"lng":-85.51632},{"zip":"46534","name":"Knox","pending_pct":0.2462,"pending":16,"active":49,"total":65,"new":12,"median_price":275000,"ppsf":186,"dom":45,"pop":10811,"lat":41.28561,"lng":-86.61878},{"zip":"46076","name":"Windfall","pending_pct":0.3333,"pending":1,"active":3,"total":3,"new":0,"median_price":116000,"ppsf":63,"dom":22,"pop":1630,"lat":40.36318,"lng":-85.9374},{"zip":"46511","name":"Culver","pending_pct":0.3571,"pending":10,"active":18,"total":28,"new":8,"median_price":449000,"ppsf":223,"dom":36,"pop":3755,"lat":41.22182,"lng":-86.42889},{"zip":"46184","name":"Whiteland","pending_pct":0.4462,"pending":29,"active":37,"total":65,"new":32,"median_price":346000,"ppsf":170,"dom":41,"pop":13304,"lat":39.55967,"lng":-86.07361},{"zip":"46975","name":"Rochester","pending_pct":0.4035,"pending":23,"active":34,"total":57,"new":16,"median_price":429900,"ppsf":169,"dom":43,"pop":13824,"lat":41.0718,"lng":-86.25177},{"zip":"47832","name":"Bloomingdale","pending_pct":0.3333,"pending":1,"active":2,"total":3,"new":0,"median_price":1365000,"ppsf":827,"dom":329,"pop":1013,"lat":39.87879,"lng":-87.25463},{"zip":"47634","name":"Richland","pending_pct":0.5,"pending":8,"active":8,"total":16,"new":4,"median_price":200000,"ppsf":139,"dom":51,"pop":2272,"lat":37.93893,"lng":-87.1848},{"zip":"47590","name":"Velpen","pending_pct":0.3333,"pending":1,"active":2,"total":3,"new":0,"median_price":609850,"ppsf":195,"dom":14,"pop":544,"lat":38.35314,"lng":-87.10113},{"zip":"47164","name":"Palmyra","pending_pct":0.6,"pending":3,"active":2,"total":5,"new":4,"median_price":540000,"ppsf":139,"dom":15,"pop":3312,"lat":38.40462,"lng":-86.09079},{"zip":"47981","name":"Romney","pending_pct":1.0,"pending":1,"active":1,"total":1,"new":0,"median_price":200000,"ppsf":111,"dom":2,"pop":707,"lat":40.24599,"lng":-86.93128},{"zip":"46205","name":"Indianapolis","pending_pct":0.3155,"pending":59,"active":126,"total":187,"new":72,"median_price":325000,"ppsf":176,"dom":44,"pop":28259,"lat":39.82813,"lng":-86.13499},{"zip":"46979","name":"Russiaville","pending_pct":0.6667,"pending":8,"active":5,"total":12,"new":8,"median_price":249900,"ppsf":142,"dom":16,"pop":4908,"lat":40.42759,"lng":-86.27737},{"zip":"47954","name":"Ladoga","pending_pct":0.5,"pending":4,"active":4,"total":8,"new":0,"median_price":274900,"ppsf":132,"dom":54,"pop":2224,"lat":39.90048,"lng":-86.8178},{"zip":"46044","name":"Frankton","pending_pct":0.2857,"pending":2,"active":5,"total":7,"new":4,"median_price":276900,"ppsf":153,"dom":31,"pop":2628,"lat":40.2085,"lng":-85.79026},{"zip":"47119","name":"Floyds Knobs","pending_pct":0.3947,"pending":15,"active":24,"total":38,"new":8,"median_price":490450,"ppsf":182,"dom":39,"pop":12042,"lat":38.36699,"lng":-85.88217},{"zip":"46763","name":"Laotto","pending_pct":0.5,"pending":1,"active":1,"total":2,"new":0,"median_price":315000,"ppsf":154,"dom":106,"pop":1444,"lat":41.29418,"lng":-85.2415},{"zip":"46978","name":"Royal Center","pending_pct":0.4444,"pending":4,"active":4,"total":9,"new":0,"median_price":292000,"ppsf":134,"dom":88,"pop":2034,"lat":40.8587,"lng":-86.51113},{"zip":"47512","name":"Bicknell","pending_pct":0.2381,"pending":5,"active":16,"total":21,"new":0,"median_price":99900,"ppsf":78,"dom":68,"pop":4243,"lat":38.779,"lng":-87.31809},{"zip":"47649","name":"Francisco","pending_pct":0.3333,"pending":1,"active":2,"total":3,"new":0,"median_price":121600,"ppsf":96,"dom":32,"pop":1313,"lat":38.35154,"lng":-87.44786},{"zip":"46574","name":"Walkerton","pending_pct":0.3846,"pending":15,"active":24,"total":39,"new":12,"median_price":259000,"ppsf":162,"dom":50,"pop":7426,"lat":41.47327,"lng":-86.48829},{"zip":"46280","name":"Indianapolis","pending_pct":0.4194,"pending":13,"active":18,"total":31,"new":20,"median_price":444995,"ppsf":255,"dom":38,"pop":7514,"lat":39.93714,"lng":-86.11786},{"zip":"47597","name":"Wheatland","pending_pct":0.5,"pending":1,"active":1,"total":2,"new":0,"median_price":525000,"ppsf":178,"dom":143,"pop":745,"lat":38.64745,"lng":-87.29802},{"zip":"47136","name":"Lanesville","pending_pct":0.4211,"pending":16,"active":20,"total":38,"new":4,"median_price":457313,"ppsf":189,"dom":44,"pop":4756,"lat":38.23511,"lng":-85.96194},{"zip":"47403","name":"Bloomington","pending_pct":0.2795,"pending":45,"active":118,"total":161,"new":52,"median_price":329000,"ppsf":197,"dom":51,"pop":34396,"lat":39.08635,"lng":-86.61082},{"zip":"47909","name":"Lafayette","pending_pct":0.561,"pending":69,"active":53,"total":123,"new":56,"median_price":374950,"ppsf":189,"dom":34,"pop":43561,"lat":40.32357,"lng":-86.89933},{"zip":"46961","name":"New Waverly","pending_pct":null,"pending":null,"active":1,"total":1,"new":0,"median_price":221500,"ppsf":138,"dom":32,"pop":101,"lat":40.76573,"lng":-86.18786},{"zip":"47142","name":"Mauckport","pending_pct":null,"pending":null,"active":1,"total":1,"new":0,"median_price":734900,"ppsf":241,"dom":198,"pop":653,"lat":38.0684,"lng":-86.21042},{"zip":"47576","name":"Saint Croix","pending_pct":1.0,"pending":2,"active":2,"total":2,"new":0,"median_price":309000,"ppsf":214,"dom":6,"pop":672,"lat":38.19089,"lng":-86.58936},{"zip":"47408","name":"Bloomington","pending_pct":0.369,"pending":31,"active":55,"total":84,"new":20,"median_price":439900,"ppsf":189,"dom":52,"pop":23053,"lat":39.2283,"lng":-86.46452},{"zip":"47260","name":"Medora","pending_pct":0.4,"pending":2,"active":3,"total":5,"new":0,"median_price":130200,"ppsf":91,"dom":41,"pop":1809,"lat":38.83596,"lng":-86.19909},{"zip":"46312","name":"East Chicago","pending_pct":0.5172,"pending":15,"active":15,"total":29,"new":8,"median_price":172495,"ppsf":93,"dom":63,"pop":26022,"lat":41.64705,"lng":-87.45446},{"zip":"47501","name":"Washington","pending_pct":0.3125,"pending":20,"active":45,"total":64,"new":16,"median_price":239900,"ppsf":142,"dom":59,"pop":18612,"lat":38.66139,"lng":-87.17479},{"zip":"46806","name":"Fort Wayne","pending_pct":0.378,"pending":31,"active":50,"total":82,"new":24,"median_price":141200,"ppsf":117,"dom":44,"pop":26425,"lat":41.04649,"lng":-85.09224},{"zip":"46368","name":"Portage","pending_pct":0.5229,"pending":80,"active":74,"total":153,"new":56,"median_price":317707,"ppsf":184,"dom":36,"pop":40301,"lat":41.5848,"lng":-87.17937},{"zip":"47855","name":"Hymera","pending_pct":1.0,"pending":1,"active":1,"total":1,"new":0,"median_price":19500,"ppsf":21,"dom":199,"pop":937,"lat":39.18844,"lng":-87.30216},{"zip":"47165","name":"Pekin","pending_pct":0.3077,"pending":4,"active":8,"total":13,"new":4,"median_price":355000,"ppsf":201,"dom":24,"pop":6292,"lat":38.50152,"lng":-86.00508},{"zip":"47468","name":"Unionville","pending_pct":0.2,"pending":2,"active":8,"total":10,"new":0,"median_price":582500,"ppsf":323,"dom":38,"pop":1303,"lat":39.27801,"lng":-86.40482},{"zip":"47933","name":"Crawfordsville","pending_pct":0.5041,"pending":61,"active":62,"total":121,"new":40,"median_price":265000,"ppsf":154,"dom":42,"pop":28357,"lat":40.03728,"lng":-86.90234},{"zip":"47879","name":"Shelburn","pending_pct":0.25,"pending":2,"active":6,"total":8,"new":4,"median_price":122450,"ppsf":73,"dom":22,"pop":2640,"lat":39.18863,"lng":-87.37619},{"zip":"47229","name":"Crothersville","pending_pct":0.2143,"pending":3,"active":11,"total":14,"new":4,"median_price":177000,"ppsf":156,"dom":48,"pop":2965,"lat":38.80289,"lng":-85.86688},{"zip":"47881","name":"Staunton","pending_pct":1.0,"pending":4,"active":1,"total":4,"new":0,"median_price":57499,"ppsf":60,"dom":14,"pop":266,"lat":39.48722,"lng":-87.19029},{"zip":"47232","name":"Elizabethtown","pending_pct":0.25,"pending":1,"active":3,"total":4,"new":0,"median_price":389900,"ppsf":154,"dom":35,"pop":2316,"lat":39.11297,"lng":-85.79428},{"zip":"47356","name":"Middletown","pending_pct":0.4375,"pending":7,"active":7,"total":16,"new":4,"median_price":207000,"ppsf":127,"dom":72,"pop":5522,"lat":40.03079,"lng":-85.50415},{"zip":"46122","name":"Danville","pending_pct":0.5319,"pending":50,"active":45,"total":94,"new":40,"median_price":379900,"ppsf":159,"dom":34,"pop":16974,"lat":39.76822,"lng":-86.5475},{"zip":"47384","name":"Shirley","pending_pct":0.4286,"pending":3,"active":4,"total":7,"new":0,"median_price":174000,"ppsf":131,"dom":74,"pop":2161,"lat":39.91365,"lng":-85.55352},{"zip":"46802","name":"Fort Wayne","pending_pct":0.2973,"pending":11,"active":26,"total":37,"new":8,"median_price":359900,"ppsf":196,"dom":74,"pop":11177,"lat":41.06787,"lng":-85.16299},{"zip":"47837","name":"Carbon","pending_pct":0.5,"pending":1,"active":1,"total":2,"new":0,"median_price":728675,"ppsf":329,"dom":59,"pop":997,"lat":39.62929,"lng":-87.11281},{"zip":"46913","name":"Bringhurst","pending_pct":0.2,"pending":1,"active":3,"total":5,"new":0,"median_price":402450,"ppsf":163,"dom":95,"pop":1400,"lat":40.50364,"lng":-86.49739},{"zip":"47230","name":"Deputy","pending_pct":0.5,"pending":3,"active":3,"total":6,"new":0,"median_price":214900,"ppsf":105,"dom":69,"pop":2086,"lat":38.7946,"lng":-85.63139},{"zip":"47320","name":"Albany","pending_pct":0.1765,"pending":3,"active":13,"total":17,"new":8,"median_price":220000,"ppsf":108,"dom":44,"pop":4563,"lat":40.2787,"lng":-85.2672},{"zip":"46637","name":"South Bend","pending_pct":0.507,"pending":36,"active":36,"total":71,"new":20,"median_price":332400,"ppsf":205,"dom":33,"pop":16200,"lat":41.73358,"lng":-86.24299},{"zip":"47441","name":"Linton","pending_pct":0.2857,"pending":12,"active":30,"total":42,"new":12,"median_price":201400,"ppsf":141,"dom":60,"pop":8910,"lat":39.03976,"lng":-87.1743},{"zip":"46750","name":"Huntington","pending_pct":0.5942,"pending":41,"active":29,"total":69,"new":32,"median_price":187900,"ppsf":123,"dom":33,"pop":27271,"lat":40.87677,"lng":-85.49674},{"zip":"46570","name":"Tippecanoe","pending_pct":0.5,"pending":1,"active":1,"total":2,"new":0,"median_price":119450,"ppsf":64,"dom":37,"pop":1279,"lat":41.20766,"lng":-86.1207},{"zip":"46543","name":"Millersburg","pending_pct":0.5,"pending":1,"active":1,"total":2,"new":0,"median_price":107448,"ppsf":97,"dom":20,"pop":4741,"lat":41.53341,"lng":-85.67119},{"zip":"47980","name":"Reynolds","pending_pct":0.5,"pending":2,"active":2,"total":4,"new":0,"median_price":239900,"ppsf":123,"dom":95,"pop":1244,"lat":40.75393,"lng":-86.90131},{"zip":"46385","name":"Valparaiso","pending_pct":0.3884,"pending":87,"active":137,"total":224,"new":88,"median_price":499000,"ppsf":198,"dom":36,"pop":40856,"lat":41.46395,"lng":-87.12396},{"zip":"47280","name":"Taylorsville","pending_pct":0.5,"pending":1,"active":1,"total":2,"new":0,"median_price":129000,"ppsf":119,"dom":25,"pop":1248,"lat":39.29655,"lng":-85.95047},{"zip":"47711","name":"Evansville","pending_pct":0.325,"pending":52,"active":102,"total":160,"new":52,"median_price":150000,"ppsf":131,"dom":67,"pop":30944,"lat":38.0157,"lng":-87.53606},{"zip":"47586","name":"Tell City","pending_pct":0.1695,"pending":10,"active":49,"total":59,"new":24,"median_price":250000,"ppsf":136,"dom":65,"pop":10826,"lat":38.03684,"lng":-86.69297},{"zip":"47986","name":"Templeton","pending_pct":null,"pending":null,"active":2,"total":2,"new":4,"median_price":217450,"ppsf":151,"dom":7,"pop":0,"lat":40.51384,"lng":-87.20719},{"zip":"46183","name":"West Newton","pending_pct":null,"pending":null,"active":1,"total":1,"new":4,"median_price":255000,"ppsf":120,"dom":4,"pop":34,"lat":39.65397,"lng":-86.28121},{"zip":"47420","name":"Avoca","pending_pct":null,"pending":null,"active":3,"total":3,"new":0,"median_price":194900,"ppsf":175,"dom":42,"pop":89,"lat":38.91903,"lng":-86.54933},{"zip":"46777","name":"Ossian","pending_pct":0.5,"pending":7,"active":7,"total":14,"new":8,"median_price":354950,"ppsf":174,"dom":24,"pop":6081,"lat":40.87248,"lng":-85.15236},{"zip":"46567","name":"Syracuse","pending_pct":0.3548,"pending":22,"active":42,"total":62,"new":28,"median_price":627000,"ppsf":361,"dom":37,"pop":9292,"lat":41.41473,"lng":-85.73044},{"zip":"46787","name":"South Whitley","pending_pct":0.4,"pending":2,"active":3,"total":5,"new":0,"median_price":235000,"ppsf":100,"dom":125,"pop":4031,"lat":41.06598,"lng":-85.62085},{"zip":"46225","name":"Indianapolis","pending_pct":0.2593,"pending":21,"active":62,"total":81,"new":20,"median_price":260000,"ppsf":168,"dom":45,"pop":6037,"lat":39.74062,"lng":-86.16294},{"zip":"46920","name":"Cutler","pending_pct":1.0,"pending":1,"active":0,"total":1,"new":0,"median_price":282450,"ppsf":134,"dom":46,"pop":1401,"lat":40.46459,"lng":-86.49502},{"zip":"46933","name":"Gas City","pending_pct":0.4737,"pending":9,"active":10,"total":19,"new":8,"median_price":204750,"ppsf":130,"dom":43,"pop":6536,"lat":40.47887,"lng":-85.58091},{"zip":"47369","name":"Pennville","pending_pct":0.5,"pending":2,"active":2,"total":4,"new":0,"median_price":161000,"ppsf":72,"dom":48,"pop":1212,"lat":40.50714,"lng":-85.14715},{"zip":"46239","name":"Indianapolis","pending_pct":0.4318,"pending":95,"active":125,"total":220,"new":76,"median_price":326970,"ppsf":150,"dom":43,"pop":33931,"lat":39.72311,"lng":-86.0004},{"zip":"47527","name":"Dubois","pending_pct":0.4545,"pending":5,"active":7,"total":11,"new":4,"median_price":309350,"ppsf":160,"dom":26,"pop":2195,"lat":38.47232,"lng":-86.77772},{"zip":"46113","name":"Camby","pending_pct":0.4598,"pending":40,"active":48,"total":87,"new":32,"median_price":300000,"ppsf":146,"dom":30,"pop":17192,"lat":39.635,"lng":-86.30548},{"zip":"47108","name":"Campbellsburg","pending_pct":0.25,"pending":2,"active":7,"total":8,"new":0,"median_price":203950,"ppsf":133,"dom":50,"pop":2155,"lat":38.6455,"lng":-86.25725},{"zip":"46950","name":"Lucerne","pending_pct":0.3333,"pending":1,"active":2,"total":3,"new":0,"median_price":262500,"ppsf":102,"dom":68,"pop":459,"lat":40.88391,"lng":-86.37162},{"zip":"47546","name":"Jasper","pending_pct":0.4231,"pending":22,"active":29,"total":52,"new":16,"median_price":308000,"ppsf":134,"dom":41,"pop":22191,"lat":38.42071,"lng":-86.93469},{"zip":"47848","name":"Dugger","pending_pct":0.4,"pending":2,"active":3,"total":5,"new":0,"median_price":100000,"ppsf":107,"dom":26,"pop":1333,"lat":39.04159,"lng":-87.26108},{"zip":"46057","name":"Michigantown","pending_pct":0.6,"pending":3,"active":3,"total":5,"new":4,"median_price":279900,"ppsf":136,"dom":67,"pop":1270,"lat":40.33796,"lng":-86.37801},{"zip":"46111","name":"Brooklyn","pending_pct":0.5,"pending":1,"active":1,"total":2,"new":0,"median_price":250000,"ppsf":165,"dom":282,"pop":448,"lat":39.5417,"lng":-86.36863},{"zip":"47612","name":"Cynthiana","pending_pct":1.0,"pending":2,"active":2,"total":2,"new":0,"median_price":114900,"ppsf":116,"dom":41,"pop":818,"lat":38.1946,"lng":-87.70155},{"zip":"46382","name":"Union Mills","pending_pct":0.5,"pending":3,"active":3,"total":6,"new":0,"median_price":320200,"ppsf":188,"dom":46,"pop":1835,"lat":41.46868,"lng":-86.76212},{"zip":"47023","name":"Holton","pending_pct":0.3333,"pending":1,"active":3,"total":3,"new":0,"median_price":189900,"ppsf":135,"dom":104,"pop":2132,"lat":39.07255,"lng":-85.37467},{"zip":"46065","name":"Rossville","pending_pct":0.5,"pending":4,"active":4,"total":8,"new":4,"median_price":305000,"ppsf":140,"dom":62,"pop":3644,"lat":40.42318,"lng":-86.60992},{"zip":"46310","name":"Demotte","pending_pct":0.4,"pending":20,"active":30,"total":50,"new":16,"median_price":347500,"ppsf":164,"dom":37,"pop":14077,"lat":41.18205,"lng":-87.23088},{"zip":"47125","name":"Hardinsburg","pending_pct":0.2857,"pending":2,"active":5,"total":7,"new":0,"median_price":225000,"ppsf":158,"dom":57,"pop":1988,"lat":38.46341,"lng":-86.30825},{"zip":"47451","name":"Oolitic","pending_pct":0.5,"pending":2,"active":2,"total":4,"new":0,"median_price":237400,"ppsf":167,"dom":129,"pop":1595,"lat":38.89176,"lng":-86.52536},{"zip":"46517","name":"Elkhart","pending_pct":0.5714,"pending":28,"active":21,"total":49,"new":24,"median_price":309950,"ppsf":171,"dom":32,"pop":25433,"lat":41.62429,"lng":-85.99675},{"zip":"47471","name":"Worthington","pending_pct":0.3333,"pending":3,"active":7,"total":9,"new":4,"median_price":249900,"ppsf":97,"dom":43,"pop":2755,"lat":39.14253,"lng":-86.99788},{"zip":"46304","name":"Chesterton","pending_pct":0.4297,"pending":55,"active":70,"total":128,"new":44,"median_price":433900,"ppsf":200,"dom":39,"pop":28307,"lat":41.61311,"lng":-87.04905},{"zip":"46915","name":"Burlington","pending_pct":0.5,"pending":1,"active":1,"total":2,"new":0,"median_price":362140,"ppsf":198,"dom":78,"pop":617,"lat":40.47832,"lng":-86.38636},{"zip":"46816","name":"Fort Wayne","pending_pct":0.3226,"pending":10,"active":21,"total":31,"new":12,"median_price":362900,"ppsf":177,"dom":83,"pop":19514,"lat":41.00396,"lng":-85.04169},{"zip":"46571","name":"Topeka","pending_pct":0.5,"pending":2,"active":3,"total":4,"new":0,"median_price":330000,"ppsf":202,"dom":50,"pop":6315,"lat":41.56795,"lng":-85.54667},{"zip":"46779","name":"Pleasant Lake","pending_pct":0.5,"pending":3,"active":2,"total":6,"new":0,"median_price":324900,"ppsf":209,"dom":60,"pop":2221,"lat":41.5725,"lng":-85.03094},{"zip":"47884","name":"Universal","pending_pct":0.5,"pending":1,"active":1,"total":2,"new":0,"median_price":17900,"ppsf":16,"dom":101,"pop":157,"lat":39.62308,"lng":-87.45362},{"zip":"47150","name":"New Albany","pending_pct":0.4268,"pending":105,"active":141,"total":246,"new":68,"median_price":250000,"ppsf":164,"dom":36,"pop":49144,"lat":38.28831,"lng":-85.84775},{"zip":"46982","name":"Silver Lake","pending_pct":0.6,"pending":3,"active":2,"total":5,"new":4,"median_price":199900,"ppsf":176,"dom":16,"pop":2604,"lat":41.05717,"lng":-85.8882},{"zip":"46932","name":"Galveston","pending_pct":0.4615,"pending":6,"active":8,"total":13,"new":4,"median_price":219450,"ppsf":108,"dom":40,"pop":3066,"lat":40.59675,"lng":-86.26243},{"zip":"47147","name":"Nabb","pending_pct":0.2,"pending":1,"active":4,"total":5,"new":0,"median_price":218450,"ppsf":173,"dom":39,"pop":1317,"lat":38.5942,"lng":-85.53866},{"zip":"46797","name":"Woodburn","pending_pct":0.2143,"pending":3,"active":10,"total":14,"new":4,"median_price":342400,"ppsf":176,"dom":43,"pop":4097,"lat":41.12749,"lng":-84.86046},{"zip":"46075","name":"Whitestown","pending_pct":0.5984,"pending":73,"active":49,"total":122,"new":28,"median_price":389950,"ppsf":169,"dom":44,"pop":9509,"lat":40.02637,"lng":-86.3346},{"zip":"46350","name":"La Porte","pending_pct":0.3851,"pending":62,"active":100,"total":161,"new":56,"median_price":354950,"ppsf":169,"dom":38,"pop":44763,"lat":41.60697,"lng":-86.72157},{"zip":"47977","name":"Remington","pending_pct":0.3333,"pending":2,"active":6,"total":6,"new":4,"median_price":390000,"ppsf":172,"dom":43,"pop":2616,"lat":40.76132,"lng":-87.15786},{"zip":"46714","name":"Bluffton","pending_pct":0.5116,"pending":22,"active":21,"total":43,"new":16,"median_price":266997,"ppsf":161,"dom":23,"pop":15734,"lat":40.71774,"lng":-85.17319},{"zip":"47551","name":"Leopold","pending_pct":0.25,"pending":1,"active":3,"total":4,"new":0,"median_price":281450,"ppsf":188,"dom":41,"pop":607,"lat":38.12153,"lng":-86.56353},{"zip":"47226","name":"Clifford","pending_pct":1.0,"pending":1,"active":1,"total":1,"new":0,"median_price":249900,"ppsf":106,"dom":33,"pop":165,"lat":39.28266,"lng":-85.86907},{"zip":"46381","name":"Thayer","pending_pct":1.0,"pending":1,"active":0,"total":1,"new":0,"median_price":235000,"ppsf":132,"dom":35,"pop":212,"lat":41.17635,"lng":-87.33436},{"zip":"47529","name":"Elnora","pending_pct":0.3333,"pending":1,"active":3,"total":3,"new":0,"median_price":79900,"ppsf":93,"dom":60,"pop":1037,"lat":38.86386,"lng":-87.07804},{"zip":"46764","name":"Larwill","pending_pct":null,"pending":null,"active":1,"total":1,"new":0,"median_price":74900,"ppsf":76,"dom":12,"pop":1554,"lat":41.2176,"lng":-85.62376},{"zip":"47166","name":"Ramsey","pending_pct":null,"pending":null,"active":1,"total":1,"new":0,"median_price":225000,"ppsf":131,"dom":26,"pop":1484,"lat":38.30668,"lng":-86.16901},{"zip":"47515","name":"Bristow","pending_pct":null,"pending":null,"active":4,"total":4,"new":0,"median_price":237000,"ppsf":153,"dom":124,"pop":1305,"lat":38.17769,"lng":-86.70226},{"zip":"46968","name":"Ora","pending_pct":null,"pending":null,"active":2,"total":2,"new":0,"median_price":95750,"ppsf":84,"dom":69,"pop":96,"lat":41.17049,"lng":-86.55179},{"zip":"46012","name":"Anderson","pending_pct":0.38,"pending":38,"active":59,"total":100,"new":44,"median_price":184450,"ppsf":126,"dom":40,"pop":20855,"lat":40.1492,"lng":-85.62552},{"zip":"47918","name":"Attica","pending_pct":0.35,"pending":7,"active":12,"total":20,"new":4,"median_price":214950,"ppsf":107,"dom":48,"pop":5657,"lat":40.30388,"lng":-87.20628},{"zip":"47102","name":"Austin","pending_pct":0.3684,"pending":14,"active":25,"total":38,"new":12,"median_price":179450,"ppsf":137,"dom":31,"pop":6659,"lat":38.75745,"lng":-85.7951},{"zip":"46721","name":"Butler","pending_pct":0.7778,"pending":7,"active":2,"total":9,"new":0,"median_price":289900,"ppsf":181,"dom":31,"pop":4739,"lat":41.4237,"lng":-84.87425},{"zip":"46613","name":"South Bend","pending_pct":0.58,"pending":29,"active":19,"total":50,"new":12,"median_price":115450,"ppsf":94,"dom":43,"pop":12279,"lat":41.65389,"lng":-86.264},{"zip":"47265","name":"North Vernon","pending_pct":0.4714,"pending":33,"active":36,"total":70,"new":20,"median_price":220000,"ppsf":146,"dom":59,"pop":20937,"lat":39.00818,"lng":-85.62685},{"zip":"47660","name":"Oakland City","pending_pct":0.4286,"pending":6,"active":8,"total":14,"new":8,"median_price":74950,"ppsf":67,"dom":73,"pop":4966,"lat":38.29712,"lng":-87.33191},{"zip":"46058","name":"Mulberry","pending_pct":0.4286,"pending":3,"active":4,"total":7,"new":4,"median_price":270000,"ppsf":148,"dom":42,"pop":2093,"lat":40.35981,"lng":-86.64777},{"zip":"46231","name":"Indianapolis","pending_pct":0.5312,"pending":17,"active":16,"total":32,"new":16,"median_price":260950,"ppsf":148,"dom":38,"pop":10371,"lat":39.72086,"lng":-86.32712},{"zip":"47235","name":"Freetown","pending_pct":0.3333,"pending":1,"active":2,"total":3,"new":0,"median_price":429900,"ppsf":228,"dom":132,"pop":1672,"lat":39.01385,"lng":-86.14046},{"zip":"47579","name":"Santa Claus","pending_pct":0.3333,"pending":7,"active":13,"total":21,"new":8,"median_price":425000,"ppsf":176,"dom":39,"pop":2883,"lat":38.11149,"lng":-86.91322},{"zip":"47250","name":"Madison","pending_pct":0.2551,"pending":25,"active":73,"total":98,"new":16,"median_price":315000,"ppsf":173,"dom":59,"pop":22884,"lat":38.81867,"lng":-85.3552},{"zip":"47020","name":"Florence","pending_pct":0.2,"pending":1,"active":4,"total":5,"new":0,"median_price":190250,"ppsf":133,"dom":38,"pop":1177,"lat":38.8119,"lng":-84.93221},{"zip":"47561","name":"Oaktown","pending_pct":0.2,"pending":1,"active":4,"total":5,"new":0,"median_price":95000,"ppsf":84,"dom":32,"pop":1442,"lat":38.85705,"lng":-87.43611},{"zip":"46048","name":"Ingalls","pending_pct":0.5,"pending":3,"active":3,"total":6,"new":0,"median_price":269900,"ppsf":176,"dom":37,"pop":2025,"lat":39.9543,"lng":-85.80755},{"zip":"46732","name":"Cromwell","pending_pct":0.2857,"pending":2,"active":4,"total":7,"new":0,"median_price":499450,"ppsf":299,"dom":98,"pop":2231,"lat":41.37697,"lng":-85.62169},{"zip":"47115","name":"Depauw","pending_pct":0.6667,"pending":2,"active":2,"total":3,"new":4,"median_price":212450,"ppsf":197,"dom":28,"pop":2782,"lat":38.34465,"lng":-86.21655},{"zip":"46077","name":"Zionsville","pending_pct":0.5844,"pending":90,"active":62,"total":154,"new":76,"median_price":874900,"ppsf":233,"dom":30,"pop":36760,"lat":39.98281,"lng":-86.28346},{"zip":"46172","name":"Roachdale","pending_pct":0.4,"pending":4,"active":5,"total":10,"new":4,"median_price":372500,"ppsf":158,"dom":51,"pop":2427,"lat":39.82725,"lng":-86.8144},{"zip":"47355","name":"Lynn","pending_pct":0.25,"pending":1,"active":3,"total":4,"new":0,"median_price":135000,"ppsf":91,"dom":52,"pop":3029,"lat":40.04376,"lng":-84.9258},{"zip":"46532","name":"Hamlet","pending_pct":0.25,"pending":2,"active":6,"total":8,"new":4,"median_price":249950,"ppsf":153,"dom":67,"pop":1921,"lat":41.41762,"lng":-86.62119},{"zip":"47390","name":"Union City","pending_pct":0.5833,"pending":14,"active":10,"total":24,"new":12,"median_price":129000,"ppsf":95,"dom":31,"pop":4972,"lat":40.20625,"lng":-84.84671},{"zip":"47874","name":"Rosedale","pending_pct":0.3,"pending":3,"active":9,"total":10,"new":0,"median_price":150000,"ppsf":101,"dom":33,"pop":3226,"lat":39.62913,"lng":-87.27792},{"zip":"47281","name":"Vallonia","pending_pct":1.0,"pending":1,"active":1,"total":1,"new":0,"median_price":165000,"ppsf":236,"dom":351,"pop":1541,"lat":38.78563,"lng":-86.10324},{"zip":"47598","name":"Winslow","pending_pct":0.5,"pending":4,"active":4,"total":8,"new":4,"median_price":224500,"ppsf":127,"dom":32,"pop":3031,"lat":38.3875,"lng":-87.20711},{"zip":"47994","name":"Wingate","pending_pct":1.0,"pending":1,"active":2,"total":1,"new":0,"median_price":212500,"ppsf":159,"dom":5,"pop":674,"lat":40.18233,"lng":-87.08231},{"zip":"47974","name":"Perrysville","pending_pct":0.3333,"pending":1,"active":2,"total":3,"new":0,"median_price":281950,"ppsf":188,"dom":56,"pop":1441,"lat":40.04297,"lng":-87.47356},{"zip":"46516","name":"Elkhart","pending_pct":0.4588,"pending":39,"active":46,"total":85,"new":44,"median_price":249900,"ppsf":146,"dom":48,"pop":31871,"lat":41.6756,"lng":-85.94584},{"zip":"47803","name":"Terre Haute","pending_pct":0.4906,"pending":52,"active":55,"total":106,"new":48,"median_price":279000,"ppsf":140,"dom":35,"pop":21746,"lat":39.46433,"lng":-87.30855},{"zip":"47240","name":"Greensburg","pending_pct":0.2958,"pending":21,"active":50,"total":71,"new":32,"median_price":278000,"ppsf":167,"dom":38,"pop":21484,"lat":39.32394,"lng":-85.48028},{"zip":"47995","name":"Wolcott","pending_pct":1.0,"pending":1,"active":1,"total":1,"new":0,"median_price":349900,"ppsf":90,"dom":25,"pop":1860,"lat":40.75861,"lng":-87.0329},{"zip":"47640","name":"Hazleton","pending_pct":0.3333,"pending":1,"active":2,"total":3,"new":0,"median_price":154950,"ppsf":122,"dom":59,"pop":938,"lat":38.47708,"lng":-87.49301},{"zip":"47710","name":"Evansville","pending_pct":0.3382,"pending":23,"active":44,"total":68,"new":16,"median_price":115000,"ppsf":92,"dom":57,"pop":18309,"lat":38.02518,"lng":-87.57618},{"zip":"46050","name":"Kirklin","pending_pct":0.6667,"pending":2,"active":2,"total":3,"new":0,"median_price":257500,"ppsf":208,"dom":47,"pop":1808,"lat":40.20515,"lng":-86.34629},{"zip":"46322","name":"Highland","pending_pct":0.5312,"pending":34,"active":29,"total":64,"new":32,"median_price":255000,"ppsf":164,"dom":41,"pop":23680,"lat":41.54818,"lng":-87.45884},{"zip":"46224","name":"Indianapolis","pending_pct":0.4118,"pending":21,"active":27,"total":51,"new":24,"median_price":219999,"ppsf":167,"dom":37,"pop":40228,"lat":39.79537,"lng":-86.25624},{"zip":"46805","name":"Fort Wayne","pending_pct":0.6027,"pending":44,"active":29,"total":73,"new":32,"median_price":187500,"ppsf":133,"dom":42,"pop":21437,"lat":41.09918,"lng":-85.11762},{"zip":"46390","name":"Wanatah","pending_pct":1.0,"pending":3,"active":0,"total":3,"new":0,"median_price":329900,"ppsf":310,"dom":24,"pop":2554,"lat":41.41677,"lng":-86.8742},{"zip":"47901","name":"Lafayette","pending_pct":0.3,"pending":3,"active":7,"total":10,"new":4,"median_price":449000,"ppsf":241,"dom":58,"pop":4585,"lat":40.4178,"lng":-86.88995},{"zip":"47162","name":"New Washington","pending_pct":1.0,"pending":2,"active":1,"total":2,"new":4,"median_price":250000,"ppsf":91,"dom":4,"pop":514,"lat":38.55477,"lng":-85.48873},{"zip":"46705","name":"Ashley","pending_pct":0.75,"pending":6,"active":2,"total":8,"new":4,"median_price":192400,"ppsf":154,"dom":51,"pop":1972,"lat":41.51816,"lng":-85.06029},{"zip":"47114","name":"Crandall","pending_pct":null,"pending":null,"active":1,"total":1,"new":4,"median_price":359000,"ppsf":186,"dom":4,"pop":484,"lat":38.28754,"lng":-86.07335},{"zip":"47991","name":"West Lebanon","pending_pct":null,"pending":null,"active":1,"total":1,"new":0,"median_price":299900,"ppsf":149,"dom":73,"pop":1371,"lat":40.28034,"lng":-87.44794},{"zip":"47860","name":"Mecca","pending_pct":null,"pending":null,"active":1,"total":1,"new":0,"median_price":279000,"ppsf":197,"dom":113,"pop":540,"lat":39.72215,"lng":-87.33013},{"zip":"46155","name":"Mays","pending_pct":null,"pending":null,"active":3,"total":3,"new":0,"median_price":133000,"ppsf":68,"dom":114,"pop":46,"lat":39.74355,"lng":-85.42966},{"zip":"46986","name":"Swayzee","pending_pct":1.0,"pending":3,"active":1,"total":3,"new":0,"median_price":397400,"ppsf":164,"dom":25,"pop":1617,"lat":40.49481,"lng":-85.81929},{"zip":"47025","name":"Lawrenceburg","pending_pct":0.2391,"pending":11,"active":38,"total":46,"new":28,"median_price":385250,"ppsf":165,"dom":44,"pop":23570,"lat":39.15415,"lng":-84.87461},{"zip":"46784","name":"Rome City","pending_pct":0.2222,"pending":4,"active":14,"total":18,"new":12,"median_price":490000,"ppsf":270,"dom":25,"pop":1966,"lat":41.49797,"lng":-85.38797},{"zip":"46923","name":"Delphi","pending_pct":0.4828,"pending":14,"active":16,"total":29,"new":16,"median_price":289000,"ppsf":155,"dom":54,"pop":8221,"lat":40.606,"lng":-86.64568},{"zip":"46034","name":"Cicero","pending_pct":0.2727,"pending":9,"active":23,"total":33,"new":16,"median_price":656950,"ppsf":240,"dom":40,"pop":7531,"lat":40.13291,"lng":-86.04128},{"zip":"46819","name":"Fort Wayne","pending_pct":0.7778,"pending":7,"active":1,"total":9,"new":4,"median_price":209900,"ppsf":164,"dom":46,"pop":9369,"lat":40.96409,"lng":-85.13256},{"zip":"46218","name":"Indianapolis","pending_pct":0.2444,"pending":44,"active":136,"total":180,"new":60,"median_price":149900,"ppsf":133,"dom":58,"pop":29360,"lat":39.80713,"lng":-86.09958},{"zip":"46767","name":"Ligonier","pending_pct":0.5,"pending":7,"active":6,"total":14,"new":4,"median_price":277400,"ppsf":104,"dom":87,"pop":9418,"lat":41.46487,"lng":-85.5764},{"zip":"47393","name":"Williamsburg","pending_pct":0.5,"pending":1,"active":1,"total":2,"new":0,"median_price":1029450,"ppsf":310,"dom":116,"pop":1907,"lat":39.96559,"lng":-85.00325},{"zip":"47967","name":"New Richmond","pending_pct":0.5,"pending":1,"active":1,"total":2,"new":0,"median_price":160000,"ppsf":93,"dom":12,"pop":873,"lat":40.1942,"lng":-86.99899},{"zip":"46278","name":"Indianapolis","pending_pct":0.5385,"pending":21,"active":18,"total":39,"new":16,"median_price":497500,"ppsf":164,"dom":31,"pop":8450,"lat":39.89389,"lng":-86.29606},{"zip":"46071","name":"Thorntown","pending_pct":0.5455,"pending":6,"active":4,"total":11,"new":0,"median_price":425000,"ppsf":177,"dom":29,"pop":3072,"lat":40.11941,"lng":-86.60549},{"zip":"46765","name":"Leo","pending_pct":0.5185,"pending":14,"active":14,"total":27,"new":16,"median_price":669400,"ppsf":217,"dom":33,"pop":5786,"lat":41.23361,"lng":-85.04047},{"zip":"47038","name":"Patriot","pending_pct":0.3333,"pending":2,"active":5,"total":6,"new":0,"median_price":284900,"ppsf":194,"dom":87,"pop":1006,"lat":38.84588,"lng":-84.84212},{"zip":"47528","name":"Edwardsport","pending_pct":0.25,"pending":1,"active":2,"total":4,"new":0,"median_price":139900,"ppsf":80,"dom":39,"pop":457,"lat":38.84447,"lng":-87.26806},{"zip":"47513","name":"Birdseye","pending_pct":0.2941,"pending":5,"active":12,"total":17,"new":4,"median_price":250000,"ppsf":273,"dom":66,"pop":1581,"lat":38.30405,"lng":-86.6995},{"zip":"47348","name":"Hartford City","pending_pct":0.4,"pending":14,"active":22,"total":35,"new":12,"median_price":199900,"ppsf":126,"dom":57,"pop":9080,"lat":40.45725,"lng":-85.34855},{"zip":"46222","name":"Indianapolis","pending_pct":0.3048,"pending":32,"active":73,"total":105,"new":36,"median_price":180000,"ppsf":155,"dom":56,"pop":38887,"lat":39.79088,"lng":-86.21477},{"zip":"47833","name":"Bowling Green","pending_pct":0.6667,"pending":2,"active":1,"total":3,"new":0,"median_price":349900,"ppsf":249,"dom":11,"pop":836,"lat":39.35841,"lng":-86.97773},{"zip":"47454","name":"Paoli","pending_pct":0.2647,"pending":9,"active":27,"total":34,"new":8,"median_price":192450,"ppsf":154,"dom":60,"pop":7555,"lat":38.51596,"lng":-86.45989},{"zip":"46616","name":"South Bend","pending_pct":0.5926,"pending":16,"active":11,"total":27,"new":16,"median_price":199900,"ppsf":108,"dom":33,"pop":5979,"lat":41.69693,"lng":-86.26671},{"zip":"46149","name":"Lizton","pending_pct":0.0,"pending":0,"active":3,"total":3,"new":0,"median_price":295000,"ppsf":229,"dom":74,"pop":1952,"lat":39.88545,"lng":-86.55758},{"zip":"46237","name":"Indianapolis","pending_pct":0.3706,"pending":73,"active":124,"total":197,"new":88,"median_price":294000,"ppsf":154,"dom":36,"pop":43473,"lat":39.67247,"lng":-86.0759},{"zip":"46795","name":"Wolcottville","pending_pct":0.2069,"pending":6,"active":24,"total":29,"new":16,"median_price":389900,"ppsf":256,"dom":32,"pop":6866,"lat":41.55116,"lng":-85.33941},{"zip":"46163","name":"New Palestine","pending_pct":0.4821,"pending":27,"active":29,"total":56,"new":32,"median_price":402500,"ppsf":158,"dom":29,"pop":14498,"lat":39.7287,"lng":-85.90435},{"zip":"46962","name":"North Manchester","pending_pct":0.4375,"pending":14,"active":17,"total":32,"new":12,"median_price":259900,"ppsf":142,"dom":47,"pop":8785,"lat":40.98774,"lng":-85.76675},{"zip":"46186","name":"Wilkinson","pending_pct":0.3333,"pending":2,"active":4,"total":6,"new":0,"median_price":269950,"ppsf":120,"dom":32,"pop":1816,"lat":39.89126,"lng":-85.64264},{"zip":"46553","name":"New Paris","pending_pct":0.25,"pending":2,"active":7,"total":8,"new":4,"median_price":329900,"ppsf":214,"dom":79,"pop":3828,"lat":41.48004,"lng":-85.85095},{"zip":"47126","name":"Henryville","pending_pct":0.2889,"pending":13,"active":31,"total":45,"new":16,"median_price":439950,"ppsf":194,"dom":40,"pop":4372,"lat":38.54979,"lng":-85.77844},{"zip":"46040","name":"Fortville","pending_pct":0.575,"pending":69,"active":55,"total":120,"new":48,"median_price":520000,"ppsf":177,"dom":35,"pop":15943,"lat":39.92773,"lng":-85.83424},{"zip":"46747","name":"Hudson","pending_pct":0.2727,"pending":3,"active":8,"total":11,"new":0,"median_price":399950,"ppsf":256,"dom":35,"pop":2388,"lat":41.56042,"lng":-85.15349},