{"202606":[{"zip":"46001","name":"Alexandria","pending_pct":0.375,"pending":15,"active":26,"total":40,"new":16,"median_price":184975,"ppsf":110,"dom":47,"pop":10375,"lat":40.25141,"lng":-85.65838},{"zip":"46011","name":"Anderson","pending_pct":0.4754,"pending":29,"active":31,"total":61,"new":22,"median_price":244175,"ppsf":146,"dom":37,"pop":16534,"lat":40.12759,"lng":-85.76178},{"zip":"46012","name":"Anderson","pending_pct":0.3925,"pending":42,"active":64,"total":107,"new":32,"median_price":189900,"ppsf":132,"dom":46,"pop":20855,"lat":40.1492,"lng":-85.62552},{"zip":"46013","name":"Anderson","pending_pct":0.4474,"pending":34,"active":42,"total":76,"new":26,"median_price":157400,"ppsf":129,"dom":45,"pop":19073,"lat":40.05021,"lng":-85.67829},{"zip":"46016","name":"Anderson","pending_pct":0.2294,"pending":25,"active":85,"total":109,"new":32,"median_price":101225,"ppsf":82,"dom":56,"pop":17834,"lat":40.09781,"lng":-85.68152},{"zip":"46017","name":"Anderson","pending_pct":0.4118,"pending":7,"active":10,"total":17,"new":8,"median_price":222425,"ppsf":162,"dom":30,"pop":5181,"lat":40.07358,"lng":-85.60687},{"zip":"46030","name":"Arcadia","pending_pct":0.3,"pending":3,"active":7,"total":10,"new":4,"median_price":590000,"ppsf":308,"dom":56,"pop":3035,"lat":40.17031,"lng":-86.02118},{"zip":"46031","name":"Atlanta","pending_pct":0.7143,"pending":5,"active":3,"total":7,"new":2,"median_price":444450,"ppsf":188,"dom":28,"pop":2456,"lat":40.20935,"lng":-86.01018},{"zip":"46032","name":"Carmel","pending_pct":0.4692,"pending":99,"active":113,"total":211,"new":80,"median_price":649975,"ppsf":254,"dom":49,"pop":51515,"lat":39.96535,"lng":-86.17104},{"zip":"46033","name":"Carmel","pending_pct":0.5639,"pending":75,"active":58,"total":133,"new":80,"median_price":597500,"ppsf":197,"dom":27,"pop":40881,"lat":39.97975,"lng":-86.08595},{"zip":"46034","name":"Cicero","pending_pct":0.4043,"pending":19,"active":28,"total":47,"new":24,"median_price":724900,"ppsf":282,"dom":36,"pop":7531,"lat":40.13291,"lng":-86.04128},{"zip":"46035","name":"Colfax","pending_pct":0.5,"pending":2,"active":3,"total":4,"new":2,"median_price":205550,"ppsf":143,"dom":20,"pop":1348,"lat":40.18925,"lng":-86.67902},{"zip":"46036","name":"Elwood","pending_pct":0.371,"pending":23,"active":41,"total":62,"new":20,"median_price":174825,"ppsf":132,"dom":29,"pop":11683,"lat":40.29689,"lng":-85.83289},{"zip":"46037","name":"Fishers","pending_pct":0.4372,"pending":80,"active":102,"total":183,"new":92,"median_price":449750,"ppsf":168,"dom":42,"pop":48713,"lat":39.96077,"lng":-85.94446},{"zip":"46038","name":"Fishers","pending_pct":0.4577,"pending":65,"active":79,"total":142,"new":76,"median_price":374500,"ppsf":183,"dom":31,"pop":43754,"lat":39.96722,"lng":-86.01712},{"zip":"46040","name":"Fortville","pending_pct":0.4634,"pending":57,"active":67,"total":123,"new":56,"median_price":509000,"ppsf":172,"dom":35,"pop":15943,"lat":39.92773,"lng":-85.83424},{"zip":"46041","name":"Frankfort","pending_pct":0.4875,"pending":39,"active":42,"total":80,"new":30,"median_price":241250,"ppsf":153,"dom":46,"pop":23134,"lat":40.29695,"lng":-86.49216},{"zip":"46044","name":"Frankton","pending_pct":0.25,"pending":2,"active":7,"total":8,"new":0,"median_price":270900,"ppsf":142,"dom":51,"pop":2628,"lat":40.2085,"lng":-85.79026},{"zip":"46048","name":"Ingalls","pending_pct":0.5714,"pending":4,"active":3,"total":7,"new":0,"median_price":357475,"ppsf":151,"dom":50,"pop":2025,"lat":39.9543,"lng":-85.80755},{"zip":"46049","name":"Kempton","pending_pct":0.5,"pending":1,"active":1,"total":2,"new":0,"median_price":200000,"ppsf":123,"dom":70,"pop":763,"lat":40.29757,"lng":-86.22165},{"zip":"46050","name":"Kirklin","pending_pct":0.5,"pending":2,"active":2,"total":4,"new":4,"median_price":315000,"ppsf":216,"dom":45,"pop":1808,"lat":40.20515,"lng":-86.34629},{"zip":"46051","name":"Lapel","pending_pct":0.3529,"pending":6,"active":10,"total":17,"new":6,"median_price":262200,"ppsf":167,"dom":44,"pop":2919,"lat":40.05855,"lng":-85.83794},{"zip":"46052","name":"Lebanon","pending_pct":0.4545,"pending":40,"active":48,"total":88,"new":38,"median_price":371900,"ppsf":195,"dom":43,"pop":23553,"lat":40.04448,"lng":-86.46086},{"zip":"46055","name":"Mccordsville","pending_pct":0.481,"pending":76,"active":84,"total":158,"new":60,"median_price":415722,"ppsf":172,"dom":41,"pop":16010,"lat":39.88627,"lng":-85.90404},{"zip":"46056","name":"Markleville","pending_pct":0.125,"pending":1,"active":7,"total":8,"new":4,"median_price":389900,"ppsf":228,"dom":38,"pop":2076,"lat":39.97351,"lng":-85.6105},{"zip":"46057","name":"Michigantown","pending_pct":0.5,"pending":3,"active":3,"total":6,"new":2,"median_price":269900,"ppsf":127,"dom":77,"pop":1270,"lat":40.33796,"lng":-86.37801},{"zip":"46058","name":"Mulberry","pending_pct":0.5455,"pending":6,"active":5,"total":11,"new":4,"median_price":397500,"ppsf":140,"dom":18,"pop":2093,"lat":40.35981,"lng":-86.64777},{"zip":"46060","name":"Noblesville","pending_pct":0.5465,"pending":94,"active":81,"total":172,"new":82,"median_price":410250,"ppsf":186,"dom":42,"pop":47610,"lat":40.06616,"lng":-85.93137},{"zip":"46062","name":"Noblesville","pending_pct":0.4865,"pending":90,"active":96,"total":185,"new":72,"median_price":449925,"ppsf":186,"dom":44,"pop":41060,"lat":40.06146,"lng":-86.05523},{"zip":"46063","name":"","pending_pct":1.0,"pending":1,"active":0,"total":1,"new":0,"median_price":159900,"ppsf":148,"dom":49,"pop":229,"lat":40.27184,"lng":-85.72389},{"zip":"46064","name":"Pendleton","pending_pct":0.3725,"pending":38,"active":62,"total":102,"new":32,"median_price":359950,"ppsf":161,"dom":42,"pop":18499,"lat":39.98473,"lng":-85.74701},{"zip":"46065","name":"Rossville","pending_pct":0.4167,"pending":5,"active":7,"total":12,"new":6,"median_price":377625,"ppsf":144,"dom":28,"pop":3644,"lat":40.42318,"lng":-86.60992},{"zip":"46068","name":"Sharpsville","pending_pct":0.6667,"pending":4,"active":2,"total":6,"new":0,"median_price":293075,"ppsf":167,"dom":173,"pop":2538,"lat":40.37511,"lng":-86.1112},{"zip":"46069","name":"Sheridan","pending_pct":0.5,"pending":19,"active":19,"total":38,"new":16,"median_price":320950,"ppsf":185,"dom":41,"pop":7504,"lat":40.13829,"lng":-86.23144},{"zip":"46070","name":"Summitville","pending_pct":0.6667,"pending":4,"active":3,"total":6,"new":0,"median_price":155000,"ppsf":69,"dom":77,"pop":2100,"lat":40.34315,"lng":-85.65928},{"zip":"46071","name":"Thorntown","pending_pct":0.5833,"pending":7,"active":5,"total":12,"new":8,"median_price":377499,"ppsf":163,"dom":23,"pop":3072,"lat":40.11941,"lng":-86.60549},{"zip":"46072","name":"Tipton","pending_pct":0.5,"pending":17,"active":17,"total":34,"new":4,"median_price":257450,"ppsf":147,"dom":37,"pop":9049,"lat":40.28526,"lng":-86.06891},{"zip":"46074","name":"Westfield","pending_pct":0.5179,"pending":188,"active":179,"total":363,"new":142,"median_price":552450,"ppsf":218,"dom":40,"pop":48901,"lat":40.03651,"lng":-86.17289},{"zip":"46075","name":"Whitestown","pending_pct":0.5526,"pending":63,"active":52,"total":114,"new":50,"median_price":394973,"ppsf":173,"dom":33,"pop":9509,"lat":40.02637,"lng":-86.3346},{"zip":"46076","name":"Windfall","pending_pct":0.2857,"pending":2,"active":5,"total":7,"new":4,"median_price":184925,"ppsf":121,"dom":16,"pop":1630,"lat":40.36318,"lng":-85.9374},{"zip":"46077","name":"Zionsville","pending_pct":0.4931,"pending":71,"active":70,"total":144,"new":70,"median_price":882475,"ppsf":230,"dom":39,"pop":36760,"lat":39.98281,"lng":-86.28346},{"zip":"46102","name":"Advance","pending_pct":0.5,"pending":1,"active":1,"total":2,"new":0,"median_price":259900,"ppsf":120,"dom":122,"pop":390,"lat":39.99556,"lng":-86.61993},{"zip":"46104","name":"Arlington","pending_pct":0.25,"pending":1,"active":2,"total":4,"new":0,"median_price":139000,"ppsf":127,"dom":102,"pop":1121,"lat":39.66041,"lng":-85.59545},{"zip":"46105","name":"Bainbridge","pending_pct":0.5,"pending":3,"active":3,"total":6,"new":2,"median_price":425000,"ppsf":144,"dom":16,"pop":1731,"lat":39.76388,"lng":-86.81487},{"zip":"46106","name":"Bargersville","pending_pct":0.3288,"pending":24,"active":46,"total":73,"new":22,"median_price":516988,"ppsf":184,"dom":47,"pop":10159,"lat":39.51555,"lng":-86.20524},{"zip":"46107","name":"Beech Grove","pending_pct":0.4884,"pending":21,"active":22,"total":43,"new":18,"median_price":210000,"ppsf":153,"dom":50,"pop":13020,"lat":39.71661,"lng":-86.09161},{"zip":"46111","name":"Brooklyn","pending_pct":null,"pending":null,"active":2,"total":2,"new":0,"median_price":224868,"ppsf":158,"dom":171,"pop":448,"lat":39.5417,"lng":-86.36863},{"zip":"46112","name":"Brownsburg","pending_pct":0.4733,"pending":71,"active":78,"total":150,"new":56,"median_price":380945,"ppsf":169,"dom":39,"pop":44220,"lat":39.86561,"lng":-86.38215},{"zip":"46113","name":"Camby","pending_pct":0.4516,"pending":42,"active":52,"total":93,"new":34,"median_price":296225,"ppsf":152,"dom":37,"pop":17192,"lat":39.635,"lng":-86.30548},{"zip":"46115","name":"Carthage","pending_pct":0.2857,"pending":2,"active":5,"total":7,"new":4,"median_price":168475,"ppsf":94,"dom":79,"pop":1588,"lat":39.7375,"lng":-85.56623},{"zip":"46117","name":"Charlottesville","pending_pct":null,"pending":null,"active":2,"total":2,"new":0,"median_price":390000,"ppsf":228,"dom":156,"pop":527,"lat":39.81507,"lng":-85.61763},{"zip":"46118","name":"Clayton","pending_pct":0.5263,"pending":10,"active":8,"total":19,"new":10,"median_price":407450,"ppsf":180,"dom":27,"pop":4709,"lat":39.65317,"lng":-86.52394},{"zip":"46120","name":"Cloverdale","pending_pct":0.3913,"pending":9,"active":16,"total":23,"new":4,"median_price":297400,"ppsf":159,"dom":84,"pop":5947,"lat":39.51252,"lng":-86.78711},{"zip":"46121","name":"Coatesville","pending_pct":0.3043,"pending":14,"active":33,"total":46,"new":12,"median_price":363675,"ppsf":202,"dom":41,"pop":5271,"lat":39.67776,"lng":-86.67345},{"zip":"46122","name":"Danville","pending_pct":0.494,"pending":41,"active":43,"total":83,"new":40,"median_price":382093,"ppsf":162,"dom":42,"pop":16974,"lat":39.76822,"lng":-86.5475},{"zip":"46123","name":"Avon","pending_pct":0.4802,"pending":97,"active":106,"total":202,"new":84,"median_price":372450,"ppsf":167,"dom":47,"pop":43353,"lat":39.76502,"lng":-86.40015},{"zip":"46124","name":"Edinburgh","pending_pct":0.5625,"pending":9,"active":8,"total":16,"new":4,"median_price":211425,"ppsf":181,"dom":50,"pop":7304,"lat":39.36914,"lng":-85.94551},{"zip":"46126","name":"Fairland","pending_pct":0.3333,"pending":6,"active":13,"total":18,"new":4,"median_price":315000,"ppsf":160,"dom":42,"pop":3902,"lat":39.62053,"lng":-85.88694},{"zip":"46128","name":"Fillmore","pending_pct":0.625,"pending":5,"active":4,"total":8,"new":2,"median_price":441175,"ppsf":231,"dom":25,"pop":2490,"lat":39.65634,"lng":-86.74312},{"zip":"46130","name":"Fountaintown","pending_pct":0.3333,"pending":2,"active":4,"total":6,"new":2,"median_price":445000,"ppsf":176,"dom":146,"pop":2455,"lat":39.67464,"lng":-85.83571},{"zip":"46131","name":"Franklin","pending_pct":0.4297,"pending":55,"active":76,"total":128,"new":58,"median_price":335950,"ppsf":174,"dom":40,"pop":34647,"lat":39.47196,"lng":-86.04233},{"zip":"46133","name":"Glenwood","pending_pct":null,"pending":null,"active":1,"total":1,"new":0,"median_price":69900,"ppsf":36,"dom":75,"pop":960,"lat":39.58945,"lng":-85.30044},{"zip":"46135","name":"Greencastle","pending_pct":0.3962,"pending":21,"active":33,"total":53,"new":22,"median_price":257200,"ppsf":159,"dom":37,"pop":19632,"lat":39.65909,"lng":-86.89107},{"zip":"46140","name":"Greenfield","pending_pct":0.335,"pending":68,"active":134,"total":203,"new":76,"median_price":322500,"ppsf":163,"dom":39,"pop":43511,"lat":39.80358,"lng":-85.77049},{"zip":"46142","name":"Greenwood","pending_pct":0.4144,"pending":46,"active":64,"total":111,"new":46,"median_price":338700,"ppsf":170,"dom":41,"pop":34348,"lat":39.62029,"lng":-86.1764},{"zip":"46143","name":"Greenwood","pending_pct":0.3768,"pending":130,"active":215,"total":345,"new":100,"median_price":382948,"ppsf":163,"dom":44,"pop":61803,"lat":39.59484,"lng":-86.11323},{"zip":"46146","name":"Homer","pending_pct":1.0,"pending":1,"active":1,"total":1,"new":0,"median_price":87400,"ppsf":71,"dom":51,"pop":143,"lat":39.57968,"lng":-85.56972},{"zip":"46147","name":"Jamestown","pending_pct":0.2727,"pending":3,"active":8,"total":11,"new":0,"median_price":344950,"ppsf":170,"dom":61,"pop":2518,"lat":39.96988,"lng":-86.62693},{"zip":"46148","name":"Knightstown","pending_pct":0.3,"pending":6,"active":14,"total":20,"new":4,"median_price":314925,"ppsf":156,"dom":49,"pop":4935,"lat":39.80906,"lng":-85.51296},{"zip":"46149","name":"Lizton","pending_pct":0.3333,"pending":1,"active":2,"total":3,"new":0,"median_price":305000,"ppsf":239,"dom":58,"pop":1952,"lat":39.88545,"lng":-86.55758},{"zip":"46150","name":"Manilla","pending_pct":null,"pending":null,"active":1,"total":1,"new":4,"median_price":199900,"ppsf":152,"dom":5,"pop":854,"lat":39.54695,"lng":-85.60232},{"zip":"46151","name":"Martinsville","pending_pct":0.3824,"pending":52,"active":88,"total":136,"new":56,"median_price":340200,"ppsf":182,"dom":54,"pop":32446,"lat":39.44783,"lng":-86.4275},{"zip":"46154","name":"Maxwell","pending_pct":0.5,"pending":1,"active":2,"total":2,"new":0,"median_price":127425,"ppsf":90,"dom":7,"pop":189,"lat":39.85639,"lng":-85.77038},{"zip":"46155","name":"Mays","pending_pct":null,"pending":null,"active":3,"total":3,"new":0,"median_price":129900,"ppsf":66,"dom":146,"pop":46,"lat":39.74355,"lng":-85.42966},{"zip":"46156","name":"Milroy","pending_pct":0.75,"pending":3,"active":2,"total":4,"new":0,"median_price":407750,"ppsf":109,"dom":32,"pop":952,"lat":39.48451,"lng":-85.4806},{"zip":"46157","name":"Monrovia","pending_pct":0.64,"pending":16,"active":9,"total":25,"new":6,"median_price":310000,"ppsf":171,"dom":51,"pop":4558,"lat":39.55623,"lng":-86.52741},{"zip":"46158","name":"Mooresville","pending_pct":0.4247,"pending":31,"active":42,"total":73,"new":32,"median_price":348225,"ppsf":191,"dom":40,"pop":24878,"lat":39.58275,"lng":-86.37405},{"zip":"46160","name":"Morgantown","pending_pct":0.2647,"pending":9,"active":26,"total":34,"new":6,"median_price":480500,"ppsf":251,"dom":50,"pop":6514,"lat":39.35429,"lng":-86.26753},{"zip":"46161","name":"Morristown","pending_pct":0.6667,"pending":2,"active":3,"total":3,"new":0,"median_price":445900,"ppsf":170,"dom":69,"pop":2347,"lat":39.66959,"lng":-85.69395},{"zip":"46162","name":"Needham","pending_pct":1.0,"pending":2,"active":1,"total":2,"new":0,"median_price":524900,"ppsf":229,"dom":75,"pop":227,"lat":39.55021,"lng":-85.95242},{"zip":"46163","name":"New Palestine","pending_pct":0.3833,"pending":23,"active":36,"total":60,"new":24,"median_price":399900,"ppsf":166,"dom":43,"pop":14498,"lat":39.7287,"lng":-85.90435},{"zip":"46164","name":"Nineveh","pending_pct":0.2391,"pending":11,"active":36,"total":46,"new":18,"median_price":369675,"ppsf":255,"dom":77,"pop":3840,"lat":39.3036,"lng":-86.12301},{"zip":"46165","name":"North Salem","pending_pct":0.3333,"pending":2,"active":4,"total":6,"new":4,"median_price":456225,"ppsf":231,"dom":38,"pop":1992,"lat":39.84522,"lng":-86.64716},{"zip":"46166","name":"Paragon","pending_pct":0.6,"pending":3,"active":2,"total":5,"new":0,"median_price":1071250,"ppsf":356,"dom":30,"pop":2813,"lat":39.42686,"lng":-86.58755},{"zip":"46167","name":"Pittsboro","pending_pct":0.6296,"pending":17,"active":10,"total":27,"new":10,"median_price":362450,"ppsf":176,"dom":37,"pop":6944,"lat":39.87675,"lng":-86.46981},{"zip":"46168","name":"Plainfield","pending_pct":0.4697,"pending":62,"active":71,"total":132,"new":58,"median_price":379950,"ppsf":173,"dom":36,"pop":38826,"lat":39.68985,"lng":-86.39262},{"zip":"46171","name":"Reelsville","pending_pct":0.4286,"pending":3,"active":4,"total":7,"new":2,"median_price":387400,"ppsf":184,"dom":41,"pop":2018,"lat":39.53527,"lng":-86.96815},{"zip":"46172","name":"Roachdale","pending_pct":0.4444,"pending":4,"active":5,"total":9,"new":0,"median_price":415000,"ppsf":193,"dom":66,"pop":2427,"lat":39.82725,"lng":-86.8144},{"zip":"46173","name":"Rushville","pending_pct":0.32,"pending":16,"active":34,"total":50,"new":8,"median_price":255625,"ppsf":142,"dom":68,"pop":10440,"lat":39.60294,"lng":-85.42677},{"zip":"46175","name":"Russellville","pending_pct":1.0,"pending":1,"active":1,"total":1,"new":0,"median_price":360000,"ppsf":167,"dom":89,"pop":489,"lat":39.82199,"lng":-86.97292},{"zip":"46176","name":"Shelbyville","pending_pct":0.3947,"pending":45,"active":69,"total":114,"new":40,"median_price":260000,"ppsf":150,"dom":46,"pop":28782,"lat":39.52684,"lng":-85.77297},{"zip":"46180","name":"Stilesville","pending_pct":1.0,"pending":1,"active":1,"total":1,"new":0,"median_price":225000,"ppsf":189,"dom":3,"pop":1085,"lat":39.59652,"lng":-86.61801},{"zip":"46181","name":"Trafalgar","pending_pct":0.375,"pending":9,"active":14,"total":24,"new":10,"median_price":441200,"ppsf":194,"dom":35,"pop":4964,"lat":39.38044,"lng":-86.16119},{"zip":"46182","name":"Waldron","pending_pct":0.5,"pending":2,"active":4,"total":4,"new":2,"median_price":244925,"ppsf":126,"dom":41,"pop":1803,"lat":39.46157,"lng":-85.67005},{"zip":"46183","name":"West Newton","pending_pct":null,"pending":null,"active":1,"total":1,"new":0,"median_price":255000,"ppsf":120,"dom":22,"pop":34,"lat":39.65397,"lng":-86.28121},{"zip":"46184","name":"Whiteland","pending_pct":0.4058,"pending":28,"active":41,"total":69,"new":22,"median_price":349675,"ppsf":169,"dom":45,"pop":13304,"lat":39.55967,"lng":-86.07361},{"zip":"46186","name":"Wilkinson","pending_pct":0.2222,"pending":2,"active":7,"total":9,"new":6,"median_price":268750,"ppsf":129,"dom":33,"pop":1816,"lat":39.89126,"lng":-85.64264},{"zip":"46201","name":"Indianapolis","pending_pct":0.2042,"pending":49,"active":192,"total":240,"new":72,"median_price":215000,"ppsf":146,"dom":58,"pop":30335,"lat":39.77369,"lng":-86.10949},{"zip":"46202","name":"Indianapolis","pending_pct":0.2047,"pending":35,"active":136,"total":171,"new":34,"median_price":474200,"ppsf":232,"dom":80,"pop":20180,"lat":39.78363,"lng":-86.16187},{"zip":"46203","name":"Indianapolis","pending_pct":0.25,"pending":80,"active":242,"total":320,"new":78,"median_price":235250,"ppsf":176,"dom":51,"pop":37758,"lat":39.7368,"lng":-86.09586},{"zip":"46204","name":"Indianapolis","pending_pct":0.1167,"pending":7,"active":53,"total":60,"new":10,"median_price":373700,"ppsf":280,"dom":75,"pop":11400,"lat":39.77134,"lng":-86.15703},{"zip":"46205","name":"Indianapolis","pending_pct":0.3168,"pending":64,"active":137,"total":202,"new":80,"median_price":309925,"ppsf":178,"dom":45,"pop":28259,"lat":39.82813,"lng":-86.13499},{"zip":"46208","name":"Indianapolis","pending_pct":0.2885,"pending":45,"active":113,"total":156,"new":48,"median_price":222700,"ppsf":147,"dom":59,"pop":22379,"lat":39.82307,"lng":-86.17307},{"zip":"46214","name":"Indianapolis","pending_pct":0.3548,"pending":22,"active":40,"total":62,"new":26,"median_price":234925,"ppsf":152,"dom":36,"pop":24472,"lat":39.7917,"lng":-86.29009},{"zip":"46216","name":"Indianapolis","pending_pct":0.3333,"pending":4,"active":8,"total":12,"new":2,"median_price":372500,"ppsf":181,"dom":58,"pop":2767,"lat":39.86593,"lng":-86.00929},{"zip":"46217","name":"Indianapolis","pending_pct":0.383,"pending":54,"active":87,"total":141,"new":64,"median_price":271225,"ppsf":162,"dom":42,"pop":36917,"lat":39.67254,"lng":-86.19338},{"zip":"46218","name":"Indianapolis","pending_pct":0.2217,"pending":45,"active":159,"total":203,"new":64,"median_price":149900,"ppsf":134,"dom":57,"pop":29360,"lat":39.80713,"lng":-86.09958},{"zip":"46219","name":"Indianapolis","pending_pct":0.3716,"pending":55,"active":93,"total":148,"new":50,"median_price":185700,"ppsf":145,"dom":45,"pop":38855,"lat":39.78314,"lng":-86.04444},{"zip":"46220","name":"Indianapolis","pending_pct":0.4583,"pending":77,"active":90,"total":168,"new":86,"median_price":369925,"ppsf":213,"dom":36,"pop":36952,"lat":39.8676,"lng":-86.10818},{"zip":"46221","name":"Indianapolis","pending_pct":0.4554,"pending":51,"active":61,"total":112,"new":32,"median_price":220000,"ppsf":156,"dom":49,"pop":27027,"lat":39.69288,"lng":-86.23664},{"zip":"46222","name":"Indianapolis","pending_pct":0.2435,"pending":28,"active":87,"total":115,"new":40,"median_price":181125,"ppsf":155,"dom":48,"pop":38887,"lat":39.79088,"lng":-86.21477},{"zip":"46224","name":"Indianapolis","pending_pct":0.5098,"pending":26,"active":25,"total":51,"new":22,"median_price":229000,"ppsf":168,"dom":45,"pop":40228,"lat":39.79537,"lng":-86.25624},{"zip":"46225","name":"Indianapolis","pending_pct":0.1549,"pending":11,"active":60,"total":71,"new":14,"median_price":259175,"ppsf":167,"dom":63,"pop":6037,"lat":39.74062,"lng":-86.16294},{"zip":"46226","name":"Indianapolis","pending_pct":0.3804,"pending":70,"active":115,"total":184,"new":80,"median_price":173950,"ppsf":136,"dom":43,"pop":47099,"lat":39.83968,"lng":-86.05117},{"zip":"46227","name":"Indianapolis","pending_pct":0.3571,"pending":65,"active":117,"total":182,"new":64,"median_price":249950,"ppsf":153,"dom":47,"pop":57587,"lat":39.67607,"lng":-86.13145},{"zip":"46228","name":"Indianapolis","pending_pct":0.4194,"pending":26,"active":36,"total":62,"new":24,"median_price":291250,"ppsf":168,"dom":42,"pop":15724,"lat":39.8487,"lng":-86.20045},{"zip":"46229","name":"Indianapolis","pending_pct":0.4074,"pending":44,"active":66,"total":108,"new":36,"median_price":242900,"ppsf":133,"dom":42,"pop":28457,"lat":39.78852,"lng":-85.978},{"zip":"46231","name":"Indianapolis","pending_pct":0.4138,"pending":12,"active":17,"total":29,"new":10,"median_price":259000,"ppsf":147,"dom":42,"pop":10371,"lat":39.72086,"lng":-86.32712},{"zip":"46234","name":"Indianapolis","pending_pct":0.3933,"pending":35,"active":56,"total":89,"new":48,"median_price":317425,"ppsf":158,"dom":25,"pop":28300,"lat":39.81077,"lng":-86.32665},{"zip":"46235","name":"Indianapolis","pending_pct":0.3858,"pending":49,"active":79,"total":127,"new":44,"median_price":236100,"ppsf":131,"dom":42,"pop":36317,"lat":39.83784,"lng":-85.97651},{"zip":"46236","name":"Indianapolis","pending_pct":0.459,"pending":56,"active":66,"total":122,"new":52,"median_price":378450,"ppsf":165,"dom":41,"pop":26416,"lat":39.89132,"lng":-85.96766},{"zip":"46237","name":"Indianapolis","pending_pct":0.3368,"pending":65,"active":129,"total":193,"new":80,"median_price":289725,"ppsf":153,"dom":43,"pop":43473,"lat":39.67247,"lng":-86.0759},{"zip":"46239","name":"Indianapolis","pending_pct":0.4603,"pending":110,"active":131,"total":239,"new":78,"median_price":333750,"ppsf":151,"dom":48,"pop":33931,"lat":39.72311,"lng":-86.0004},{"zip":"46240","name":"Indianapolis","pending_pct":0.4521,"pending":33,"active":42,"total":73,"new":22,"median_price":360950,"ppsf":204,"dom":44,"pop":19595,"lat":39.90697,"lng":-86.12367},{"zip":"46241","name":"Indianapolis","pending_pct":0.5106,"pending":48,"active":46,"total":94,"new":26,"median_price":164975,"ppsf":164,"dom":49,"pop":32565,"lat":39.72389,"lng":-86.26842},{"zip":"46250","name":"Indianapolis","pending_pct":0.3559,"pending":21,"active":39,"total":59,"new":30,"median_price":344900,"ppsf":163,"dom":38,"pop":18147,"lat":39.90399,"lng":-86.06864},{"zip":"46254","name":"Indianapolis","pending_pct":0.5048,"pending":53,"active":53,"total":105,"new":48,"median_price":239450,"ppsf":159,"dom":37,"pop":40674,"lat":39.84796,"lng":-86.26936},{"zip":"46256","name":"Indianapolis","pending_pct":0.3936,"pending":37,"active":57,"total":94,"new":42,"median_price":339450,"ppsf":165,"dom":36,"pop":20990,"lat":39.90682,"lng":-86.01152},{"zip":"46259","name":"Indianapolis","pending_pct":0.3146,"pending":28,"active":61,"total":89,"new":16,"median_price":417000,"ppsf":163,"dom":49,"pop":15169,"lat":39.65078,"lng":-85.98692},{"zip":"46260","name":"Indianapolis","pending_pct":0.4526,"pending":43,"active":51,"total":95,"new":44,"median_price":300000,"ppsf":167,"dom":51,"pop":35707,"lat":39.89744,"lng":-86.17927},{"zip":"46268","name":"Indianapolis","pending_pct":0.48,"pending":36,"active":40,"total":75,"new":40,"median_price":262225,"ppsf":148,"dom":40,"pop":25913,"lat":39.89769,"lng":-86.23253},{"zip":"46278","name":"Indianapolis","pending_pct":0.6154,"pending":24,"active":15,"total":39,"new":16,"median_price":468750,"ppsf":170,"dom":44,"pop":8450,"lat":39.89389,"lng":-86.29606},{"zip":"46280","name":"Indianapolis","pending_pct":0.4242,"pending":14,"active":19,"total":33,"new":16,"median_price":392448,"ppsf":235,"dom":38,"pop":7514,"lat":39.93714,"lng":-86.11786},{"zip":"46290","name":"Indianapolis","pending_pct":0.1111,"pending":1,"active":9,"total":9,"new":0,"median_price":699900,"ppsf":235,"dom":66,"pop":81,"lat":39.93376,"lng":-86.16256},{"zip":"46301","name":"Beverly Shores","pending_pct":0.4,"pending":4,"active":6,"total":10,"new":0,"median_price":1400000,"ppsf":419,"dom":66,"pop":650,"lat":41.68687,"lng":-86.97438},{"zip":"46302","name":"Boone Grove","pending_pct":1.0,"pending":1,"active":1,"total":1,"new":0,"median_price":148000,"ppsf":118,"dom":300,"pop":29,"lat":41.3604,"lng":-87.12645},{"zip":"46303","name":"Cedar Lake","pending_pct":0.3261,"pending":45,"active":95,"total":138,"new":32,"median_price":409900,"ppsf":211,"dom":60,"pop":17680,"lat":41.37198,"lng":-87.4765},{"zip":"46304","name":"Chesterton","pending_pct":0.4083,"pending":49,"active":71,"total":120,"new":36,"median_price":434925,"ppsf":199,"dom":46,"pop":28307,"lat":41.61311,"lng":-87.04905},{"zip":"46307","name":"Crown Point","pending_pct":0.427,"pending":199,"active":269,"total":466,"new":136,"median_price":400825,"ppsf":188,"dom":37,"pop":71673,"lat":41.40215,"lng":-87.32693},{"zip":"46310","name":"Demotte","pending_pct":0.4615,"pending":24,"active":30,"total":52,"new":28,"median_price":366275,"ppsf":180,"dom":32,"pop":14077,"lat":41.18205,"lng":-87.23088},{"zip":"46311","name":"Dyer","pending_pct":0.4681,"pending":44,"active":51,"total":94,"new":36,"median_price":495000,"ppsf":198,"dom":35,"pop":23321,"lat":41.46846,"lng":-87.50918},{"zip":"46312","name":"East Chicago","pending_pct":0.5769,"pending":15,"active":12,"total":26,"new":8,"median_price":128650,"ppsf":91,"dom":75,"pop":26022,"lat":41.64705,"lng":-87.45446},{"zip":"46319","name":"Griffith","pending_pct":0.5778,"pending":26,"active":20,"total":45,"new":16,"median_price":268150,"ppsf":159,"dom":37,"pop":17847,"lat":41.52217,"lng":-87.42091},{"zip":"46320","name":"Hammond","pending_pct":0.4333,"pending":13,"active":17,"total":30,"new":4,"median_price":221825,"ppsf":157,"dom":68,"pop":14353,"lat":41.60893,"lng":-87.49754},{"zip":"46321","name":"Munster","pending_pct":0.3854,"pending":37,"active":59,"total":96,"new":34,"median_price":392275,"ppsf":170,"dom":45,"pop":23733,"lat":41.54704,"lng":-87.50402},{"zip":"46322","name":"Highland","pending_pct":0.4474,"pending":34,"active":41,"total":76,"new":34,"median_price":253725,"ppsf":163,"dom":40,"pop":23680,"lat":41.54818,"lng":-87.45884},{"zip":"46323","name":"Hammond","pending_pct":0.5263,"pending":20,"active":18,"total":38,"new":20,"median_price":197125,"ppsf":143,"dom":41,"pop":23047,"lat":41.58961,"lng":-87.45323},{"zip":"46324","name":"Hammond","pending_pct":0.5405,"pending":20,"active":17,"total":37,"new":16,"median_price":219900,"ppsf":169,"dom":36,"pop":21409,"lat":41.58324,"lng":-87.50155},{"zip":"46327","name":"Hammond","pending_pct":0.75,"pending":12,"active":4,"total":16,"new":4,"median_price":233700,"ppsf":128,"dom":75,"pop":10597,"lat":41.64048,"lng":-87.50677},{"zip":"46340","name":"Hanna","pending_pct":0.2,"pending":1,"active":4,"total":5,"new":2,"median_price":243725,"ppsf":211,"dom":26,"pop":1524,"lat":41.38339,"lng":-86.76846},{"zip":"46341","name":"Hebron","pending_pct":0.5312,"pending":17,"active":15,"total":32,"new":14,"median_price":382975,"ppsf":204,"dom":22,"pop":10048,"lat":41.30666,"lng":-87.21962},{"zip":"46342","name":"Hobart","pending_pct":0.4242,"pending":56,"active":78,"total":132,"new":50,"median_price":277225,"ppsf":176,"dom":43,"pop":32224,"lat":41.51761,"lng":-87.24468},{"zip":"46346","name":"Kingsford Heights","pending_pct":0.6364,"pending":14,"active":8,"total":22,"new":6,"median_price":271490,"ppsf":145,"dom":67,"pop":1358,"lat":41.47816,"lng":-86.69332},{"zip":"46347","name":"Kouts","pending_pct":0.5556,"pending":5,"active":3,"total":9,"new":0,"median_price":401225,"ppsf":208,"dom":54,"pop":4951,"lat":41.30502,"lng":-87.00859},{"zip":"46348","name":"La Crosse","pending_pct":null,"pending":null,"active":4,"total":4,"new":0,"median_price":232400,"ppsf":154,"dom":90,"pop":1217,"lat":41.30981,"lng":-86.86244},{"zip":"46349","name":"Lake Village","pending_pct":0.3125,"pending":5,"active":11,"total":16,"new":6,"median_price":426215,"ppsf":224,"dom":42,"pop":3416,"lat":41.10899,"lng":-87.42359},{"zip":"46350","name":"La Porte","pending_pct":0.382,"pending":68,"active":111,"total":178,"new":68,"median_price":366175,"ppsf":167,"dom":45,"pop":44763,"lat":41.60697,"lng":-86.72157},{"zip":"46356","name":"Lowell","pending_pct":0.4562,"pending":73,"active":86,"total":160,"new":36,"median_price":367176,"ppsf":192,"dom":44,"pop":19721,"lat":41.26117,"lng":-87.41863},{"zip":"46360","name":"Michigan City","pending_pct":0.4286,"pending":90,"active":122,"total":210,"new":70,"median_price":262500,"ppsf":157,"dom":43,"pop":43817,"lat":41.68739,"lng":-86.86464},{"zip":"46365","name":"Mill Creek","pending_pct":0.25,"pending":1,"active":3,"total":4,"new":0,"median_price":735000,"ppsf":221,"dom":188,"pop":992,"lat":41.60605,"lng":-86.54112},{"zip":"46366","name":"North Judson","pending_pct":0.3913,"pending":9,"active":14,"total":23,"new":4,"median_price":185175,"ppsf":110,"dom":69,"pop":5601,"lat":41.21443,"lng":-86.76922},{"zip":"46368","name":"Portage","pending_pct":0.5197,"pending":79,"active":76,"total":152,"new":52,"median_price":322000,"ppsf":174,"dom":39,"pop":40301,"lat":41.5848,"lng":-87.17937},{"zip":"46371","name":"Rolling Prairie","pending_pct":0.25,"pending":2,"active":6,"total":8,"new":2,"median_price":467225,"ppsf":171,"dom":96,"pop":3396,"lat":41.67683,"lng":-86.6005},{"zip":"46373","name":"Saint John","pending_pct":0.3693,"pending":65,"active":113,"total":176,"new":38,"median_price":649850,"ppsf":215,"dom":51,"pop":18843,"lat":41.44578,"lng":-87.46954},{"zip":"46374","name":"San Pierre","pending_pct":0.6667,"pending":2,"active":2,"total":3,"new":0,"median_price":283300,"ppsf":152,"dom":18,"pop":1290,"lat":41.20616,"lng":-86.895},{"zip":"46375","name":"Schererville","pending_pct":0.3879,"pending":45,"active":69,"total":116,"new":40,"median_price":331225,"ppsf":176,"dom":34,"pop":24188,"lat":41.49162,"lng":-87.45193},{"zip":"46379","name":"","pending_pct":1.0,"pending":1,"active":1,"total":1,"new":0,"median_price":165000,"ppsf":71,"dom":13,"pop":234,"lat":41.15682,"lng":-87.4302},{"zip":"46381","name":"Thayer","pending_pct":null,"pending":null,"active":1,"total":1,"new":4,"median_price":250000,"ppsf":144,"dom":1,"pop":212,"lat":41.17635,"lng":-87.33436},{"zip":"46382","name":"Union Mills","pending_pct":0.3333,"pending":2,"active":5,"total":6,"new":2,"median_price":307900,"ppsf":195,"dom":52,"pop":1835,"lat":41.46868,"lng":-86.76212},{"zip":"46383","name":"Valparaiso","pending_pct":0.443,"pending":70,"active":88,"total":158,"new":48,"median_price":398445,"ppsf":181,"dom":40,"pop":42183,"lat":41.45838,"lng":-87.00156},{"zip":"46385","name":"Valparaiso","pending_pct":0.332,"pending":80,"active":163,"total":241,"new":68,"median_price":522650,"ppsf":202,"dom":44,"pop":40856,"lat":41.46395,"lng":-87.12396},{"zip":"46390","name":"Wanatah","pending_pct":0.75,"pending":3,"active":1,"total":4,"new":2,"median_price":273749,"ppsf":185,"dom":15,"pop":2554,"lat":41.41677,"lng":-86.8742},{"zip":"46391","name":"Westville","pending_pct":0.3846,"pending":5,"active":8,"total":13,"new":4,"median_price":369900,"ppsf":174,"dom":35,"pop":8986,"lat":41.5455,"lng":-86.91446},{"zip":"46392","name":"Wheatfield","pending_pct":0.4762,"pending":10,"active":12,"total":21,"new":12,"median_price":406175,"ppsf":190,"dom":38,"pop":8302,"lat":41.18509,"lng":-87.04948},{"zip":"46393","name":"","pending_pct":0.5,"pending":2,"active":1,"total":4,"new":2,"median_price":143725,"ppsf":92,"dom":17,"pop":216,"lat":41.5139,"lng":-87.16801},{"zip":"46394","name":"Whiting","pending_pct":0.3158,"pending":6,"active":13,"total":19,"new":10,"median_price":244750,"ppsf":135,"dom":31,"pop":11894,"lat":41.67733,"lng":-87.50279},{"zip":"46402","name":"Gary","pending_pct":0.3214,"pending":9,"active":20,"total":28,"new":6,"median_price":86175,"ppsf":64,"dom":61,"pop":5836,"lat":41.61032,"lng":-87.33297},{"zip":"46403","name":"Gary","pending_pct":0.4043,"pending":19,"active":28,"total":47,"new":10,"median_price":213075,"ppsf":135,"dom":62,"pop":10929,"lat":41.60636,"lng":-87.25803},{"zip":"46404","name":"Gary","pending_pct":0.3333,"pending":14,"active":29,"total":42,"new":4,"median_price":138700,"ppsf":96,"dom":55,"pop":15428,"lat":41.58475,"lng":-87.37502},{"zip":"46405","name":"Lake Station","pending_pct":0.4286,"pending":15,"active":20,"total":35,"new":14,"median_price":220950,"ppsf":173,"dom":39,"pop":12184,"lat":41.57409,"lng":-87.26285},{"zip":"46406","name":"Gary","pending_pct":0.5526,"pending":21,"active":17,"total":38,"new":8,"median_price":127300,"ppsf":103,"dom":45,"pop":9001,"lat":41.6022,"lng":-87.40804},{"zip":"46407","name":"Gary","pending_pct":0.2048,"pending":17,"active":67,"total":83,"new":16,"median_price":57400,"ppsf":55,"dom":77,"pop":8577,"lat":41.57844,"lng":-87.33047},{"zip":"46408","name":"Gary","pending_pct":0.3099,"pending":22,"active":49,"total":71,"new":20,"median_price":127450,"ppsf":105,"dom":58,"pop":15747,"lat":41.54468,"lng":-87.36941},{"zip":"46409","name":"Gary","pending_pct":0.26,"pending":13,"active":37,"total":50,"new":14,"median_price":117375,"ppsf":84,"dom":45,"pop":7184,"lat":41.54828,"lng":-87.32422},{"zip":"46410","name":"Merrillville","pending_pct":0.413,"pending":57,"active":81,"total":138,"new":42,"median_price":274605,"ppsf":165,"dom":56,"pop":39243,"lat":41.48083,"lng":-87.33293},{"zip":"46501","name":"Argos","pending_pct":0.4706,"pending":8,"active":9,"total":17,"new":6,"median_price":273425,"ppsf":178,"dom":66,"pop":3780,"lat":41.22327,"lng":-86.24868},{"zip":"46504","name":"Bourbon","pending_pct":0.6667,"pending":4,"active":2,"total":6,"new":4,"median_price":343000,"ppsf":191,"dom":7,"pop":3500,"lat":41.30057,"lng":-86.11204},{"zip":"46506","name":"Bremen","pending_pct":0.4,"pending":6,"active":9,"total":15,"new":12,"median_price":315000,"ppsf":143,"dom":25,"pop":9994,"lat":41.46316,"lng":-86.16915},{"zip":"46507","name":"Bristol","pending_pct":0.4783,"pending":22,"active":24,"total":46,"new":16,"median_price":482475,"ppsf":190,"dom":36,"pop":9991,"lat":41.72138,"lng":-85.81571},{"zip":"46508","name":"Burket","pending_pct":null,"pending":null,"active":1,"total":1,"new":0,"median_price":125000,"ppsf":91,"dom":195,"pop":203,"lat":41.15499,"lng":-85.96904},{"zip":"46510","name":"Claypool","pending_pct":0.625,"pending":5,"active":3,"total":8,"new":4,"median_price":402400,"ppsf":183,"dom":64,"pop":2984,"lat":41.12068,"lng":-85.874},{"zip":"46511","name":"Culver","pending_pct":0.44,"pending":11,"active":14,"total":25,"new":4,"median_price":456950,"ppsf":223,"dom":55,"pop":3755,"lat":41.22182,"lng":-86.42889},{"zip":"46514","name":"Elkhart","pending_pct":0.5033,"pending":77,"active":77,"total":153,"new":60,"median_price":363475,"ppsf":162,"dom":40,"pop":42389,"lat":41.72328,"lng":-85.97547},{"zip":"46516","name":"Elkhart","pending_pct":0.4792,"pending":46,"active":52,"total":96,"new":32,"median_price":223250,"ppsf":145,"dom":39,"pop":31871,"lat":41.6756,"lng":-85.94584},{"zip":"46517","name":"Elkhart","pending_pct":0.449,"pending":22,"active":27,"total":49,"new":22,"median_price":316750,"ppsf":168,"dom":29,"pop":25433,"lat":41.62429,"lng":-85.99675},{"zip":"46524","name":"Etna Green","pending_pct":0.4,"pending":2,"active":3,"total":5,"new":2,"median_price":1486875,"ppsf":225,"dom":74,"pop":2023,"lat":41.2979,"lng":-86.02143},{"zip":"46526","name":"Goshen","pending_pct":0.4231,"pending":33,"active":44,"total":78,"new":28,"median_price":345000,"ppsf":182,"dom":47,"pop":33668,"lat":41.55307,"lng":-85.88448},{"zip":"46528","name":"Goshen","pending_pct":0.5227,"pending":23,"active":20,"total":44,"new":24,"median_price":347400,"ppsf":149,"dom":19,"pop":26248,"lat":41.60698,"lng":-85.786},{"zip":"46530","name":"Granger","pending_pct":0.4924,"pending":65,"active":67,"total":132,"new":58,"median_price":514500,"ppsf":160,"dom":32,"pop":31598,"lat":41.74031,"lng":-86.12749},{"zip":"46531","name":"Grovertown","pending_pct":0.3333,"pending":1,"active":2,"total":3,"new":0,"median_price":514925,"ppsf":187,"dom":47,"pop":1825,"lat":41.35686,"lng":-86.51558},{"zip":"46532","name":"Hamlet","pending_pct":0.4,"pending":4,"active":5,"total":10,"new":0,"median_price":199000,"ppsf":150,"dom":92,"pop":1921,"lat":41.41762,"lng":-86.62119},{"zip":"46534","name":"Knox","pending_pct":0.3134,"pending":21,"active":48,"total":67,"new":8,"median_price":299900,"ppsf":185,"dom":59,"pop":10811,"lat":41.28561,"lng":-86.61878},{"zip":"46536","name":"Lakeville","pending_pct":0.25,"pending":3,"active":9,"total":12,"new":2,"median_price":571950,"ppsf":191,"dom":47,"pop":2964,"lat":41.51913,"lng":-86.2867},{"zip":"46537","name":"","pending_pct":1.0,"pending":2,"active":0,"total":2,"new":0,"median_price":209850,"ppsf":106,"dom":48,"pop":475,"lat":41.45724,"lng":-86.30669},{"zip":"46538","name":"Leesburg","pending_pct":0.3415,"pending":14,"active":26,"total":41,"new":22,"median_price":418350,"ppsf":333,"dom":41,"pop":4291,"lat":41.32829,"lng":-85.82703},{"zip":"46539","name":"Mentone","pending_pct":0.5,"pending":3,"active":3,"total":6,"new":0,"median_price":470808,"ppsf":264,"dom":43,"pop":2659,"lat":41.16579,"lng":-86.02545},{"zip":"46540","name":"Middlebury","pending_pct":0.3871,"pending":12,"active":19,"total":31,"new":22,"median_price":477500,"ppsf":170,"dom":26,"pop":12993,"lat":41.67571,"lng":-85.69768},{"zip":"46542","name":"Milford","pending_pct":0.4,"pending":6,"active":9,"total":15,"new":4,"median_price":308200,"ppsf":180,"dom":41,"pop":5096,"lat":41.39303,"lng":-85.87448},{"zip":"46543","name":"Millersburg","pending_pct":0.3333,"pending":1,"active":2,"total":3,"new":2,"median_price":294450,"ppsf":175,"dom":13,"pop":4741,"lat":41.53341,"lng":-85.67119},{"zip":"46544","name":"Mishawaka","pending_pct":0.631,"pending":53,"active":32,"total":84,"new":38,"median_price":256950,"ppsf":153,"dom":40,"pop":31077,"lat":41.61778,"lng":-86.13715},{"zip":"46545","name":"Mishawaka","pending_pct":0.4364,"pending":24,"active":32,"total":55,"new":38,"median_price":303750,"ppsf":164,"dom":30,"pop":26606,"lat":41.69376,"lng":-86.14602},{"zip":"46550","name":"Nappanee","pending_pct":0.3462,"pending":9,"active":18,"total":26,"new":10,"median_price":296000,"ppsf":162,"dom":43,"pop":12843,"lat":41.44701,"lng":-86.00028},{"zip":"46552","name":"New Carlisle","pending_pct":0.1667,"pending":6,"active":31,"total":36,"new":14,"median_price":497900,"ppsf":220,"dom":31,"pop":7047,"lat":41.70731,"lng":-86.485},{"zip":"46553","name":"New Paris","pending_pct":0.25,"pending":3,"active":8,"total":12,"new":2,"median_price":334000,"ppsf":210,"dom":37,"pop":3828,"lat":41.48004,"lng":-85.85095},{"zip":"46554","name":"North Liberty","pending_pct":0.2222,"pending":2,"active":8,"total":9,"new":0,"median_price":380000,"ppsf":192,"dom":82,"pop":4405,"lat":41.56252,"lng":-86.41947},{"zip":"46555","name":"North Webster","pending_pct":0.3529,"pending":6,"active":12,"total":17,"new":8,"median_price":418200,"ppsf":232,"dom":34,"pop":2517,"lat":41.32858,"lng":-85.68833},{"zip":"46561","name":"Osceola","pending_pct":0.4677,"pending":29,"active":31,"total":62,"new":24,"median_price":523225,"ppsf":200,"dom":41,"pop":13996,"lat":41.66683,"lng":-86.07599},{"zip":"46562","name":"Pierceton","pending_pct":0.4,"pending":4,"active":7,"total":10,"new":4,"median_price":274900,"ppsf":169,"dom":29,"pop":5040,"lat":41.20947,"lng":-85.69757},{"zip":"46563","name":"Plymouth","pending_pct":0.3333,"pending":18,"active":37,"total":54,"new":30,"median_price":325000,"ppsf":162,"dom":43,"pop":23615,"lat":41.35541,"lng":-86.32612},{"zip":"46565","name":"Shipshewana","pending_pct":0.5833,"pending":7,"active":6,"total":12,"new":0,"median_price":399900,"ppsf":142,"dom":68,"pop":9014,"lat":41.69285,"lng":-85.5831},{"zip":"46567","name":"Syracuse","pending_pct":0.4407,"pending":26,"active":33,"total":59,"new":14,"median_price":560000,"ppsf":308,"dom":54,"pop":9292,"lat":41.41473,"lng":-85.73044},{"zip":"46570","name":"Tippecanoe","pending_pct":null,"pending":null,"active":2,"total":2,"new":0,"median_price":179250,"ppsf":97,"dom":34,"pop":1279,"lat":41.20766,"lng":-86.1207},{"zip":"46571","name":"Topeka","pending_pct":0.25,"pending":1,"active":3,"total":4,"new":0,"median_price":327999,"ppsf":202,"dom":64,"pop":6315,"lat":41.56795,"lng":-85.54667},{"zip":"46573","name":"Wakarusa","pending_pct":0.3333,"pending":1,"active":3,"total":3,"new":4,"median_price":254925,"ppsf":193,"dom":15,"pop":3936,"lat":41.53941,"lng":-86.06054},{"zip":"46574","name":"Walkerton","pending_pct":0.3095,"pending":13,"active":28,"total":42,"new":16,"median_price":274713,"ppsf":146,"dom":53,"pop":7426,"lat":41.47327,"lng":-86.48829},{"zip":"46580","name":"Warsaw","pending_pct":0.3333,"pending":21,"active":42,"total":63,"new":38,"median_price":368175,"ppsf":157,"dom":41,"pop":21794,"lat":41.20884,"lng":-85.87212},{"zip":"46582","name":"Warsaw","pending_pct":0.5435,"pending":25,"active":22,"total":46,"new":10,"median_price":377400,"ppsf":222,"dom":33,"pop":14604,"lat":41.28323,"lng":-85.85235},{"zip":"46590","name":"Winona Lake","pending_pct":0.2105,"pending":4,"active":16,"total":19,"new":6,"median_price":419908,"ppsf":214,"dom":51,"pop":5080,"lat":41.21612,"lng":-85.80862},{"zip":"46595","name":"","pending_pct":1.0,"pending":1,"active":1,"total":1,"new":0,"median_price":55000,"ppsf":22,"dom":41,"pop":0,"lat":41.52633,"lng":-86.16367},{"zip":"46601","name":"South Bend","pending_pct":0.4444,"pending":4,"active":5,"total":9,"new":4,"median_price":263500,"ppsf":111,"dom":32,"pop":4800,"lat":41.67065,"lng":-86.252},{"zip":"46613","name":"South Bend","pending_pct":0.4524,"pending":19,"active":24,"total":42,"new":16,"median_price":113500,"ppsf":100,"dom":57,"pop":12279,"lat":41.65389,"lng":-86.264},{"zip":"46614","name":"South Bend","pending_pct":0.4915,"pending":58,"active":61,"total":118,"new":56,"median_price":280000,"ppsf":156,"dom":37,"pop":29602,"lat":41.60359,"lng":-86.28064},{"zip":"46615","name":"South Bend","pending_pct":0.5116,"pending":22,"active":21,"total":43,"new":30,"median_price":201975,"ppsf":160,"dom":27,"pop":14190,"lat":41.67494,"lng":-86.21151},{"zip":"46616","name":"South Bend","pending_pct":0.5862,"pending":17,"active":12,"total":29,"new":8,"median_price":186950,"ppsf":134,"dom":36,"pop":5979,"lat":41.69693,"lng":-86.26671},{"zip":"46617","name":"South Bend","pending_pct":0.4643,"pending":39,"active":45,"total":84,"new":34,"median_price":496225,"ppsf":286,"dom":48,"pop":10032,"lat":41.68435,"lng":-86.23513},{"zip":"46619","name":"South Bend","pending_pct":0.5278,"pending":19,"active":17,"total":36,"new":16,"median_price":182450,"ppsf":136,"dom":34,"pop":21729,"lat":41.65997,"lng":-86.3532},{"zip":"46628","name":"South Bend","pending_pct":0.381,"pending":48,"active":80,"total":126,"new":54,"median_price":247400,"ppsf":136,"dom":47,"pop":27685,"lat":41.72103,"lng":-86.33465},{"zip":"46635","name":"South Bend","pending_pct":0.5455,"pending":12,"active":10,"total":22,"new":6,"median_price":291000,"ppsf":145,"dom":41,"pop":6410,"lat":41.71518,"lng":-86.20832},{"zip":"46637","name":"South Bend","pending_pct":0.5244,"pending":43,"active":39,"total":82,"new":28,"median_price":318725,"ppsf":190,"dom":39,"pop":16200,"lat":41.73358,"lng":-86.24299},{"zip":"46701","name":"Albion","pending_pct":0.5294,"pending":9,"active":8,"total":17,"new":4,"median_price":299900,"ppsf":167,"dom":63,"pop":7944,"lat":41.35846,"lng":-85.43034},{"zip":"46702","name":"Andrews","pending_pct":0.5,"pending":3,"active":4,"total":6,"new":0,"median_price":166175,"ppsf":92,"dom":146,"pop":1983,"lat":40.82681,"lng":-85.61732},{"zip":"46703","name":"Angola","pending_pct":0.3133,"pending":26,"active":57,"total":83,"new":34,"median_price":506150,"ppsf":229,"dom":56,"pop":18572,"lat":41.65305,"lng":-85.00976},{"zip":"46705","name":"Ashley","pending_pct":0.5,"pending":2,"active":2,"total":4,"new":2,"median_price":272300,"ppsf":174,"dom":44,"pop":1972,"lat":41.51816,"lng":-85.06029},{"zip":"46706","name":"Auburn","pending_pct":0.6292,"pending":56,"active":33,"total":89,"new":20,"median_price":369150,"ppsf":186,"dom":47,"pop":20403,"lat":41.34242,"lng":-85.03922},{"zip":"46710","name":"Avilla","pending_pct":0.7,"pending":7,"active":3,"total":10,"new":4,"median_price":331150,"ppsf":157,"dom":47,"pop":4506,"lat":41.35167,"lng":-85.25168},{"zip":"46711","name":"Berne","pending_pct":0.4615,"pending":6,"active":7,"total":13,"new":4,"median_price":252250,"ppsf":122,"dom":68,"pop":8353,"lat":40.6635,"lng":-84.92398},{"zip":"46714","name":"Bluffton","pending_pct":0.5789,"pending":22,"active":18,"total":38,"new":10,"median_price":287000,"ppsf":155,"dom":44,"pop":15734,"lat":40.71774,"lng":-85.17319},{"zip":"46721","name":"Butler","pending_pct":0.5714,"pending":4,"active":4,"total":7,"new":4,"median_price":292400,"ppsf":193,"dom":30,"pop":4739,"lat":41.4237,"lng":-84.87425},{"zip":"46723","name":"Churubusco","pending_pct":0.5909,"pending":13,"active":9,"total":22,"new":12,"median_price":397900,"ppsf":177,"dom":32,"pop":7617,"lat":41.23828,"lng":-85.32441},{"zip":"46725","name":"Columbia City","pending_pct":0.4697,"pending":31,"active":35,"total":66,"new":24,"median_price":349900,"ppsf":173,"dom":35,"pop":23297,"lat":41.1518,"lng":-85.47655},{"zip":"46730","name":"Corunna","pending_pct":null,"pending":null,"active":3,"total":3,"new":0,"median_price":111500,"ppsf":93,"dom":47,"pop":1299,"lat":41.454,"lng":-85.15504},{"zip":"46731","name":"Craigville","pending_pct":1.0,"pending":1,"active":1,"total":1,"new":0,"median_price":590000,"ppsf":160,"dom":30,"pop":657,"lat":40.79751,"lng":-85.10267},{"zip":"46732","name":"Cromwell","pending_pct":0.375,"pending":3,"active":5,"total":8,"new":6,"median_price":484450,"ppsf":282,"dom":65,"pop":2231,"lat":41.37697,"lng":-85.62169},{"zip":"46733","name":"Decatur","pending_pct":0.4359,"pending":17,"active":23,"total":39,"new":16,"median_price":336950,"ppsf":162,"dom":42,"pop":19318,"lat":40.83033,"lng":-84.94023},{"zip":"46737","name":"Fremont","pending_pct":0.2571,"pending":9,"active":25,"total":35,"new":12,"median_price":479900,"ppsf":236,"dom":47,"pop":7402,"lat":41.72209,"lng":-84.92233},{"zip":"46738","name":"Garrett","pending_pct":0.5556,"pending":10,"active":8,"total":18,"new":8,"median_price":317175,"ppsf":174,"dom":75,"pop":8533,"lat":41.32189,"lng":-85.13731},{"zip":"46740","name":"Geneva","pending_pct":0.3333,"pending":2,"active":4,"total":6,"new":0,"median_price":204950,"ppsf":132,"dom":25,"pop":4486,"lat":40.60298,"lng":-84.9638},{"zip":"46741","name":"Grabill","pending_pct":0.3,"pending":3,"active":7,"total":10,"new":0,"median_price":337400,"ppsf":196,"dom":48,"pop":4713,"lat":41.21161,"lng":-84.95176},{"zip":"46742","name":"Hamilton","pending_pct":0.08,"pending":2,"active":22,"total":25,"new":16,"median_price":519900,"ppsf":245,"dom":29,"pop":3292,"lat":41.54919,"lng":-84.87892},{"zip":"46743","name":"Harlan","pending_pct":0.8,"pending":4,"active":1,"total":5,"new":0,"median_price":299950,"ppsf":216,"dom":51,"pop":2347,"lat":41.21511,"lng":-84.85321},{"zip":"46745","name":"Hoagland","pending_pct":1.0,"pending":2,"active":1,"total":2,"new":0,"median_price":567450,"ppsf":162,"dom":205,"pop":1793,"lat":40.95194,"lng":-85.00887},{"zip":"46746","name":"Howe","pending_pct":0.1667,"pending":1,"active":5,"total":6,"new":0,"median_price":324450,"ppsf":197,"dom":44,"pop":4697,"lat":41.72257,"lng":-85.34914},{"zip":"46747","name":"Hudson","pending_pct":0.4545,"pending":5,"active":6,"total":11,"new":8,"median_price":427400,"ppsf":260,"dom":39,"pop":2388,"lat":41.56042,"lng":-85.15349},{"zip":"46748","name":"Huntertown","pending_pct":0.4714,"pending":33,"active":38,"total":70,"new":16,"median_price":464773,"ppsf":223,"dom":63,"pop":6902,"lat":41.24829,"lng":-85.16727},{"zip":"46750","name":"Huntington","pending_pct":0.5493,"pending":39,"active":30,"total":71,"new":36,"median_price":192100,"ppsf":132,"dom":36,"pop":27271,"lat":40.87677,"lng":-85.49674},{"zip":"46755","name":"Kendallville","pending_pct":0.4912,"pending":28,"active":29,"total":57,"new":20,"median_price":261250,"ppsf":156,"dom":49,"pop":15441,"lat":41.45119,"lng":-85.27209},{"zip":"46759","name":"Keystone","pending_pct":1.0,"pending":1,"active":1,"total":1,"new":2,"median_price":199995,"ppsf":94,"dom":4,"pop":271,"lat":40.59855,"lng":-85.18299},{"zip":"46760","name":"Kimmell","pending_pct":0.6667,"pending":2,"active":1,"total":3,"new":0,"median_price":737425,"ppsf":240,"dom":36,"pop":1179,"lat":41.34441,"lng":-85.55654},{"zip":"46761","name":"Lagrange","pending_pct":0.3667,"pending":11,"active":20,"total":30,"new":6,"median_price":320000,"ppsf":200,"dom":52,"pop":12032,"lat":41.63576,"lng":-85.37127},{"zip":"46763","name":"Laotto","pending_pct":0.5,"pending":1,"active":1,"total":2,"new":4,"median_price":386925,"ppsf":199,"dom":8,"pop":1444,"lat":41.29418,"lng":-85.2415},{"zip":"46764","name":"Larwill","pending_pct":1.0,"pending":1,"active":1,"total":1,"new":0,"median_price":69900,"ppsf":71,"dom":33,"pop":1554,"lat":41.2176,"lng":-85.62376},{"zip":"46765","name":"Leo","pending_pct":0.5455,"pending":18,"active":15,"total":33,"new":10,"median_price":577425,"ppsf":207,"dom":38,"pop":5786,"lat":41.23361,"lng":-85.04047},{"zip":"46767","name":"Ligonier","pending_pct":0.5385,"pending":7,"active":7,"total":13,"new":4,"median_price":314900,"ppsf":124,"dom":50,"pop":9418,"lat":41.46487,"lng":-85.5764},{"zip":"46770","name":"Markle","pending_pct":0.2727,"pending":3,"active":7,"total":11,"new":4,"median_price":359900,"ppsf":212,"dom":41,"pop":2530,"lat":40.8298,"lng":-85.31873},{"zip":"46772","name":"Monroe","pending_pct":0.8333,"pending":5,"active":1,"total":6,"new":0,"median_price":339900,"ppsf":114,"dom":268,"pop":3288,"lat":40.7221,"lng":-84.91153},{"zip":"46773","name":"Monroeville","pending_pct":0.8,"pending":4,"active":1,"total":5,"new":0,"median_price":158925,"ppsf":123,"dom":118,"pop":3474,"lat":40.98401,"lng":-84.8759},{"zip":"46774","name":"New Haven","pending_pct":0.5155,"pending":50,"active":47,"total":97,"new":42,"median_price":298125,"ppsf":161,"dom":35,"pop":17858,"lat":41.09103,"lng":-84.96955},{"zip":"46776","name":"Orland","pending_pct":0.5,"pending":4,"active":4,"total":8,"new":2,"median_price":234900,"ppsf":184,"dom":30,"pop":1547,"lat":41.72793,"lng":-85.16878},{"zip":"46777","name":"Ossian","pending_pct":0.5882,"pending":10,"active":7,"total":17,"new":8,"median_price":369950,"ppsf":172,"dom":36,"pop":6081,"lat":40.87248,"lng":-85.15236},{"zip":"46779","name":"Pleasant Lake","pending_pct":0.75,"pending":3,"active":1,"total":4,"new":2,"median_price":211900,"ppsf":285,"dom":75,"pop":2221,"lat":41.5725,"lng":-85.03094},{"zip":"46781","name":"Poneto","pending_pct":1.0,"pending":1,"active":1,"total":1,"new":0,"median_price":169000,"ppsf":87,"dom":21,"pop":1046,"lat":40.63659,"lng":-85.27339},{"zip":"46783","name":"Roanoke","pending_pct":0.4839,"pending":15,"active":17,"total":31,"new":16,"median_price":377800,"ppsf":195,"dom":44,"pop":7764,"lat":40.97399,"lng":-85.35578},{"zip":"46784","name":"Rome City","pending_pct":0.2857,"pending":6,"active":15,"total":21,"new":0,"median_price":653725,"ppsf":280,"dom":39,"pop":1966,"lat":41.49797,"lng":-85.38797},{"zip":"46785","name":"Saint Joe","pending_pct":0.1667,"pending":1,"active":5,"total":6,"new":4,"median_price":292500,"ppsf":144,"dom":15,"pop":1491,"lat":41.31974,"lng":-84.88506},{"zip":"46787","name":"South Whitley","pending_pct":0.3333,"pending":1,"active":3,"total":3,"new":0,"median_price":260000,"ppsf":100,"dom":136,"pop":4031,"lat":41.06598,"lng":-85.62085},{"zip":"46788","name":"Spencerville","pending_pct":0.1667,"pending":1,"active":5,"total":6,"new":2,"median_price":522425,"ppsf":199,"dom":28,"pop":4373,"lat":41.27005,"lng":-84.90876},{"zip":"46791","name":"Uniondale","pending_pct":0.8,"pending":4,"active":2,"total":5,"new":2,"median_price":926725,"ppsf":158,"dom":11,"pop":1210,"lat":40.83699,"lng":-85.24325},{"zip":"46792","name":"Warren","pending_pct":0.3,"pending":3,"active":8,"total":10,"new":2,"median_price":150000,"ppsf":87,"dom":46,"pop":3621,"lat":40.68472,"lng":-85.43798},{"zip":"46793","name":"Waterloo","pending_pct":0.5556,"pending":5,"active":4,"total":9,"new":6,"median_price":311200,"ppsf":161,"dom":58,"pop":4104,"lat":41.46106,"lng":-85.01928},{"zip":"46794","name":"Wawaka","pending_pct":0.4,"pending":2,"active":3,"total":5,"new":2,"median_price":395750,"ppsf":234,"dom":54,"pop":1066,"lat":41.46654,"lng":-85.45946},{"zip":"46795","name":"Wolcottville","pending_pct":0.2778,"pending":10,"active":26,"total":36,"new":8,"median_price":392838,"ppsf":260,"dom":37,"pop":6866,"lat":41.55116,"lng":-85.33941},{"zip":"46796","name":"","pending_pct":1.0,"pending":1,"active":0,"total":1,"new":0,"median_price":172000,"ppsf":147,"dom":39,"pop":204,"lat":41.3367,"lng":-85.49583},{"zip":"46797","name":"Woodburn","pending_pct":0.2941,"pending":5,"active":12,"total":17,"new":4,"median_price":332425,"ppsf":162,"dom":57,"pop":4097,"lat":41.12749,"lng":-84.86046},{"zip":"46798","name":"Yoder","pending_pct":0.5,"pending":1,"active":1,"total":2,"new":2,"median_price":549900,"ppsf":306,"dom":18,"pop":954,"lat":40.94256,"lng":-85.22113},{"zip":"46799","name":"Zanesville","pending_pct":0.5,"pending":1,"active":1,"total":2,"new":2,"median_price":140900,"ppsf":154,"dom":24,"pop":375,"lat":40.91592,"lng":-85.27923},{"zip":"46802","name":"Fort Wayne","pending_pct":0.2444,"pending":11,"active":34,"total":45,"new":12,"median_price":362400,"ppsf":184,"dom":55,"pop":11177,"lat":41.06787,"lng":-85.16299},{"zip":"46803","name":"Fort Wayne","pending_pct":0.3913,"pending":9,"active":14,"total":23,"new":10,"median_price":138725,"ppsf":98,"dom":36,"pop":10994,"lat":41.06972,"lng":-85.08532},{"zip":"46804","name":"Fort Wayne","pending_pct":0.5287,"pending":46,"active":40,"total":87,"new":48,"median_price":314900,"ppsf":152,"dom":33,"pop":29661,"lat":41.05421,"lng":-85.23913},{"zip":"46805","name":"Fort Wayne","pending_pct":0.5753,"pending":42,"active":31,"total":73,"new":30,"median_price":197200,"ppsf":140,"dom":41,"pop":21437,"lat":41.09918,"lng":-85.11762},{"zip":"46806","name":"Fort Wayne","pending_pct":0.3291,"pending":26,"active":55,"total":79,"new":30,"median_price":142350,"ppsf":121,"dom":53,"pop":26425,"lat":41.04649,"lng":-85.09224},{"zip":"46807","name":"Fort Wayne","pending_pct":0.4384,"pending":32,"active":38,"total":73,"new":42,"median_price":169600,"ppsf":115,"dom":37,"pop":16317,"lat":41.04489,"lng":-85.14763},{"zip":"46808","name":"Fort Wayne","pending_pct":0.5556,"pending":35,"active":29,"total":63,"new":36,"median_price":182400,"ppsf":133,"dom":36,"pop":19684,"lat":41.09887,"lng":-85.17619},{"zip":"46809","name":"Fort Wayne","pending_pct":0.625,"pending":15,"active":9,"total":24,"new":10,"median_price":233100,"ppsf":144,"dom":32,"pop":8589,"lat":41.00088,"lng":-85.2102},{"zip":"46814","name":"Fort Wayne","pending_pct":0.3956,"pending":36,"active":54,"total":91,"new":32,"median_price":598900,"ppsf":190,"dom":32,"pop":16778,"lat":41.04616,"lng":-85.30805},{"zip":"46815","name":"Fort Wayne","pending_pct":0.5692,"pending":37,"active":28,"total":65,"new":40,"median_price":262450,"ppsf":139,"dom":29,"pop":27238,"lat":41.1034,"lng":-85.05913},{"zip":"46816","name":"Fort Wayne","pending_pct":0.4375,"pending":14,"active":18,"total":32,"new":4,"median_price":362038,"ppsf":189,"dom":96,"pop":19514,"lat":41.00396,"lng":-85.04169},{"zip":"46818","name":"Fort Wayne","pending_pct":0.486,"pending":87,"active":93,"total":179,"new":52,"median_price":374924,"ppsf":202,"dom":67,"pop":21954,"lat":41.14698,"lng":-85.25111},{"zip":"46819","name":"Fort Wayne","pending_pct":0.6429,"pending":9,"active":4,"total":14,"new":10,"median_price":259450,"ppsf":163,"dom":10,"pop":9369,"lat":40.96409,"lng":-85.13256},{"zip":"46825","name":"Fort Wayne","pending_pct":0.5211,"pending":37,"active":37,"total":71,"new":40,"median_price":297125,"ppsf":169,"dom":34,"pop":29296,"lat":41.15397,"lng":-85.12425},{"zip":"46835","name":"Fort Wayne","pending_pct":0.5833,"pending":70,"active":52,"total":120,"new":50,"median_price":327925,"ppsf":160,"dom":33,"pop":38166,"lat":41.15086,"lng":-85.04536},{"zip":"46845","name":"Fort Wayne","pending_pct":0.4586,"pending":61,"active":69,"total":133,"new":66,"median_price":425925,"ppsf":187,"dom":32,"pop":29583,"lat":41.2051,"lng":-85.10789},{"zip":"46901","name":"Kokomo","pending_pct":0.3592,"pending":51,"active":91,"total":142,"new":52,"median_price":154000,"ppsf":118,"dom":44,"pop":38082,"lat":40.52487,"lng":-86.15639},{"zip":"46902","name":"Kokomo","pending_pct":0.4313,"pending":69,"active":92,"total":160,"new":64,"median_price":242500,"ppsf":134,"dom":36,"pop":37017,"lat":40.43743,"lng":-86.09111},{"zip":"46910","name":"Akron","pending_pct":0.4286,"pending":3,"active":4,"total":7,"new":2,"median_price":226450,"ppsf":137,"dom":46,"pop":3221,"lat":41.04537,"lng":-86.04151},{"zip":"46911","name":"Amboy","pending_pct":0.6667,"pending":2,"active":2,"total":3,"new":0,"median_price":241900,"ppsf":135,"dom":27,"pop":1656,"lat":40.62859,"lng":-85.94673},{"zip":"46913","name":"Bringhurst","pending_pct":0.25,"pending":1,"active":3,"total":4,"new":0,"median_price":351175,"ppsf":160,"dom":63,"pop":1400,"lat":40.50364,"lng":-86.49739},{"zip":"46914","name":"Bunker Hill","pending_pct":0.5,"pending":1,"active":2,"total":2,"new":2,"median_price":171225,"ppsf":127,"dom":21,"pop":4142,"lat":40.63068,"lng":-86.09515},{"zip":"46915","name":"Burlington","pending_pct":0.25,"pending":1,"active":4,"total":4,"new":4,"median_price":234975,"ppsf":119,"dom":103,"pop":617,"lat":40.47832,"lng":-86.38636},{"zip":"46917","name":"Camden","pending_pct":0.5,"pending":1,"active":1,"total":2,"new":0,"median_price":69000,"ppsf":31,"dom":210,"pop":1924,"lat":40.62071,"lng":-86.46893},{"zip":"46919","name":"Converse","pending_pct":0.4286,"pending":3,"active":6,"total":7,"new":2,"median_price":182450,"ppsf":117,"dom":31,"pop":1968,"lat":40.58826,"lng":-85.8706},{"zip":"46920","name":"Cutler","pending_pct":null,"pending":null,"active":1,"total":1,"new":4,"median_price":525000,"ppsf":153,"dom":1,"pop":1401,"lat":40.46459,"lng":-86.49502},{"zip":"46923","name":"Delphi","pending_pct":0.4828,"pending":14,"active":15,"total":29,"new":2,"median_price":296500,"ppsf":129,"dom":54,"pop":8221,"lat":40.606,"lng":-86.64568},{"zip":"46926","name":"Denver","pending_pct":1.0,"pending":2,"active":0,"total":2,"new":0,"median_price":319900,"ppsf":153,"dom":33,"pop":1359,"lat":40.88283,"lng":-86.04945},{"zip":"46928","name":"Fairmount","pending_pct":0.4,"pending":4,"active":6,"total":10,"new":0,"median_price":164975,"ppsf":108,"dom":75,"pop":4553,"lat":40.40763,"lng":-85.68618},{"zip":"46929","name":"Flora","pending_pct":0.6,"pending":3,"active":2,"total":5,"new":2,"median_price":221975,"ppsf":141,"dom":10,"pop":3056,"lat":40.54802,"lng":-86.47411},{"zip":"46931","name":"","pending_pct":null,"pending":null,"active":1,"total":1,"new":0,"median_price":79000,"ppsf":56,"dom":183,"pop":245,"lat":40.94693,"lng":-86.26456},{"zip":"46932","name":"Galveston","pending_pct":0.4,"pending":4,"active":6,"total":10,"new":4,"median_price":196975,"ppsf":131,"dom":46,"pop":3066,"lat":40.59675,"lng":-86.26243},{"zip":"46933","name":"Gas City","pending_pct":0.3889,"pending":7,"active":11,"total":18,"new":4,"median_price":175625,"ppsf":131,"dom":41,"pop":6536,"lat":40.47887,"lng":-85.58091},{"zip":"46936","name":"Greentown","pending_pct":0.4706,"pending":8,"active":11,"total":17,"new":6,"median_price":222850,"ppsf":143,"dom":40,"pop":5901,"lat":40.47942,"lng":-85.93102},{"zip":"46937","name":"","pending_pct":0.5,"pending":1,"active":2,"total":2,"new":0,"median_price":91475,"ppsf":68,"dom":155,"pop":17,"lat":40.41523,"lng":-86.03693},{"zip":"46938","name":"Jonesboro","pending_pct":0.7143,"pending":5,"active":3,"total":7,"new":2,"median_price":139000,"ppsf":100,"dom":52,"pop":2494,"lat":40.4482,"lng":-85.64892},{"zip":"46939","name":"Kewanna","pending_pct":null,"pending":null,"active":6,"total":6,"new":0,"median_price":286175,"ppsf":130,"dom":139,"pop":1909,"lat":40.99337,"lng":-86.40359},{"zip":"46940","name":"La Fontaine","pending_pct":0.25,"pending":1,"active":4,"total":4,"new":0,"median_price":319950,"ppsf":161,"dom":91,"pop":2540,"lat":40.6882,"lng":-85.69857},{"zip":"46941","name":"Lagro","pending_pct":null,"pending":null,"active":2,"total":2,"new":2,"median_price":639900,"ppsf":310,"dom":9,"pop":962,"lat":40.82833,"lng":-85.69723},{"zip":"46943","name":"Laketon","pending_pct":0.5,"pending":1,"active":2,"total":2,"new":4,"median_price":151250,"ppsf":100,"dom":7,"pop":150,"lat":40.9735,"lng":-85.84038},{"zip":"46947","name":"Logansport","pending_pct":0.3731,"pending":25,"active":43,"total":67,"new":28,"median_price":224900,"ppsf":123,"dom":51,"pop":28687,"lat":40.76044,"lng":-86.37303},{"zip":"46950","name":"Lucerne","pending_pct":null,"pending":null,"active":2,"total":2,"new":0,"median_price":259950,"ppsf":101,"dom":106,"pop":459,"lat":40.88391,"lng":-86.37162},{"zip":"46951","name":"Macy","pending_pct":0.25,"pending":2,"active":6,"total":8,"new":0,"median_price":172400,"ppsf":112,"dom":36,"pop":2376,"lat":40.94616,"lng":-86.10528},{"zip":"46952","name":"Marion","pending_pct":0.3934,"pending":24,"active":37,"total":61,"new":18,"median_price":135950,"ppsf":101,"dom":48,"pop":18189,"lat":40.59882,"lng":-85.63249},{"zip":"46953","name":"Marion","pending_pct":0.4444,"pending":32,"active":40,"total":72,"new":20,"median_price":83200,"ppsf":61,"dom":44,"pop":23372,"lat":40.51928,"lng":-85.643},{"zip":"46957","name":"Matthews","pending_pct":1.0,"pending":3,"active":0,"total":3,"new":0,"median_price":151950,"ppsf":87,"dom":35,"pop":443,"lat":40.38866,"lng":-85.49917},{"zip":"46958","name":"Mexico","pending_pct":0.3333,"pending":1,"active":1,"total":3,"new":0,"median_price":192450,"ppsf":118,"dom":12,"pop":620,"lat":40.81817,"lng":-86.12107},{"zip":"46960","name":"Monterey","pending_pct":0.375,"pending":3,"active":5,"total":8,"new":2,"median_price":325000,"ppsf":177,"dom":132,"pop":1018,"lat":41.15735,"lng":-86.52397},{"zip":"46962","name":"North Manchester","pending_pct":0.3871,"pending":12,"active":18,"total":31,"new":10,"median_price":262000,"ppsf":120,"dom":44,"pop":8785,"lat":40.98774,"lng":-85.76675},{"zip":"46968","name":"Ora","pending_pct":null,"pending":null,"active":3,"total":3,"new":0,"median_price":127500,"ppsf":100,"dom":87,"pop":96,"lat":41.17049,"lng":-86.55179},{"zip":"46970","name":"Peru","pending_pct":0.3134,"pending":21,"active":49,"total":67,"new":28,"median_price":165000,"ppsf":102,"dom":40,"pop":23020,"lat":40.75827,"lng":-86.0614},{"zip":"46974","name":"Roann","pending_pct":1.0,"pending":1,"active":1,"total":1,"new":0,"median_price":312900,"ppsf":204,"dom":4,"pop":1586,"lat":40.94839,"lng":-85.93041},{"zip":"46975","name":"Rochester","pending_pct":0.3571,"pending":20,"active":37,"total":56,"new":16,"median_price":327450,"ppsf":164,"dom":61,"pop":13824,"lat":41.0718,"lng":-86.25177},{"zip":"46978","name":"Royal Center","pending_pct":0.6667,"pending":6,"active":3,"total":9,"new":2,"median_price":194375,"ppsf":119,"dom":41,"pop":2034,"lat":40.8587,"lng":-86.51113},{"zip":"46979","name":"Russiaville","pending_pct":0.6429,"pending":9,"active":5,"total":14,"new":8,"median_price":289900,"ppsf":155,"dom":18,"pop":4908,"lat":40.42759,"lng":-86.27737},{"zip":"46982","name":"Silver Lake","pending_pct":0.5,"pending":2,"active":2,"total":4,"new":0,"median_price":221800,"ppsf":179,"dom":79,"pop":2604,"lat":41.05717,"lng":-85.8882},{"zip":"46984","name":"","pending_pct":null,"pending":null,"active":3,"total":3,"new":0,"median_price":189000,"ppsf":102,"dom":121,"pop":8,"lat":40.66777,"lng":-85.82975},{"zip":"46985","name":"Star City","pending_pct":0.5,"pending":3,"active":4,"total":6,"new":2,"median_price":305000,"ppsf":121,"dom":26,"pop":1419,"lat":40.95485,"lng":-86.58225},{"zip":"46986","name":"Swayzee","pending_pct":0.75,"pending":3,"active":1,"total":4,"new":0,"median_price":249000,"ppsf":149,"dom":15,"pop":1617,"lat":40.49481,"lng":-85.81929},{"zip":"46987","name":"Sweetser","pending_pct":0.1429,"pending":1,"active":6,"total":7,"new":0,"median_price":232450,"ppsf":130,"dom":88,"pop":1055,"lat":40.56847,"lng":-85.76722},{"zip":"46988","name":"Twelve Mile","pending_pct":0.5,"pending":1,"active":1,"total":2,"new":0,"median_price":99000,"ppsf":54,"dom":190,"pop":1086,"lat":40.8802,"lng":-86.23451},{"zip":"46989","name":"Upland","pending_pct":0.3077,"pending":4,"active":9,"total":13,"new":6,"median_price":389400,"ppsf":167,"dom":35,"pop":5385,"lat":40.45056,"lng":-85.48115},{"zip":"46990","name":"Urbana","pending_pct":null,"pending":null,"active":1,"total":1,"new":0,"median_price":1635000,"ppsf":181,"dom":null,"pop":633,"lat":40.89851,"lng":-85.73161},{"zip":"46991","name":"Van Buren","pending_pct":0.4286,"pending":3,"active":5,"total":7,"new":0,"median_price":193750,"ppsf":133,"dom":94,"pop":1594,"lat":40.63034,"lng":-85.50642},{"zip":"46992","name":"Wabash","pending_pct":0.4167,"pending":15,"active":21,"total":36,"new":16,"median_price":198575,"ppsf":125,"dom":49,"pop":16438,"lat":40.78509,"lng":-85.82961},{"zip":"46994","name":"Walton","pending_pct":1.0,"pending":4,"active":0,"total":4,"new":0,"median_price":242500,"ppsf":124,"dom":50,"pop":2132,"lat":40.66661,"lng":-86.25766},{"zip":"46996","name":"Winamac","pending_pct":0.3125,"pending":10,"active":22,"total":32,"new":10,"median_price":249900,"ppsf":130,"dom":36,"pop":6441,"lat":41.0626,"lng":-86.65906},{"zip":"46998","name":"Young America","pending_pct":null,"pending":null,"active":1,"total":1,"new":0,"median_price":74900,"ppsf":66,"dom":37,"pop":138,"lat":40.57536,"lng":-86.35081},{"zip":"47001","name":"Aurora","pending_pct":0.1923,"pending":5,"active":21,"total":26,"new":18,"median_price":277450,"ppsf":149,"dom":36,"pop":10696,"lat":39.0579,"lng":-84.95689},{"zip":"47003","name":"West College Corner","pending_pct":0.3333,"pending":1,"active":2,"total":3,"new":0,"median_price":196900,"ppsf":106,"dom":19,"pop":1182,"lat":39.55628,"lng":-84.84491},{"zip":"47006","name":"Batesville","pending_pct":0.3243,"pending":12,"active":25,"total":37,"new":12,"median_price":386400,"ppsf":175,"dom":36,"pop":12988,"lat":39.29141,"lng":-85.21365},{"zip":"47010","name":"Bath","pending_pct":null,"pending":null,"active":1,"total":1,"new":4,"median_price":674900,"ppsf":211,"dom":4,"pop":207,"lat":39.4981,"lng":-84.83925},{"zip":"47011","name":"Bennington","pending_pct":null,"pending":null,"active":1,"total":1,"new":0,"median_price":549900,"ppsf":136,"dom":12,"pop":1420,"lat":38.8724,"lng":-85.06887},{"zip":"47012","name":"Brookville","pending_pct":0.2308,"pending":9,"active":30,"total":39,"new":10,"median_price":284250,"ppsf":168,"dom":48,"pop":10733,"lat":39.41892,"lng":-84.97944},{"zip":"47016","name":"Cedar Grove","pending_pct":1.0,"pending":2,"active":1,"total":2,"new":0,"median_price":799999,"ppsf":354,"dom":29,"pop":773,"lat":39.37414,"lng":-84.89484},{"zip":"47017","name":"Cross Plains","pending_pct":1.0,"pending":1,"active":1,"total":1,"new":0,"median_price":477900,"ppsf":185,"dom":55,"pop":540,"lat":38.93745,"lng":-85.17713},{"zip":"47018","name":"Dillsboro","pending_pct":0.2857,"pending":2,"active":5,"total":7,"new":8,"median_price":288725,"ppsf":122,"dom":93,"pop":4166,"lat":38.98684,"lng":-85.0866},{"zip":"47020","name":"Florence","pending_pct":0.1667,"pending":1,"active":5,"total":6,"new":2,"median_price":230000,"ppsf":136,"dom":26,"pop":1177,"lat":38.8119,"lng":-84.93221},{"zip":"47022","name":"Guilford","pending_pct":0.25,"pending":1,"active":3,"total":4,"new":2,"median_price":513000,"ppsf":242,"dom":63,"pop":3074,"lat":39.20722,"lng":-84.95089},{"zip":"47023","name":"Holton","pending_pct":0.25,"pending":1,"active":4,"total":4,"new":2,"median_price":206250,"ppsf":155,"dom":92,"pop":2132,"lat":39.07255,"lng":-85.37467},{"zip":"47024","name":"Laurel","pending_pct":0.2,"pending":2,"active":8,"total":10,"new":4,"median_price":251400,"ppsf":158,"dom":42,"pop":2901,"lat":39.47611,"lng":-85.19724},{"zip":"47025","name":"Lawrenceburg","pending_pct":0.1379,"pending":8,"active":50,"total":58,"new":38,"median_price":375325,"ppsf":166,"dom":38,"pop":23570,"lat":39.15415,"lng":-84.87461},{"zip":"47030","name":"Metamora","pending_pct":0.3333,"pending":1,"active":3,"total":3,"new":2,"median_price":294900,"ppsf":244,"dom":48,"pop":1353,"lat":39.42686,"lng":-85.13319},{"zip":"47031","name":"Milan","pending_pct":0.35,"pending":7,"active":12,"total":20,"new":10,"median_price":290000,"ppsf":177,"dom":44,"pop":5659,"lat":39.12872,"lng":-85.15333},{"zip":"47032","name":"Moores Hill","pending_pct":null,"pending":null,"active":9,"total":9,"new":2,"median_price":409950,"ppsf":218,"dom":54,"pop":3285,"lat":39.08109,"lng":-85.05503},{"zip":"47035","name":"New Trenton","pending_pct":null,"pending":null,"active":1,"total":1,"new":0,"median_price":131900,"ppsf":92,"dom":99,"pop":261,"lat":39.31016,"lng":-84.90394},{"zip":"47037","name":"Osgood","pending_pct":0.2222,"pending":2,"active":8,"total":9,"new":6,"median_price":158675,"ppsf":126,"dom":22,"pop":4330,"lat":39.16431,"lng":-85.31908},{"zip":"47038","name":"Patriot","pending_pct":0.2857,"pending":2,"active":5,"total":7,"new":2,"median_price":329900,"ppsf":168,"dom":37,"pop":1006,"lat":38.84588,"lng":-84.84212},{"zip":"47040","name":"Rising Sun","pending_pct":0.3077,"pending":4,"active":9,"total":13,"new":10,"median_price":434950,"ppsf":170,"dom":58,"pop":5275,"lat":38.91703,"lng":-84.92809},{"zip":"47041","name":"Sunman","pending_pct":0.25,"pending":3,"active":9,"total":12,"new":8,"median_price":367475,"ppsf":180,"dom":32,"pop":5884,"lat":39.23432,"lng":-85.0797},{"zip":"47042","name":"Versailles","pending_pct":0.2,"pending":2,"active":9,"total":10,"new":8,"median_price":316200,"ppsf":173,"dom":31,"pop":3839,"lat":39.01247,"lng":-85.25484},{"zip":"47043","name":"Vevay","pending_pct":0.35,"pending":7,"active":13,"total":20,"new":6,"median_price":267175,"ppsf":186,"dom":42,"pop":4852,"lat":38.7949,"lng":-85.10009},{"zip":"47060","name":"West Harrison","pending_pct":0.5,"pending":3,"active":3,"total":6,"new":0,"median_price":317175,"ppsf":159,"dom":48,"pop":6309,"lat":39.29828,"lng":-84.8788},{"zip":"47102","name":"Austin","pending_pct":0.4688,"pending":15,"active":17,"total":32,"new":6,"median_price":182250,"ppsf":119,"dom":42,"pop":6659,"lat":38.75745,"lng":-85.7951},{"zip":"47104","name":"Bethlehem","pending_pct":null,"pending":null,"active":1,"total":1,"new":0,"median_price":262500,"ppsf":184,"dom":148,"pop":9,"lat":38.54568,"lng":-85.43665},{"zip":"47106","name":"Borden","pending_pct":0.4444,"pending":8,"active":11,"total":18,"new":4,"median_price":359900,"ppsf":167,"dom":49,"pop":4670,"lat":38.46071,"lng":-85.90326},{"zip":"47108","name":"Campbellsburg","pending_pct":0.25,"pending":2,"active":7,"total":8,"new":0,"median_price":182400,"ppsf":146,"dom":78,"pop":2155,"lat":38.6455,"lng":-86.25725},{"zip":"47110","name":"Central","pending_pct":0.5,"pending":1,"active":1,"total":2,"new":0,"median_price":175000,"ppsf":140,"dom":16,"pop":481,"lat":38.09541,"lng":-86.2077},{"zip":"47111","name":"Charlestown","pending_pct":0.3448,"pending":60,"active":113,"total":174,"new":44,"median_price":354900,"ppsf":180,"dom":50,"pop":17738,"lat":38.46604,"lng":-85.63271},{"zip":"47112","name":"Corydon","pending_pct":0.4462,"pending":29,"active":34,"total":65,"new":16,"median_price":276125,"ppsf":158,"dom":55,"pop":17464,"lat":38.19235,"lng":-86.14512},{"zip":"47115","name":"Depauw","pending_pct":0.3333,"pending":1,"active":2,"total":3,"new":2,"median_price":582500,"ppsf":239,"dom":13,"pop":2782,"lat":38.34465,"lng":-86.21655},{"zip":"47116","name":"Eckerty","pending_pct":0.2,"pending":1,"active":4,"total":5,"new":0,"median_price":292500,"ppsf":164,"dom":34,"pop":490,"lat":38.32521,"lng":-86.61668},{"zip":"47117","name":"Elizabeth","pending_pct":0.4444,"pending":4,"active":6,"total":9,"new":2,"median_price":456950,"ppsf":181,"dom":52,"pop":4400,"lat":38.10505,"lng":-85.97275},{"zip":"47118","name":"English","pending_pct":0.4,"pending":4,"active":6,"total":10,"new":0,"median_price":322000,"ppsf":255,"dom":86,"pop":3529,"lat":38.29788,"lng":-86.48449},{"zip":"47119","name":"Floyds Knobs","pending_pct":0.3333,"pending":13,"active":27,"total":39,"new":16,"median_price":498900,"ppsf":184,"dom":42,"pop":12042,"lat":38.36699,"lng":-85.88217},{"zip":"47120","name":"Fredericksburg","pending_pct":0.25,"pending":1,"active":3,"total":4,"new":0,"median_price":270000,"ppsf":197,"dom":34,"pop":960,"lat":38.45568,"lng":-86.19075},{"zip":"47122","name":"Georgetown","pending_pct":0.3488,"pending":30,"active":56,"total":86,"new":36,"median_price":350417,"ppsf":195,"dom":30,"pop":11357,"lat":38.3041,"lng":-85.98303},{"zip":"47124","name":"Greenville","pending_pct":0.4091,"pending":9,"active":13,"total":22,"new":10,"median_price":348725,"ppsf":191,"dom":25,"pop":5357,"lat":38.36591,"lng":-86.00523},{"zip":"47125","name":"Hardinsburg","pending_pct":null,"pending":null,"active":5,"total":5,"new":0,"median_price":225000,"ppsf":180,"dom":76,"pop":1988,"lat":38.46341,"lng":-86.30825},{"zip":"47126","name":"Henryville","pending_pct":0.3265,"pending":16,"active":33,"total":49,"new":10,"median_price":429900,"ppsf":190,"dom":47,"pop":4372,"lat":38.54979,"lng":-85.77844},{"zip":"47129","name":"Clarksville","pending_pct":0.3788,"pending":25,"active":40,"total":66,"new":28,"median_price":269200,"ppsf":158,"dom":37,"pop":19582,"lat":38.31378,"lng":-85.76874},{"zip":"47130","name":"Jeffersonville","pending_pct":0.3615,"pending":124,"active":219,"total":343,"new":116,"median_price":299900,"ppsf":191,"dom":40,"pop":50514,"lat":38.33528,"lng":-85.69689},{"zip":"47135","name":"Laconia","pending_pct":null,"pending":null,"active":1,"total":1,"new":0,"median_price":772000,"ppsf":326,"dom":58,"pop":1257,"lat":38.04108,"lng":-86.0744},{"zip":"47136","name":"Lanesville","pending_pct":0.4571,"pending":16,"active":19,"total":35,"new":4,"median_price":427450,"ppsf":188,"dom":44,"pop":4756,"lat":38.23511,"lng":-85.96194},{"zip":"47137","name":"Leavenworth","pending_pct":0.4,"pending":2,"active":3,"total":5,"new":2,"median_price":745000,"ppsf":213,"dom":84,"pop":1532,"lat":38.18899,"lng":-86.37626},{"zip":"47138","name":"Lexington","pending_pct":0.5294,"pending":9,"active":8,"total":17,"new":4,"median_price":442425,"ppsf":219,"dom":29,"pop":4859,"lat":38.68215,"lng":-85.59759},{"zip":"47140","name":"Marengo","pending_pct":0.5714,"pending":4,"active":3,"total":7,"new":0,"median_price":150850,"ppsf":118,"dom":62,"pop":2539,"lat":38.38063,"lng":-86.36892},{"zip":"47141","name":"Marysville","pending_pct":0.25,"pending":1,"active":3,"total":4,"new":0,"median_price":650000,"ppsf":189,"dom":34,"pop":1584,"lat":38.54925,"lng":-85.60841},{"zip":"47142","name":"Mauckport","pending_pct":null,"pending":null,"active":2,"total":2,"new":0,"median_price":427400,"ppsf":192,"dom":121,"pop":653,"lat":38.0684,"lng":-86.21042},{"zip":"47143","name":"Memphis","pending_pct":0.3333,"pending":19,"active":39,"total":57,"new":12,"median_price":336175,"ppsf":192,"dom":41,"pop":3833,"lat":38.46877,"lng":-85.77314},{"zip":"47145","name":"Milltown","pending_pct":0.25,"pending":1,"active":3,"total":4,"new":2,"median_price":1,"ppsf":0,"dom":8,"pop":1782,"lat":38.33454,"lng":-86.30115},{"zip":"47147","name":"Nabb","pending_pct":null,"pending":null,"active":3,"total":3,"new":0,"median_price":233650,"ppsf":179,"dom":70,"pop":1317,"lat":38.5942,"lng":-85.53866},{"zip":"47150","name":"New Albany","pending_pct":0.3817,"pending":92,"active":151,"total":241,"new":84,"median_price":256950,"ppsf":163,"dom":39,"pop":49144,"lat":38.28831,"lng":-85.84775},{"zip":"47160","name":"New Middletown","pending_pct":1.0,"pending":1,"active":0,"total":1,"new":0,"median_price":152000,"ppsf":76,"dom":47,"pop":55,"lat":38.14817,"lng":-86.04711},{"zip":"47161","name":"New Salisbury","pending_pct":0.28,"pending":7,"active":18,"total":25,"new":4,"median_price":260600,"ppsf":188,"dom":160,"pop":3611,"lat":38.32281,"lng":-86.10366},{"zip":"47162","name":"New Washington","pending_pct":1.0,"pending":2,"active":0,"total":2,"new":0,"median_price":233725,"ppsf":177,"dom":17,"pop":514,"lat":38.55477,"lng":-85.48873},{"zip":"47163","name":"Otisco","pending_pct":1.0,"pending":2,"active":1,"total":2,"new":2,"median_price":799000,"ppsf":151,"dom":94,"pop":1335,"lat":38.54101,"lng":-85.67928},{"zip":"47164","name":"Palmyra","pending_pct":0.4286,"pending":3,"active":5,"total":7,"new":4,"median_price":297500,"ppsf":147,"dom":27,"pop":3312,"lat":38.40462,"lng":-86.09079},{"zip":"47165","name":"Pekin","pending_pct":0.1667,"pending":2,"active":12,"total":12,"new":4,"median_price":263700,"ppsf":196,"dom":54,"pop":6292,"lat":38.50152,"lng":-86.00508},{"zip":"47166","name":"Ramsey","pending_pct":null,"pending":null,"active":2,"total":2,"new":0,"median_price":330000,"ppsf":191,"dom":42,"pop":1484,"lat":38.30668,"lng":-86.16901},{"zip":"47167","name":"Salem","pending_pct":0.2286,"pending":16,"active":55,"total":70,"new":12,"median_price":238000,"ppsf":156,"dom":69,"pop":15375,"lat":38.6077,"lng":-86.09047},{"zip":"47170","name":"Scottsburg","pending_pct":0.3929,"pending":22,"active":33,"total":56,"new":22,"median_price":239900,"ppsf":164,"dom":31,"pop":15451,"lat":38.68734,"lng":-85.84667},{"zip":"47172","name":"Sellersburg","pending_pct":0.4105,"pending":39,"active":56,"total":95,"new":40,"median_price":315043,"ppsf":167,"dom":36,"pop":21045,"lat":38.39745,"lng":-85.76886},{"zip":"47174","name":"Sulphur","pending_pct":null,"pending":null,"active":1,"total":1,"new":0,"median_price":25000,"ppsf":14,"dom":16,"pop":69,"lat":38.22716,"lng":-86.482},{"zip":"47175","name":"Taswell","pending_pct":null,"pending":null,"active":3,"total":3,"new":0,"median_price":195000,"ppsf":191,"dom":88,"pop":847,"lat":38.35902,"lng":-86.55236},{"zip":"47177","name":"Underwood","pending_pct":0.4,"pending":2,"active":3,"total":5,"new":2,"median_price":335974,"ppsf":182,"dom":23,"pop":1782,"lat":38.59947,"lng":-85.78197},{"zip":"47201","name":"Columbus","pending_pct":0.3459,"pending":64,"active":121,"total":185,"new":66,"median_price":311175,"ppsf":171,"dom":44,"pop":47900,"lat":39.15074,"lng":-85.99432},{"zip":"47203","name":"Columbus","pending_pct":0.4444,"pending":40,"active":50,"total":90,"new":56,"median_price":300950,"ppsf":166,"dom":32,"pop":26200,"lat":39.23189,"lng":-85.83281},{"zip":"47220","name":"Brownstown","pending_pct":0.3077,"pending":4,"active":10,"total":13,"new":4,"median_price":279900,"ppsf":147,"dom":21,"pop":6136,"lat":38.87786,"lng":-86.05471},{"zip":"47223","name":"Butlerville","pending_pct":0.5,"pending":3,"active":3,"total":6,"new":0,"median_price":49900,"ppsf":29,"dom":50,"pop":1268,"lat":39.0555,"lng":-85.48218},{"zip":"47224","name":"Canaan","pending_pct":null,"pending":null,"active":1,"total":1,"new":0,"median_price":376950,"ppsf":127,"dom":78,"pop":523,"lat":38.88816,"lng":-85.22474},{"zip":"47226","name":"Clifford","pending_pct":1.0,"pending":1,"active":1,"total":1,"new":0,"median_price":247400,"ppsf":102,"dom":51,"pop":165,"lat":39.28266,"lng":-85.86907},{"zip":"47227","name":"Commiskey","pending_pct":null,"pending":null,"active":1,"total":1,"new":0,"median_price":479900,"ppsf":235,"dom":124,"pop":1177,"lat":38.87506,"lng":-85.65678},{"zip":"47229","name":"Crothersville","pending_pct":0.4667,"pending":7,"active":8,"total":15,"new":4,"median_price":181200,"ppsf":165,"dom":72,"pop":2965,"lat":38.80289,"lng":-85.86688},{"zip":"47230","name":"Deputy","pending_pct":0.5,"pending":2,"active":2,"total":4,"new":0,"median_price":269508,"ppsf":153,"dom":132,"pop":2086,"lat":38.7946,"lng":-85.63139},{"zip":"47231","name":"Dupont","pending_pct":null,"pending":null,"active":1,"total":1,"new":0,"median_price":209900,"ppsf":128,"dom":98,"pop":675,"lat":38.89792,"lng":-85.4996},{"zip":"47232","name":"Elizabethtown","pending_pct":0.25,"pending":1,"active":2,"total":4,"new":4,"median_price":311225,"ppsf":160,"dom":33,"pop":2316,"lat":39.11297,"lng":-85.79428},{"zip":"47234","name":"Flat Rock","pending_pct":0.6667,"pending":4,"active":2,"total":6,"new":0,"median_price":258225,"ppsf":162,"dom":261,"pop":1617,"lat":39.37611,"lng":-85.76837},{"zip":"47235","name":"Freetown","pending_pct":0.4,"pending":2,"active":4,"total":5,"new":4,"median_price":436225,"ppsf":215,"dom":39,"pop":1672,"lat":39.01385,"lng":-86.14046},{"zip":"47240","name":"Greensburg","pending_pct":0.3421,"pending":26,"active":51,"total":76,"new":26,"median_price":266250,"ppsf":172,"dom":43,"pop":21484,"lat":39.32394,"lng":-85.48028},{"zip":"47243","name":"Hanover","pending_pct":0.3214,"pending":9,"active":20,"total":28,"new":12,"median_price":313650,"ppsf":190,"dom":45,"pop":6225,"lat":38.67214,"lng":-85.48177},{"zip":"47244","name":"Hartsville","pending_pct":null,"pending":null,"active":0,"total":0,"new":0,"median_price":200000,"ppsf":123,"dom":35,"pop":533,"lat":39.21802,"lng":-85.70232},{"zip":"47246","name":"Hope","pending_pct":0.2,"pending":3,"active":12,"total":15,"new":4,"median_price":449900,"ppsf":201,"dom":74,"pop":4326,"lat":39.29804,"lng":-85.76606},{"zip":"47250","name":"Madison","pending_pct":0.2211,"pending":21,"active":74,"total":95,"new":28,"median_price":319900,"ppsf":181,"dom":58,"pop":22884,"lat":38.81867,"lng":-85.3552},{"zip":"47260","name":"Medora","pending_pct":0.5,"pending":2,"active":2,"total":4,"new":0,"median_price":132524,"ppsf":91,"dom":44,"pop":1809,"lat":38.83596,"lng":-86.19909},{"zip":"47263","name":"","pending_pct":null,"pending":null,"active":1,"total":1,"new":0,"median_price":159900,"ppsf":51,"dom":231,"pop":123,"lat":39.30864,"lng":-85.32832},{"zip":"47264","name":"Norman","pending_pct":1.0,"pending":2,"active":1,"total":2,"new":0,"median_price":372400,"ppsf":280,"dom":31,"pop":1574,"lat":38.96434,"lng":-86.26313},{"zip":"47265","name":"North Vernon","pending_pct":0.4203,"pending":29,"active":39,"total":69,"new":20,"median_price":217425,"ppsf":149,"dom":49,"pop":20937,"lat":39.00818,"lng":-85.62685},{"zip":"47270","name":"Paris Crossing","pending_pct":0.5,"pending":1,"active":1,"total":2,"new":0,"median_price":119900,"ppsf":102,"dom":102,"pop":510,"lat":38.8397,"lng":-85.71913},{"zip":"47272","name":"Saint Paul","pending_pct":null,"pending":null,"active":2,"total":2,"new":0,"median_price":156989,"ppsf":59,"dom":64,"pop":1844,"lat":39.41519,"lng":-85.61942},{"zip":"47273","name":"Scipio","pending_pct":0.5714,"pending":4,"active":3,"total":7,"new":4,"median_price":149900,"ppsf":139,"dom":40,"pop":1800,"lat":39.07472,"lng":-85.7359},{"zip":"47274","name":"Seymour","pending_pct":0.3217,"pending":37,"active":79,"total":115,"new":40,"median_price":289950,"ppsf":159,"dom":44,"pop":33068,"lat":38.96261,"lng":-85.92877},{"zip":"47280","name":"Taylorsville","pending_pct":1.0,"pending":1,"active":1,"total":1,"new":0,"median_price":129000,"ppsf":119,"dom":39,"pop":1248,"lat":39.29655,"lng":-85.95047},{"zip":"47281","name":"Vallonia","pending_pct":null,"pending":null,"active":3,"total":3,"new":2,"median_price":199900,"ppsf":158,"dom":10,"pop":1541,"lat":38.78563,"lng":-86.10324},{"zip":"47282","name":"Vernon","pending_pct":null,"pending":null,"active":1,"total":1,"new":0,"median_price":325000,"ppsf":137,"dom":36,"pop":193,"lat":38.98538,"lng":-85.6101},{"zip":"47283","name":"Westport","pending_pct":0.2308,"pending":3,"active":10,"total":13,"new":4,"median_price":184000,"ppsf":143,"dom":57,"pop":4305,"lat":39.16978,"lng":-85.58647},{"zip":"47302","name":"Muncie","pending_pct":0.3861,"pending":39,"active":60,"total":101,"new":32,"median_price":112150,"ppsf":101,"dom":51,"pop":25473,"lat":40.12992,"lng":-85.37553},{"zip":"47303","name":"Muncie","pending_pct":0.4416,"pending":34,"active":43,"total":77,"new":28,"median_price":154950,"ppsf":113,"dom":41,"pop":24392,"lat":40.27108,"lng":-85.37648},{"zip":"47304","name":"Muncie","pending_pct":0.4091,"pending":54,"active":79,"total":132,"new":46,"median_price":239900,"ppsf":128,"dom":38,"pop":31237,"lat":40.23398,"lng":-85.45973},{"zip":"47305","name":"Muncie","pending_pct":0.2941,"pending":5,"active":12,"total":17,"new":6,"median_price":132200,"ppsf":66,"dom":74,"pop":3556,"lat":40.19387,"lng":-85.38556},{"zip":"47320","name":"Albany","pending_pct":0.3889,"pending":7,"active":11,"total":18,"new":6,"median_price":215000,"ppsf":114,"dom":54,"pop":4563,"lat":40.2787,"lng":-85.2672},{"zip":"47325","name":"Brownsville","pending_pct":null,"pending":null,"active":1,"total":1,"new":0,"median_price":282425,"ppsf":136,"dom":107,"pop":730,"lat":39.69395,"lng":-85.01834},{"zip":"47326","name":"Bryant","pending_pct":0.1111,"pending":1,"active":7,"total":9,"new":2,"median_price":185000,"ppsf":141,"dom":12,"pop":1803,"lat":40.54597,"lng":-84.97018},{"zip":"47327","name":"Cambridge City","pending_pct":0.35,"pending":7,"active":14,"total":20,"new":4,"median_price":136875,"ppsf":86,"dom":52,"pop":4477,"lat":39.8318,"lng":-85.17314},{"zip":"47330","name":"Centerville","pending_pct":0.4737,"pending":9,"active":12,"total":19,"new":8,"median_price":290875,"ppsf":157,"dom":43,"pop":5488,"lat":39.78792,"lng":-85.02226},{"zip":"47331","name":"Connersville","pending_pct":0.2636,"pending":29,"active":81,"total":110,"new":34,"median_price":172975,"ppsf":116,"dom":51,"pop":22786,"lat":39.63086,"lng":-85.16313},{"zip":"47334","name":"Daleville","pending_pct":0.75,"pending":9,"active":4,"total":12,"new":4,"median_price":302475,"ppsf":161,"dom":41,"pop":3336,"lat":40.11267,"lng":-85.52357},{"zip":"47335","name":"","pending_pct":0.3333,"pending":1,"active":2,"total":3,"new":0,"median_price":205250,"ppsf":91,"dom":41,"pop":608,"lat":39.81171,"lng":-85.20675},{"zip":"47336","name":"Dunkirk","pending_pct":0.25,"pending":6,"active":17,"total":24,"new":8,"median_price":80537,"ppsf":65,"dom":61,"pop":2851,"lat":40.39694,"lng":-85.20821},{"zip":"47337","name":"","pending_pct":1.0,"pending":1,"active":1,"total":1,"new":0,"median_price":134900,"ppsf":99,"dom":5,"pop":204,"lat":39.80286,"lng":-85.43736},{"zip":"47338","name":"Eaton","pending_pct":0.8,"pending":4,"active":1,"total":5,"new":0,"median_price":74900,"ppsf":38,"dom":124,"pop":2355,"lat":40.34363,"lng":-85.33977},{"zip":"47340","name":"Farmland","pending_pct":0.6,"pending":3,"active":2,"total":5,"new":0,"median_price":309900,"ppsf":169,"dom":40,"pop":3051,"lat":40.181,"lng":-85.1318},{"zip":"47341","name":"Fountain City","pending_pct":0.3333,"pending":3,"active":5,"total":9,"new":4,"median_price":169000,"ppsf":124,"dom":35,"pop":2460,"lat":39.9741,"lng":-84.89361},{"zip":"47342","name":"Gaston","pending_pct":1.0,"pending":2,"active":1,"total":2,"new":0,"median_price":525000,"ppsf":194,"dom":7,"pop":2710,"lat":40.32184,"lng":-85.5105},{"zip":"47345","name":"Greens Fork","pending_pct":0.6667,"pending":2,"active":1,"total":3,"new":0,"median_price":429900,"ppsf":245,"dom":29,"pop":1362,"lat":39.892,"lng":-85.04765},{"zip":"47346","name":"Hagerstown","pending_pct":0.625,"pending":5,"active":3,"total":8,"new":4,"median_price":349900,"ppsf":176,"dom":33,"pop":3876,"lat":39.93442,"lng":-85.16306},{"zip":"47348","name":"Hartford City","pending_pct":0.6111,"pending":22,"active":16,"total":36,"new":8,"median_price":174700,"ppsf":117,"dom":44,"pop":9080,"lat":40.45725,"lng":-85.34855},{"zip":"47351","name":"Kennard","pending_pct":0.3333,"pending":1,"active":2,"total":3,"new":0,"median_price":207499,"ppsf":127,"dom":139,"pop":397,"lat":39.90442,"lng":-85.52001},{"zip":"47352","name":"Lewisville","pending_pct":0.3333,"pending":2,"active":4,"total":6,"new":2,"median_price":130975,"ppsf":128,"dom":67,"pop":974,"lat":39.79597,"lng":-85.3637},{"zip":"47353","name":"Liberty","pending_pct":0.1667,"pending":3,"active":16,"total":18,"new":6,"median_price":109475,"ppsf":203,"dom":81,"pop":4857,"lat":39.62757,"lng":-84.92057},{"zip":"47354","name":"Losantville","pending_pct":0.4,"pending":2,"active":4,"total":5,"new":2,"median_price":162475,"ppsf":135,"dom":25,"pop":1182,"lat":40.04628,"lng":-85.19933},{"zip":"47355","name":"Lynn","pending_pct":0.4,"pending":2,"active":3,"total":5,"new":2,"median_price":135000,"ppsf":97,"dom":59,"pop":3029,"lat":40.04376,"lng":-84.9258},{"zip":"47356","name":"Middletown","pending_pct":0.3158,"pending":6,"active":13,"total":19,"new":6,"median_price":158925,"ppsf":132,"dom":40,"pop":5522,"lat":40.03079,"lng":-85.50415},{"zip":"47357","name":"Milton","pending_pct":0.3333,"pending":1,"active":2,"total":3,"new":0,"median_price":555500,"ppsf":204,"dom":91,"pop":1131,"lat":39.75773,"lng":-85.14795},{"zip":"47358","name":"Modoc","pending_pct":0.4,"pending":2,"active":3,"total":5,"new":0,"median_price":92500,"ppsf":61,"dom":63,"pop":818,"lat":40.05488,"lng":-85.11204},{"zip":"47359","name":"Montpelier","pending_pct":0.4615,"pending":6,"active":9,"total":13,"new":8,"median_price":149900,"ppsf":109,"dom":53,"pop":3528,"lat":40.55203,"lng":-85.28642},{"zip":"47360","name":"Mooreland","pending_pct":0.5,"pending":2,"active":2,"total":4,"new":0,"median_price":284400,"ppsf":171,"dom":69,"pop":1643,"lat":40.01677,"lng":-85.2614},{"zip":"47361","name":"","pending_pct":null,"pending":null,"active":1,"total":1,"new":0,"median_price":239900,"ppsf":131,"dom":12,"pop":271,"lat":40.00415,"lng":-85.38492},{"zip":"47362","name":"New Castle","pending_pct":0.301,"pending":31,"active":73,"total":103,"new":42,"median_price":163500,"ppsf":123,"dom":47,"pop":29337,"lat":39.93186,"lng":-85.36998},{"zip":"47366","name":"","pending_pct":null,"pending":null,"active":0,"total":0,"new":4,"median_price":583500,"ppsf":318,"dom":7,"pop":26,"lat":39.86127,"lng":-85.26068},{"zip":"47367","name":"","pending_pct":1.0,"pending":1,"active":1,"total":1,"new":0,"median_price":114500,"ppsf":102,"dom":60,"pop":70,"lat":40.08366,"lng":-85.39207},{"zip":"47368","name":"Parker City","pending_pct":0.2857,"pending":2,"active":5,"total":7,"new":6,"median_price":208675,"ppsf":136,"dom":28,"pop":2086,"lat":40.18082,"lng":-85.20025},{"zip":"47369","name":"Pennville","pending_pct":0.25,"pending":1,"active":3,"total":4,"new":2,"median_price":153975,"ppsf":76,"dom":30,"pop":1212,"lat":40.50714,"lng":-85.14715},{"zip":"47370","name":"","pending_pct":0.5,"pending":1,"active":1,"total":2,"new":0,"median_price":149900,"ppsf":97,"dom":58,"pop":131,"lat":39.81281,"lng":-85.13779},{"zip":"47371","name":"Portland","pending_pct":0.3913,"pending":9,"active":14,"total":23,"new":12,"median_price":146925,"ppsf":101,"dom":74,"pop":12424,"lat":40.41874,"lng":-84.95896},{"zip":"47373","name":"Redkey","pending_pct":0.5,"pending":2,"active":3,"total":4,"new":2,"median_price":136500,"ppsf":76,"dom":29,"pop":2200,"lat":40.33863,"lng":-85.15356},{"zip":"47374","name":"Richmond","pending_pct":0.3441,"pending":64,"active":122,"total":186,"new":52,"median_price":185175,"ppsf":124,"dom":49,"pop":44615,"lat":39.83376,"lng":-84.88997},{"zip":"47380","name":"Ridgeville","pending_pct":1.0,"pending":4,"active":1,"total":4,"new":0,"median_price":8900,"ppsf":9,"dom":253,"pop":1924,"lat":40.28553,"lng":-85.03439},{"zip":"47383","name":"Selma","pending_pct":0.2727,"pending":3,"active":8,"total":11,"new":2,"median_price":313725,"ppsf":157,"dom":28,"pop":2612,"lat":40.15123,"lng":-85.26399},{"zip":"47384","name":"Shirley","pending_pct":0.5,"pending":3,"active":4,"total":6,"new":2,"median_price":199900,"ppsf":166,"dom":31,"pop":2161,"lat":39.91365,"lng":-85.55352},{"zip":"47385","name":"Spiceland","pending_pct":0.25,"pending":1,"active":3,"total":4,"new":4,"median_price":289900,"ppsf":208,"dom":20,"pop":1714,"lat":39.83194,"lng":-85.44825},{"zip":"47386","name":"Springport","pending_pct":0.5,"pending":1,"active":1,"total":2,"new":0,"median_price":160000,"ppsf":106,"dom":26,"pop":1249,"lat":40.05277,"lng":-85.38305},{"zip":"47387","name":"Straughn","pending_pct":0.3333,"pending":1,"active":3,"total":3,"new":4,"median_price":487000,"ppsf":150,"dom":14,"pop":603,"lat":39.83677,"lng":-85.2945},{"zip":"47388","name":"","pending_pct":0.5,"pending":1,"active":2,"total":2,"new":0,"median_price":168650,"ppsf":122,"dom":28,"pop":398,"lat":40.0056,"lng":-85.44352},{"zip":"47390","name":"Union City","pending_pct":0.3462,"pending":9,"active":17,"total":26,"new":8,"median_price":139900,"ppsf":105,"dom":34,"pop":4972,"lat":40.20625,"lng":-84.84671},{"zip":"47393","name":"Williamsburg","pending_pct":0.4,"pending":2,"active":4,"total":5,"new":4,"median_price":383550,"ppsf":222,"dom":10,"pop":1907,"lat":39.96559,"lng":-85.00325},{"zip":"47394","name":"Winchester","pending_pct":0.3429,"pending":12,"active":25,"total":35,"new":8,"median_price":184900,"ppsf":114,"dom":37,"pop":7879,"lat":40.1679,"lng":-84.98667},{"zip":"47396","name":"Yorktown","pending_pct":0.5517,"pending":16,"active":14,"total":29,"new":8,"median_price":363675,"ppsf":145,"dom":47,"pop":7712,"lat":40.18661,"lng":-85.51632},{"zip":"47401","name":"Bloomington","pending_pct":0.2285,"pending":69,"active":234,"total":302,"new":82,"median_price":420750,"ppsf":200,"dom":52,"pop":40607,"lat":39.08613,"lng":-86.45138},{"zip":"47403","name":"Bloomington","pending_pct":0.2403,"pending":37,"active":116,"total":154,"new":42,"median_price":314175,"ppsf":199,"dom":65,"pop":34396,"lat":39.08635,"lng":-86.61082},{"zip":"47404","name":"Bloomington","pending_pct":0.3306,"pending":40,"active":83,"total":121,"new":40,"median_price":339975,"ppsf":200,"dom":48,"pop":22744,"lat":39.22064,"lng":-86.5896},{"zip":"47408","name":"Bloomington","pending_pct":0.3896,"pending":30,"active":48,"total":77,"new":12,"median_price":427450,"ppsf":188,"dom":65,"pop":23053,"lat":39.2283,"lng":-86.46452},{"zip":"47420","name":"Avoca","pending_pct":0.3333,"pending":1,"active":3,"total":3,"new":0,"median_price":179900,"ppsf":160,"dom":70,"pop":89,"lat":38.91903,"lng":-86.54933},{"zip":"47421","name":"Bedford","pending_pct":0.313,"pending":41,"active":91,"total":131,"new":38,"median_price":259475,"ppsf":164,"dom":50,"pop":27599,"lat":38.86415,"lng":-86.45122},{"zip":"47424","name":"Bloomfield","pending_pct":0.3929,"pending":11,"active":17,"total":28,"new":6,"median_price":252925,"ppsf":154,"dom":72,"pop":8861,"lat":39.01918,"lng":-86.86998},{"zip":"47427","name":"Coal City","pending_pct":0.5,"pending":1,"active":2,"total":2,"new":0,"median_price":1014950,"ppsf":246,"dom":77,"pop":1014,"lat":39.23915,"lng":-87.01266},{"zip":"47429","name":"Ellettsville","pending_pct":0.3158,"pending":18,"active":40,"total":57,"new":12,"median_price":329522,"ppsf":213,"dom":55,"pop":7399,"lat":39.27581,"lng":-86.61444},{"zip":"47431","name":"Freedom","pending_pct":0.2,"pending":1,"active":4,"total":5,"new":0,"median_price":298500,"ppsf":224,"dom":96,"pop":1662,"lat":39.24052,"lng":-86.90655},{"zip":"47432","name":"French Lick","pending_pct":0.1724,"pending":5,"active":24,"total":29,"new":10,"median_price":250000,"ppsf":159,"dom":81,"pop":4809,"lat":38.49268,"lng":-86.63942},{"zip":"47433","name":"Gosport","pending_pct":0.4118,"pending":7,"active":10,"total":17,"new":4,"median_price":343675,"ppsf":175,"dom":66,"pop":4176,"lat":39.35569,"lng":-86.655},{"zip":"47436","name":"Heltonville","pending_pct":0.6,"pending":3,"active":3,"total":5,"new":0,"median_price":564750,"ppsf":267,"dom":77,"pop":1796,"lat":38.9598,"lng":-86.38358},{"zip":"47438","name":"Jasonville","pending_pct":0.2353,"pending":4,"active":14,"total":17,"new":6,"median_price":182250,"ppsf":111,"dom":36,"pop":4180,"lat":39.1582,"lng":-87.18237},{"zip":"47441","name":"Linton","pending_pct":0.3415,"pending":14,"active":27,"total":41,"new":10,"median_price":198250,"ppsf":126,"dom":55,"pop":8910,"lat":39.03976,"lng":-87.1743},{"zip":"47443","name":"Lyons","pending_pct":0.25,"pending":1,"active":3,"total":4,"new":0,"median_price":274500,"ppsf":113,"dom":25,"pop":1274,"lat":38.96651,"lng":-87.09059},{"zip":"47446","name":"Mitchell","pending_pct":0.3191,"pending":15,"active":33,"total":47,"new":12,"median_price":202450,"ppsf":142,"dom":55,"pop":9133,"lat":38.73818,"lng":-86.52031},{"zip":"47448","name":"Nashville","pending_pct":0.3333,"pending":17,"active":34,"total":51,"new":10,"median_price":478750,"ppsf":201,"dom":74,"pop":8117,"lat":39.17531,"lng":-86.24481},{"zip":"47449","name":"Newberry","pending_pct":null,"pending":null,"active":8,"total":8,"new":2,"median_price":268875,"ppsf":175,"dom":98,"pop":339,"lat":38.92672,"lng":-86.9894},{"zip":"47451","name":"Oolitic","pending_pct":null,"pending":null,"active":3,"total":3,"new":0,"median_price":275000,"ppsf":152,"dom":49,"pop":1595,"lat":38.89176,"lng":-86.52536},{"zip":"47452","name":"Orleans","pending_pct":0.3077,"pending":4,"active":9,"total":13,"new":6,"median_price":350925,"ppsf":122,"dom":47,"pop":5152,"lat":38.6422,"lng":-86.41901},{"zip":"47453","name":"Owensburg","pending_pct":0.5,"pending":1,"active":1,"total":2,"new":0,"median_price":1549900,"ppsf":403,"dom":237,"pop":538,"lat":38.93472,"lng":-86.76773},{"zip":"47454","name":"Paoli","pending_pct":0.2571,"pending":9,"active":27,"total":35,"new":8,"median_price":194975,"ppsf":165,"dom":73,"pop":7555,"lat":38.51596,"lng":-86.45989},{"zip":"47456","name":"Quincy","pending_pct":null,"pending":null,"active":3,"total":3,"new":2,"median_price":519900,"ppsf":233,"dom":72,"pop":1455,"lat":39.46314,"lng":-86.69781},{"zip":"47457","name":"Scotland","pending_pct":1.0,"pending":1,"active":1,"total":1,"new":0,"median_price":209999,"ppsf":137,"dom":null,"pop":0,"lat":38.91183,"lng":-86.9047},{"zip":"47459","name":"Solsberry","pending_pct":0.4615,"pending":6,"active":8,"total":13,"new":0,"median_price":362000,"ppsf":154,"dom":61,"pop":3485,"lat":39.11167,"lng":-86.75125},{"zip":"47460","name":"Spencer","pending_pct":0.4118,"pending":21,"active":31,"total":51,"new":14,"median_price":368650,"ppsf":177,"dom":69,"pop":11006,"lat":39.28153,"lng":-86.78951},{"zip":"47462","name":"Springville","pending_pct":0.4783,"pending":11,"active":14,"total":23,"new":8,"median_price":369900,"ppsf":200,"dom":43,"pop":4595,"lat":38.95755,"lng":-86.64815},{"zip":"47464","name":"Stinesville","pending_pct":null,"pending":null,"active":1,"total":1,"new":0,"median_price":110000,"ppsf":165,"dom":8,"pop":297,"lat":39.29995,"lng":-86.64979},{"zip":"47468","name":"Unionville","pending_pct":0.1111,"pending":1,"active":8,"total":9,"new":2,"median_price":593225,"ppsf":364,"dom":69,"pop":1303,"lat":39.27801,"lng":-86.40482},{"zip":"47469","name":"West Baden Springs","pending_pct":0.1,"pending":1,"active":9,"total":10,"new":0,"median_price":282450,"ppsf":185,"dom":124,"pop":1567,"lat":38.61892,"lng":-86.61172},{"zip":"47470","name":"Williams","pending_pct":0.25,"pending":1,"active":3,"total":4,"new":2,"median_price":570725,"ppsf":164,"dom":42,"pop":1646,"lat":38.81623,"lng":-86.64799},{"zip":"47471","name":"Worthington","pending_pct":0.3333,"pending":4,"active":9,"total":12,"new":0,"median_price":152400,"ppsf":64,"dom":55,"pop":2755,"lat":39.14253,"lng":-86.99788},{"zip":"47501","name":"Washington","pending_pct":0.3582,"pending":24,"active":44,"total":67,"new":10,"median_price":222450,"ppsf":144,"dom":73,"pop":18612,"lat":38.66139,"lng":-87.17479},{"zip":"47512","name":"Bicknell","pending_pct":0.1429,"pending":3,"active":18,"total":21,"new":6,"median_price":102400,"ppsf":98,"dom":72,"pop":4243,"lat":38.779,"lng":-87.31809},{"zip":"47513","name":"Birdseye","pending_pct":0.2,"pending":3,"active":12,"total":15,"new":0,"median_price":249250,"ppsf":269,"dom":50,"pop":1581,"lat":38.30405,"lng":-86.6995},{"zip":"47514","name":"Branchville","pending_pct":null,"pending":null,"active":2,"total":2,"new":0,"median_price":223500,"ppsf":329,"dom":100,"pop":1377,"lat":38.14861,"lng":-86.59403},