{"202606":[{"zip":"66002","name":"Atchison","pending_pct":0.2778,"pending":15,"active":39,"total":54,"new":10,"median_price":169450,"ppsf":120,"dom":67,"pop":13276,"lat":39.5488,"lng":-95.13881},{"zip":"66006","name":"Baldwin City","pending_pct":0.4634,"pending":19,"active":22,"total":41,"new":4,"median_price":453425,"ppsf":237,"dom":58,"pop":8013,"lat":38.79433,"lng":-95.23936},{"zip":"66007","name":"Basehor","pending_pct":0.5548,"pending":86,"active":67,"total":155,"new":36,"median_price":499613,"ppsf":224,"dom":43,"pop":10150,"lat":39.1405,"lng":-94.94548},{"zip":"66010","name":"Blue Mound","pending_pct":null,"pending":null,"active":2,"total":2,"new":0,"median_price":287200,"ppsf":184,"dom":61,"pop":626,"lat":38.09231,"lng":-94.98853},{"zip":"66012","name":"Bonner Springs","pending_pct":0.525,"pending":21,"active":18,"total":40,"new":16,"median_price":432500,"ppsf":201,"dom":28,"pop":10425,"lat":39.06091,"lng":-94.91658},{"zip":"66013","name":"Bucyrus","pending_pct":0.4352,"pending":47,"active":61,"total":108,"new":10,"median_price":846950,"ppsf":280,"dom":80,"pop":2735,"lat":38.73428,"lng":-94.68948},{"zip":"66014","name":"Centerville","pending_pct":0.25,"pending":1,"active":3,"total":4,"new":0,"median_price":499000,"ppsf":215,"dom":71,"pop":599,"lat":38.22305,"lng":-94.98371},{"zip":"66015","name":"Colony","pending_pct":1.0,"pending":1,"active":0,"total":1,"new":0,"median_price":235000,"ppsf":134,"dom":87,"pop":712,"lat":38.06786,"lng":-95.40395},{"zip":"66018","name":"De Soto","pending_pct":0.3171,"pending":13,"active":28,"total":41,"new":8,"median_price":537113,"ppsf":235,"dom":42,"pop":6584,"lat":38.96524,"lng":-94.97232},{"zip":"66020","name":"Easton","pending_pct":0.3333,"pending":1,"active":2,"total":3,"new":0,"median_price":1492750,"ppsf":446,"dom":46,"pop":1809,"lat":39.34142,"lng":-95.10779},{"zip":"66021","name":"Edgerton","pending_pct":0.5,"pending":10,"active":10,"total":20,"new":2,"median_price":338858,"ppsf":244,"dom":65,"pop":2819,"lat":38.75939,"lng":-95.00692},{"zip":"66023","name":"Effingham","pending_pct":0.5,"pending":4,"active":4,"total":8,"new":0,"median_price":377500,"ppsf":194,"dom":84,"pop":1189,"lat":39.51375,"lng":-95.40005},{"zip":"66024","name":"Elwood","pending_pct":0.5,"pending":1,"active":2,"total":2,"new":0,"median_price":100750,"ppsf":81,"dom":198,"pop":815,"lat":39.76211,"lng":-94.87719},{"zip":"66025","name":"Eudora","pending_pct":0.5667,"pending":17,"active":14,"total":30,"new":22,"median_price":378225,"ppsf":188,"dom":16,"pop":8083,"lat":38.89824,"lng":-95.07863},{"zip":"66026","name":"Fontana","pending_pct":null,"pending":null,"active":2,"total":2,"new":4,"median_price":397500,"ppsf":233,"dom":8,"pop":840,"lat":38.39047,"lng":-94.86056},{"zip":"66030","name":"Gardner","pending_pct":0.5594,"pending":80,"active":63,"total":143,"new":36,"median_price":459708,"ppsf":215,"dom":45,"pop":26328,"lat":38.81519,"lng":-94.94114},{"zip":"66032","name":"Garnett","pending_pct":0.3448,"pending":10,"active":19,"total":29,"new":14,"median_price":268750,"ppsf":140,"dom":60,"pop":4971,"lat":38.2806,"lng":-95.27237},{"zip":"66033","name":"Greeley","pending_pct":0.3333,"pending":1,"active":2,"total":3,"new":0,"median_price":650000,"ppsf":300,"dom":28,"pop":672,"lat":38.35855,"lng":-95.12842},{"zip":"66035","name":"Highland","pending_pct":null,"pending":null,"active":3,"total":3,"new":0,"median_price":131250,"ppsf":120,"dom":79,"pop":1342,"lat":39.87693,"lng":-95.26054},{"zip":"66039","name":"Kincaid","pending_pct":0.25,"pending":1,"active":4,"total":4,"new":0,"median_price":409950,"ppsf":284,"dom":156,"pop":784,"lat":38.0987,"lng":-95.17011},{"zip":"66040","name":"La Cygne","pending_pct":0.2653,"pending":13,"active":36,"total":49,"new":4,"median_price":278750,"ppsf":217,"dom":76,"pop":3651,"lat":38.35396,"lng":-94.73949},{"zip":"66042","name":"Lane","pending_pct":0.3333,"pending":1,"active":2,"total":3,"new":0,"median_price":487500,"ppsf":234,"dom":37,"pop":929,"lat":38.43368,"lng":-95.08032},{"zip":"66043","name":"Lansing","pending_pct":0.3929,"pending":11,"active":18,"total":28,"new":12,"median_price":382975,"ppsf":164,"dom":36,"pop":11056,"lat":39.24967,"lng":-94.90193},{"zip":"66044","name":"Lawrence","pending_pct":0.3625,"pending":29,"active":51,"total":80,"new":30,"median_price":557450,"ppsf":263,"dom":46,"pop":28820,"lat":39.03187,"lng":-95.20991},{"zip":"66046","name":"Lawrence","pending_pct":0.4762,"pending":20,"active":23,"total":42,"new":14,"median_price":331196,"ppsf":210,"dom":53,"pop":19658,"lat":38.909,"lng":-95.21061},{"zip":"66047","name":"Lawrence","pending_pct":0.4,"pending":30,"active":45,"total":75,"new":24,"median_price":407425,"ppsf":191,"dom":38,"pop":20473,"lat":38.88484,"lng":-95.35096},{"zip":"66048","name":"Leavenworth","pending_pct":0.3955,"pending":70,"active":107,"total":177,"new":44,"median_price":288238,"ppsf":154,"dom":42,"pop":35717,"lat":39.27891,"lng":-94.98527},{"zip":"66049","name":"Lawrence","pending_pct":0.4341,"pending":56,"active":75,"total":129,"new":46,"median_price":489000,"ppsf":198,"dom":37,"pop":32015,"lat":38.97773,"lng":-95.34729},{"zip":"66050","name":"Lecompton","pending_pct":0.7143,"pending":5,"active":2,"total":7,"new":2,"median_price":560213,"ppsf":245,"dom":36,"pop":1761,"lat":39.01961,"lng":-95.43697},{"zip":"66052","name":"Linwood","pending_pct":0.4167,"pending":5,"active":8,"total":12,"new":2,"median_price":710000,"ppsf":229,"dom":39,"pop":2090,"lat":39.00998,"lng":-95.04678},{"zip":"66053","name":"Louisburg","pending_pct":0.4286,"pending":18,"active":23,"total":42,"new":12,"median_price":333452,"ppsf":186,"dom":57,"pop":7834,"lat":38.57753,"lng":-94.67029},{"zip":"66054","name":"Mc Louth","pending_pct":0.5,"pending":7,"active":7,"total":14,"new":4,"median_price":341000,"ppsf":177,"dom":72,"pop":2777,"lat":39.2055,"lng":-95.19518},{"zip":"66056","name":"Mound City","pending_pct":0.1905,"pending":4,"active":17,"total":21,"new":4,"median_price":189000,"ppsf":154,"dom":92,"pop":1383,"lat":38.1509,"lng":-94.84705},{"zip":"66058","name":"Muscotah","pending_pct":null,"pending":null,"active":1,"total":1,"new":0,"median_price":379000,"ppsf":199,"dom":86,"pop":378,"lat":39.54018,"lng":-95.51894},{"zip":"66060","name":"Nortonville","pending_pct":null,"pending":null,"active":2,"total":2,"new":0,"median_price":312500,"ppsf":148,"dom":205,"pop":1325,"lat":39.41866,"lng":-95.3325},{"zip":"66061","name":"Olathe","pending_pct":0.4988,"pending":215,"active":218,"total":431,"new":126,"median_price":625000,"ppsf":233,"dom":60,"pop":67967,"lat":38.89633,"lng":-94.88029},{"zip":"66062","name":"Olathe","pending_pct":0.5064,"pending":239,"active":233,"total":472,"new":108,"median_price":636558,"ppsf":240,"dom":60,"pop":78841,"lat":38.83677,"lng":-94.78455},{"zip":"66064","name":"Osawatomie","pending_pct":0.3714,"pending":13,"active":22,"total":35,"new":16,"median_price":248238,"ppsf":178,"dom":96,"pop":5992,"lat":38.47829,"lng":-94.98688},{"zip":"66066","name":"Oskaloosa","pending_pct":0.3636,"pending":4,"active":7,"total":11,"new":0,"median_price":587860,"ppsf":229,"dom":78,"pop":2432,"lat":39.20359,"lng":-95.33142},{"zip":"66067","name":"Ottawa","pending_pct":0.4333,"pending":26,"active":34,"total":60,"new":24,"median_price":275725,"ppsf":170,"dom":40,"pop":16330,"lat":38.61877,"lng":-95.27566},{"zip":"66070","name":"Ozawkie","pending_pct":0.4,"pending":2,"active":3,"total":5,"new":0,"median_price":358625,"ppsf":197,"dom":49,"pop":1944,"lat":39.21135,"lng":-95.45132},{"zip":"66071","name":"Paola","pending_pct":0.3636,"pending":24,"active":43,"total":66,"new":26,"median_price":489475,"ppsf":213,"dom":57,"pop":12400,"lat":38.57367,"lng":-94.86575},{"zip":"66072","name":"Parker","pending_pct":0.3333,"pending":1,"active":2,"total":3,"new":2,"median_price":312500,"ppsf":134,"dom":15,"pop":1211,"lat":38.31772,"lng":-94.9741},{"zip":"66073","name":"Perry","pending_pct":0.5,"pending":9,"active":10,"total":18,"new":4,"median_price":344950,"ppsf":185,"dom":70,"pop":2263,"lat":39.09208,"lng":-95.38144},{"zip":"66075","name":"Pleasanton","pending_pct":0.125,"pending":1,"active":7,"total":8,"new":2,"median_price":233000,"ppsf":129,"dom":61,"pop":2497,"lat":38.20362,"lng":-94.69272},{"zip":"66076","name":"Pomona","pending_pct":0.5,"pending":2,"active":3,"total":4,"new":4,"median_price":262250,"ppsf":164,"dom":27,"pop":2416,"lat":38.62811,"lng":-95.43917},{"zip":"66078","name":"Princeton","pending_pct":null,"pending":null,"active":1,"total":1,"new":0,"median_price":339000,"ppsf":253,"dom":51,"pop":805,"lat":38.48321,"lng":-95.2621},{"zip":"66080","name":"Richmond","pending_pct":0.3333,"pending":1,"active":2,"total":3,"new":0,"median_price":377375,"ppsf":137,"dom":32,"pop":980,"lat":38.4053,"lng":-95.25646},{"zip":"66083","name":"Spring Hill","pending_pct":0.5707,"pending":117,"active":88,"total":205,"new":26,"median_price":499725,"ppsf":241,"dom":73,"pop":13011,"lat":38.73518,"lng":-94.83397},{"zip":"66085","name":"Stilwell","pending_pct":0.5217,"pending":72,"active":67,"total":138,"new":24,"median_price":762115,"ppsf":261,"dom":59,"pop":11486,"lat":38.80069,"lng":-94.64729},{"zip":"66086","name":"Tonganoxie","pending_pct":0.4321,"pending":35,"active":44,"total":81,"new":18,"median_price":477450,"ppsf":230,"dom":47,"pop":10940,"lat":39.11578,"lng":-95.08043},{"zip":"66087","name":"Troy","pending_pct":null,"pending":null,"active":5,"total":5,"new":0,"median_price":420000,"ppsf":135,"dom":44,"pop":2027,"lat":39.80641,"lng":-95.1378},{"zip":"66088","name":"Valley Falls","pending_pct":0.875,"pending":7,"active":2,"total":8,"new":2,"median_price":320950,"ppsf":111,"dom":50,"pop":2697,"lat":39.3416,"lng":-95.4563},{"zip":"66090","name":"Wathena","pending_pct":null,"pending":null,"active":4,"total":4,"new":2,"median_price":412450,"ppsf":156,"dom":128,"pop":2380,"lat":39.78391,"lng":-94.97041},{"zip":"66091","name":"Welda","pending_pct":null,"pending":null,"active":1,"total":1,"new":0,"median_price":484000,"ppsf":259,"dom":null,"pop":294,"lat":38.16952,"lng":-95.32701},{"zip":"66092","name":"Wellsville","pending_pct":0.5714,"pending":8,"active":7,"total":14,"new":8,"median_price":305995,"ppsf":168,"dom":52,"pop":4351,"lat":38.69305,"lng":-95.10548},{"zip":"66093","name":"Westphalia","pending_pct":null,"pending":null,"active":2,"total":2,"new":0,"median_price":47450,"ppsf":30,"dom":102,"pop":576,"lat":38.21003,"lng":-95.49771},{"zip":"66094","name":"White Cloud","pending_pct":null,"pending":null,"active":1,"total":1,"new":0,"median_price":265000,"ppsf":200,"dom":121,"pop":437,"lat":39.95912,"lng":-95.34298},{"zip":"66095","name":"Williamsburg","pending_pct":0.6667,"pending":2,"active":1,"total":3,"new":0,"median_price":495000,"ppsf":357,"dom":135,"pop":583,"lat":38.44631,"lng":-95.43015},{"zip":"66097","name":"Winchester","pending_pct":0.5,"pending":2,"active":2,"total":4,"new":0,"median_price":93725,"ppsf":87,"dom":117,"pop":995,"lat":39.32966,"lng":-95.23992},{"zip":"66101","name":"Kansas City","pending_pct":0.25,"pending":7,"active":20,"total":28,"new":8,"median_price":167438,"ppsf":123,"dom":65,"pop":12556,"lat":39.11871,"lng":-94.62592},{"zip":"66102","name":"Kansas City","pending_pct":0.3425,"pending":25,"active":49,"total":73,"new":44,"median_price":202500,"ppsf":140,"dom":28,"pop":29443,"lat":39.11246,"lng":-94.68842},{"zip":"66103","name":"Kansas City","pending_pct":0.45,"pending":18,"active":23,"total":40,"new":12,"median_price":242600,"ppsf":214,"dom":43,"pop":12730,"lat":39.06045,"lng":-94.62707},{"zip":"66104","name":"Kansas City","pending_pct":0.3162,"pending":37,"active":82,"total":117,"new":38,"median_price":241250,"ppsf":162,"dom":50,"pop":27033,"lat":39.15043,"lng":-94.68861},{"zip":"66105","name":"Kansas City","pending_pct":0.5,"pending":2,"active":2,"total":4,"new":2,"median_price":187975,"ppsf":148,"dom":120,"pop":2605,"lat":39.08593,"lng":-94.63646},{"zip":"66106","name":"Kansas City","pending_pct":0.4815,"pending":26,"active":28,"total":54,"new":26,"median_price":249700,"ppsf":191,"dom":27,"pop":24245,"lat":39.06631,"lng":-94.70384},{"zip":"66109","name":"Kansas City","pending_pct":0.4077,"pending":53,"active":77,"total":130,"new":40,"median_price":428688,"ppsf":181,"dom":45,"pop":28355,"lat":39.16367,"lng":-94.8283},{"zip":"66111","name":"Kansas City","pending_pct":0.4783,"pending":11,"active":12,"total":23,"new":12,"median_price":358748,"ppsf":186,"dom":52,"pop":9996,"lat":39.08529,"lng":-94.79621},{"zip":"66112","name":"Kansas City","pending_pct":0.4737,"pending":18,"active":20,"total":38,"new":14,"median_price":287500,"ppsf":157,"dom":37,"pop":12881,"lat":39.11494,"lng":-94.7701},{"zip":"66202","name":"Mission","pending_pct":0.5357,"pending":30,"active":24,"total":56,"new":26,"median_price":347250,"ppsf":232,"dom":30,"pop":17408,"lat":39.02392,"lng":-94.66909},{"zip":"66203","name":"Shawnee","pending_pct":0.6552,"pending":38,"active":19,"total":58,"new":34,"median_price":350000,"ppsf":222,"dom":18,"pop":19441,"lat":39.0216,"lng":-94.70558},{"zip":"66204","name":"Overland Park","pending_pct":0.5581,"pending":24,"active":20,"total":43,"new":28,"median_price":325000,"ppsf":277,"dom":19,"pop":17948,"lat":38.99282,"lng":-94.67741},{"zip":"66205","name":"Mission","pending_pct":0.5132,"pending":39,"active":37,"total":76,"new":36,"median_price":516975,"ppsf":278,"dom":20,"pop":14032,"lat":39.03122,"lng":-94.6307},{"zip":"66206","name":"Leawood","pending_pct":0.5091,"pending":28,"active":28,"total":55,"new":20,"median_price":843750,"ppsf":305,"dom":43,"pop":12153,"lat":38.95851,"lng":-94.61923},{"zip":"66207","name":"Overland Park","pending_pct":0.4865,"pending":18,"active":20,"total":37,"new":10,"median_price":633688,"ppsf":241,"dom":33,"pop":15739,"lat":38.95625,"lng":-94.64439},{"zip":"66208","name":"Prairie Village","pending_pct":0.5827,"pending":74,"active":52,"total":127,"new":40,"median_price":583738,"ppsf":321,"dom":39,"pop":21576,"lat":38.99936,"lng":-94.62998},{"zip":"66209","name":"Leawood","pending_pct":0.5172,"pending":45,"active":42,"total":87,"new":26,"median_price":899975,"ppsf":223,"dom":36,"pop":20413,"lat":38.89874,"lng":-94.63778},{"zip":"66210","name":"Overland Park","pending_pct":0.6279,"pending":27,"active":15,"total":43,"new":22,"median_price":483738,"ppsf":192,"dom":27,"pop":20347,"lat":38.92372,"lng":-94.70483},{"zip":"66211","name":"Leawood","pending_pct":0.32,"pending":8,"active":16,"total":25,"new":10,"median_price":1187450,"ppsf":244,"dom":34,"pop":5791,"lat":38.92422,"lng":-94.6363},{"zip":"66212","name":"Overland Park","pending_pct":0.58,"pending":58,"active":44,"total":100,"new":58,"median_price":382500,"ppsf":200,"dom":28,"pop":32917,"lat":38.9563,"lng":-94.68154},{"zip":"66213","name":"Overland Park","pending_pct":0.7183,"pending":51,"active":19,"total":71,"new":26,"median_price":569725,"ppsf":167,"dom":39,"pop":30539,"lat":38.89885,"lng":-94.70517},{"zip":"66214","name":"Overland Park","pending_pct":0.7059,"pending":12,"active":6,"total":17,"new":8,"median_price":397500,"ppsf":198,"dom":31,"pop":12351,"lat":38.96356,"lng":-94.71397},{"zip":"66215","name":"Lenexa","pending_pct":0.55,"pending":33,"active":28,"total":60,"new":34,"median_price":430625,"ppsf":180,"dom":29,"pop":25960,"lat":38.95649,"lng":-94.74304},{"zip":"66216","name":"Shawnee","pending_pct":0.5,"pending":35,"active":34,"total":70,"new":30,"median_price":439975,"ppsf":182,"dom":33,"pop":24881,"lat":39.01405,"lng":-94.74136},{"zip":"66217","name":"Shawnee","pending_pct":0.4348,"pending":10,"active":13,"total":23,"new":4,"median_price":613883,"ppsf":259,"dom":37,"pop":5468,"lat":39.01148,"lng":-94.77741},{"zip":"66218","name":"Shawnee","pending_pct":0.5938,"pending":19,"active":12,"total":32,"new":10,"median_price":503750,"ppsf":199,"dom":25,"pop":8820,"lat":39.01239,"lng":-94.81647},{"zip":"66219","name":"Lenexa","pending_pct":0.4595,"pending":17,"active":21,"total":37,"new":8,"median_price":600000,"ppsf":224,"dom":57,"pop":13519,"lat":38.95124,"lng":-94.77807},{"zip":"66220","name":"Lenexa","pending_pct":0.5086,"pending":59,"active":60,"total":116,"new":18,"median_price":881975,"ppsf":264,"dom":71,"pop":8535,"lat":38.96187,"lng":-94.8218},{"zip":"66221","name":"Overland Park","pending_pct":0.5174,"pending":119,"active":110,"total":230,"new":40,"median_price":931250,"ppsf":259,"dom":52,"pop":25550,"lat":38.84786,"lng":-94.71437},{"zip":"66223","name":"Overland Park","pending_pct":0.4688,"pending":30,"active":34,"total":64,"new":34,"median_price":532500,"ppsf":200,"dom":24,"pop":24747,"lat":38.86176,"lng":-94.66831},{"zip":"66224","name":"Overland Park","pending_pct":0.5938,"pending":76,"active":52,"total":128,"new":26,"median_price":842050,"ppsf":256,"dom":34,"pop":12683,"lat":38.86213,"lng":-94.62866},{"zip":"66226","name":"Shawnee","pending_pct":0.4366,"pending":31,"active":41,"total":71,"new":26,"median_price":688713,"ppsf":213,"dom":36,"pop":16219,"lat":39.03039,"lng":-94.8603},{"zip":"66227","name":"Lenexa","pending_pct":0.3846,"pending":55,"active":88,"total":143,"new":20,"median_price":692713,"ppsf":266,"dom":106,"pop":9595,"lat":38.97248,"lng":-94.87446},{"zip":"66401","name":"Alma","pending_pct":0.25,"pending":3,"active":10,"total":12,"new":0,"median_price":383075,"ppsf":244,"dom":62,"pop":1948,"lat":38.96894,"lng":-96.30539},{"zip":"66402","name":"Auburn","pending_pct":0.5455,"pending":6,"active":6,"total":11,"new":2,"median_price":649900,"ppsf":177,"dom":27,"pop":3100,"lat":38.91782,"lng":-95.84926},{"zip":"66403","name":"Axtell","pending_pct":null,"pending":null,"active":1,"total":1,"new":2,"median_price":280000,"ppsf":160,"dom":20,"pop":801,"lat":39.89424,"lng":-96.27166},{"zip":"66406","name":"Beattie","pending_pct":null,"pending":null,"active":2,"total":2,"new":0,"median_price":399950,"ppsf":162,"dom":106,"pop":365,"lat":39.8927,"lng":-96.42014},{"zip":"66407","name":"Belvue","pending_pct":0.3333,"pending":1,"active":2,"total":3,"new":0,"median_price":205000,"ppsf":137,"dom":69,"pop":298,"lat":39.22517,"lng":-96.19218},{"zip":"66409","name":"Berryton","pending_pct":0.4167,"pending":5,"active":7,"total":12,"new":4,"median_price":478100,"ppsf":160,"dom":31,"pop":3133,"lat":38.92508,"lng":-95.55589},{"zip":"66411","name":"Blue Rapids","pending_pct":0.6667,"pending":2,"active":1,"total":3,"new":0,"median_price":229000,"ppsf":80,"dom":40,"pop":1127,"lat":39.64083,"lng":-96.63948},{"zip":"66412","name":"Bremen","pending_pct":null,"pending":null,"active":0,"total":0,"new":0,"median_price":299000,"ppsf":175,"dom":60,"pop":644,"lat":39.90837,"lng":-96.77794},{"zip":"66413","name":"Burlingame","pending_pct":0.5,"pending":2,"active":2,"total":4,"new":4,"median_price":155000,"ppsf":107,"dom":113,"pop":1721,"lat":38.77375,"lng":-95.88305},{"zip":"66414","name":"Carbondale","pending_pct":0.5714,"pending":4,"active":4,"total":7,"new":0,"median_price":312675,"ppsf":141,"dom":49,"pop":2360,"lat":38.82631,"lng":-95.68563},{"zip":"66415","name":"Centralia","pending_pct":null,"pending":null,"active":1,"total":1,"new":0,"median_price":550000,"ppsf":97,"dom":167,"pop":762,"lat":39.69193,"lng":-96.14381},{"zip":"66416","name":"Circleville","pending_pct":null,"pending":null,"active":1,"total":1,"new":0,"median_price":144450,"ppsf":88,"dom":51,"pop":522,"lat":39.52944,"lng":-95.86353},{"zip":"66418","name":"Delia","pending_pct":null,"pending":null,"active":1,"total":1,"new":4,"median_price":214900,"ppsf":154,"dom":9,"pop":556,"lat":39.28861,"lng":-95.93528},{"zip":"66419","name":"Denison","pending_pct":null,"pending":null,"active":1,"total":1,"new":0,"median_price":725000,"ppsf":346,"dom":34,"pop":600,"lat":39.35643,"lng":-95.59908},{"zip":"66423","name":"Eskridge","pending_pct":0.3333,"pending":1,"active":2,"total":3,"new":0,"median_price":297500,"ppsf":156,"dom":102,"pop":884,"lat":38.8492,"lng":-96.12934},{"zip":"66424","name":"Everest","pending_pct":null,"pending":null,"active":1,"total":1,"new":0,"median_price":25000,"ppsf":29,"dom":74,"pop":486,"lat":39.67789,"lng":-95.40072},{"zip":"66427","name":"Frankfort","pending_pct":0.5,"pending":1,"active":1,"total":2,"new":0,"median_price":130000,"ppsf":81,"dom":15,"pop":1334,"lat":39.66261,"lng":-96.449},{"zip":"66431","name":"Harveyville","pending_pct":0.2,"pending":1,"active":3,"total":5,"new":0,"median_price":369524,"ppsf":119,"dom":76,"pop":718,"lat":38.80851,"lng":-96.00241},{"zip":"66432","name":"Havensville","pending_pct":null,"pending":null,"active":3,"total":3,"new":0,"median_price":89000,"ppsf":73,"dom":44,"pop":540,"lat":39.48768,"lng":-96.07348},{"zip":"66434","name":"Hiawatha","pending_pct":0.2381,"pending":5,"active":17,"total":21,"new":0,"median_price":158000,"ppsf":99,"dom":56,"pop":4740,"lat":39.86731,"lng":-95.54679},{"zip":"66436","name":"Holton","pending_pct":0.4545,"pending":10,"active":13,"total":22,"new":6,"median_price":276150,"ppsf":151,"dom":42,"pop":5537,"lat":39.4655,"lng":-95.70278},{"zip":"66439","name":"Horton","pending_pct":0.3333,"pending":6,"active":12,"total":18,"new":2,"median_price":134000,"ppsf":96,"dom":110,"pop":2578,"lat":39.65518,"lng":-95.54327},{"zip":"66440","name":"Hoyt","pending_pct":0.5714,"pending":4,"active":5,"total":7,"new":0,"median_price":449900,"ppsf":184,"dom":30,"pop":1943,"lat":39.26326,"lng":-95.68168},{"zip":"66441","name":"Junction City","pending_pct":0.4686,"pending":82,"active":94,"total":175,"new":54,"median_price":249963,"ppsf":127,"dom":61,"pop":25828,"lat":38.98199,"lng":-96.80289},{"zip":"66449","name":"Leonardville","pending_pct":null,"pending":null,"active":1,"total":1,"new":0,"median_price":150000,"ppsf":70,"dom":33,"pop":937,"lat":39.38833,"lng":-96.86007},{"zip":"66451","name":"Lyndon","pending_pct":0.3333,"pending":3,"active":6,"total":9,"new":0,"median_price":236200,"ppsf":166,"dom":41,"pop":1671,"lat":38.60841,"lng":-95.67236},{"zip":"66501","name":"Mc Farland","pending_pct":null,"pending":null,"active":0,"total":0,"new":0,"median_price":75000,"ppsf":53,"dom":88,"pop":363,"lat":39.05279,"lng":-96.23688},{"zip":"66502","name":"Manhattan","pending_pct":0.495,"pending":99,"active":102,"total":200,"new":64,"median_price":305475,"ppsf":156,"dom":49,"pop":43693,"lat":39.14146,"lng":-96.52906},{"zip":"66503","name":"Manhattan","pending_pct":0.4636,"pending":51,"active":59,"total":110,"new":24,"median_price":407375,"ppsf":159,"dom":48,"pop":17273,"lat":39.26287,"lng":-96.68663},{"zip":"66507","name":"Maple Hill","pending_pct":null,"pending":null,"active":1,"total":1,"new":4,"median_price":545000,"ppsf":188,"dom":30,"pop":1438,"lat":39.04712,"lng":-96.03942},{"zip":"66508","name":"Marysville","pending_pct":0.2917,"pending":7,"active":16,"total":24,"new":6,"median_price":207250,"ppsf":129,"dom":124,"pop":3987,"lat":39.85803,"lng":-96.64287},{"zip":"66509","name":"Mayetta","pending_pct":0.6,"pending":3,"active":2,"total":5,"new":0,"median_price":725000,"ppsf":232,"dom":51,"pop":1974,"lat":39.33239,"lng":-95.78097},{"zip":"66512","name":"Meriden","pending_pct":0.6,"pending":3,"active":2,"total":5,"new":2,"median_price":424950,"ppsf":147,"dom":16,"pop":3678,"lat":39.20255,"lng":-95.54701},{"zip":"66514","name":"Milford","pending_pct":0.1429,"pending":1,"active":6,"total":7,"new":4,"median_price":330500,"ppsf":141,"dom":71,"pop":1350,"lat":39.12635,"lng":-96.87826},{"zip":"66517","name":"Ogden","pending_pct":0.2727,"pending":3,"active":9,"total":11,"new":2,"median_price":169500,"ppsf":123,"dom":60,"pop":1696,"lat":39.11253,"lng":-96.70465},{"zip":"66518","name":"Oketo","pending_pct":1.0,"pending":1,"active":0,"total":1,"new":0,"median_price":269000,"ppsf":null,"dom":101,"pop":211,"lat":39.97008,"lng":-96.55533},{"zip":"66520","name":"Olsburg","pending_pct":0.3333,"pending":1,"active":1,"total":3,"new":2,"median_price":1200000,"ppsf":286,"dom":94,"pop":635,"lat":39.40963,"lng":-96.61617},{"zip":"66521","name":"Onaga","pending_pct":0.3333,"pending":1,"active":2,"total":3,"new":0,"median_price":247000,"ppsf":135,"dom":68,"pop":1417,"lat":39.47668,"lng":-96.22128},{"zip":"66523","name":"Osage City","pending_pct":0.4,"pending":8,"active":11,"total":20,"new":4,"median_price":217750,"ppsf":146,"dom":34,"pop":3941,"lat":38.60993,"lng":-95.83791},{"zip":"66524","name":"Overbrook","pending_pct":0.25,"pending":2,"active":6,"total":8,"new":2,"median_price":969500,"ppsf":339,"dom":47,"pop":2473,"lat":38.78948,"lng":-95.50695},{"zip":"66526","name":"Paxico","pending_pct":1.0,"pending":2,"active":0,"total":2,"new":0,"median_price":399000,"ppsf":210,"dom":50,"pop":693,"lat":39.06349,"lng":-96.15567},{"zip":"66527","name":"Powhattan","pending_pct":null,"pending":null,"active":2,"total":2,"new":0,"median_price":87500,"ppsf":75,"dom":46,"pop":244,"lat":39.74499,"lng":-95.67744},{"zip":"66528","name":"Quenemo","pending_pct":null,"pending":null,"active":3,"total":3,"new":0,"median_price":100000,"ppsf":76,"dom":93,"pop":761,"lat":38.59711,"lng":-95.5344},{"zip":"66531","name":"Riley","pending_pct":0.4,"pending":2,"active":3,"total":5,"new":0,"median_price":333500,"ppsf":190,"dom":47,"pop":1256,"lat":39.31146,"lng":-96.83416},{"zip":"66533","name":"Rossville","pending_pct":0.6667,"pending":4,"active":3,"total":6,"new":0,"median_price":257463,"ppsf":132,"dom":63,"pop":1595,"lat":39.16097,"lng":-95.95045},{"zip":"66534","name":"Sabetha","pending_pct":0.3846,"pending":5,"active":9,"total":13,"new":6,"median_price":204250,"ppsf":109,"dom":59,"pop":3381,"lat":39.87782,"lng":-95.83635},{"zip":"66535","name":"Saint George","pending_pct":0.2222,"pending":2,"active":7,"total":9,"new":0,"median_price":372475,"ppsf":134,"dom":35,"pop":3556,"lat":39.26169,"lng":-96.43896},{"zip":"66536","name":"Saint Marys","pending_pct":0.2857,"pending":2,"active":5,"total":7,"new":0,"median_price":345000,"ppsf":141,"dom":58,"pop":4204,"lat":39.2247,"lng":-96.07396},{"zip":"66537","name":"Scranton","pending_pct":null,"pending":null,"active":1,"total":1,"new":0,"median_price":685000,"ppsf":203,"dom":72,"pop":1475,"lat":38.75118,"lng":-95.72255},{"zip":"66538","name":"Seneca","pending_pct":0.6667,"pending":2,"active":1,"total":3,"new":0,"median_price":375000,"ppsf":116,"dom":218,"pop":3602,"lat":39.84942,"lng":-96.04591},{"zip":"66539","name":"Silver Lake","pending_pct":0.3333,"pending":3,"active":7,"total":9,"new":4,"median_price":286250,"ppsf":155,"dom":24,"pop":3092,"lat":39.14937,"lng":-95.84707},{"zip":"66540","name":"Soldier","pending_pct":null,"pending":null,"active":1,"total":1,"new":0,"median_price":237000,"ppsf":192,"dom":14,"pop":582,"lat":39.48484,"lng":-95.97332},{"zip":"66542","name":"Tecumseh","pending_pct":0.5714,"pending":4,"active":4,"total":7,"new":0,"median_price":356250,"ppsf":166,"dom":59,"pop":3019,"lat":39.01273,"lng":-95.54442},{"zip":"66543","name":"Vassar","pending_pct":0.75,"pending":3,"active":2,"total":4,"new":0,"median_price":292500,"ppsf":185,"dom":23,"pop":980,"lat":38.64175,"lng":-95.60029},{"zip":"66546","name":"Wakarusa","pending_pct":0.4,"pending":2,"active":3,"total":5,"new":0,"median_price":424900,"ppsf":142,"dom":49,"pop":1143,"lat":38.8941,"lng":-95.72589},{"zip":"66547","name":"Wamego","pending_pct":0.4375,"pending":14,"active":17,"total":32,"new":12,"median_price":347250,"ppsf":143,"dom":49,"pop":8579,"lat":39.23469,"lng":-96.30384},{"zip":"66548","name":"Waterville","pending_pct":null,"pending":null,"active":3,"total":3,"new":0,"median_price":200000,"ppsf":119,"dom":62,"pop":975,"lat":39.67551,"lng":-96.76146},{"zip":"66549","name":"Westmoreland","pending_pct":null,"pending":null,"active":3,"total":3,"new":0,"median_price":285000,"ppsf":238,"dom":61,"pop":1526,"lat":39.42978,"lng":-96.43045},{"zip":"66550","name":"Wetmore","pending_pct":0.25,"pending":1,"active":3,"total":4,"new":0,"median_price":172750,"ppsf":68,"dom":119,"pop":552,"lat":39.65537,"lng":-95.82113},{"zip":"66552","name":"Whiting","pending_pct":1.0,"pending":2,"active":2,"total":2,"new":2,"median_price":177750,"ppsf":250,"dom":14,"pop":581,"lat":39.58736,"lng":-95.621},{"zip":"66554","name":"Randolph","pending_pct":null,"pending":null,"active":0,"total":0,"new":0,"median_price":319900,"ppsf":195,"dom":36,"pop":770,"lat":39.48899,"lng":-96.78445},{"zip":"66603","name":"Topeka","pending_pct":null,"pending":null,"active":5,"total":5,"new":0,"median_price":115000,"ppsf":89,"dom":29,"pop":1830,"lat":39.05742,"lng":-95.67539},{"zip":"66604","name":"Topeka","pending_pct":0.5181,"pending":43,"active":42,"total":83,"new":48,"median_price":172450,"ppsf":116,"dom":31,"pop":23006,"lat":39.03875,"lng":-95.72623},{"zip":"66605","name":"Topeka","pending_pct":0.5278,"pending":19,"active":18,"total":36,"new":16,"median_price":217450,"ppsf":135,"dom":32,"pop":20891,"lat":39.01167,"lng":-95.63283},{"zip":"66606","name":"Topeka","pending_pct":0.4146,"pending":17,"active":23,"total":41,"new":22,"median_price":154725,"ppsf":116,"dom":33,"pop":9842,"lat":39.06191,"lng":-95.72296},{"zip":"66607","name":"Topeka","pending_pct":0.375,"pending":3,"active":5,"total":8,"new":4,"median_price":98875,"ppsf":100,"dom":20,"pop":9965,"lat":39.0422,"lng":-95.63502},{"zip":"66608","name":"Topeka","pending_pct":0.4118,"pending":7,"active":10,"total":17,"new":8,"median_price":137250,"ppsf":113,"dom":28,"pop":4216,"lat":39.07984,"lng":-95.66708},{"zip":"66609","name":"Topeka","pending_pct":0.4737,"pending":9,"active":10,"total":19,"new":10,"median_price":247825,"ppsf":124,"dom":29,"pop":7572,"lat":38.98193,"lng":-95.66974},{"zip":"66610","name":"Topeka","pending_pct":0.5714,"pending":24,"active":19,"total":42,"new":18,"median_price":489950,"ppsf":168,"dom":49,"pop":9849,"lat":38.97277,"lng":-95.84718},{"zip":"66611","name":"Topeka","pending_pct":0.5926,"pending":16,"active":11,"total":27,"new":12,"median_price":180000,"ppsf":137,"dom":30,"pop":9828,"lat":39.01526,"lng":-95.69601},{"zip":"66612","name":"Topeka","pending_pct":0.3333,"pending":1,"active":3,"total":3,"new":0,"median_price":80000,"ppsf":65,"dom":51,"pop":1754,"lat":39.04026,"lng":-95.68037},{"zip":"66614","name":"Topeka","pending_pct":0.5955,"pending":53,"active":38,"total":89,"new":50,"median_price":254648,"ppsf":135,"dom":36,"pop":32538,"lat":39.01362,"lng":-95.84115},{"zip":"66615","name":"Topeka","pending_pct":0.7273,"pending":8,"active":3,"total":11,"new":4,"median_price":640000,"ppsf":282,"dom":119,"pop":2943,"lat":39.05214,"lng":-95.89491},{"zip":"66616","name":"Topeka","pending_pct":0.5714,"pending":8,"active":6,"total":14,"new":6,"median_price":117050,"ppsf":81,"dom":20,"pop":6212,"lat":39.06845,"lng":-95.62388},{"zip":"66617","name":"Topeka","pending_pct":0.5882,"pending":10,"active":7,"total":17,"new":8,"median_price":342500,"ppsf":188,"dom":49,"pop":8903,"lat":39.13876,"lng":-95.625},{"zip":"66618","name":"Topeka","pending_pct":0.6818,"pending":15,"active":7,"total":22,"new":14,"median_price":420975,"ppsf":167,"dom":10,"pop":10179,"lat":39.14188,"lng":-95.74997},{"zip":"66619","name":"Topeka","pending_pct":0.3333,"pending":1,"active":2,"total":3,"new":2,"median_price":142125,"ppsf":106,"dom":32,"pop":3217,"lat":38.94661,"lng":-95.68993},{"zip":"66701","name":"Fort Scott","pending_pct":0.4545,"pending":20,"active":25,"total":44,"new":18,"median_price":175875,"ppsf":88,"dom":52,"pop":11503,"lat":37.82862,"lng":-94.75999},{"zip":"66710","name":"Altoona","pending_pct":0.25,"pending":1,"active":3,"total":4,"new":0,"median_price":233750,"ppsf":121,"dom":204,"pop":804,"lat":37.55301,"lng":-95.63104},{"zip":"66711","name":"Arcadia","pending_pct":1.0,"pending":1,"active":0,"total":1,"new":0,"median_price":29900,"ppsf":12,"dom":69,"pop":478,"lat":37.63974,"lng":-94.691},{"zip":"66712","name":"Arma","pending_pct":0.4167,"pending":5,"active":7,"total":12,"new":2,"median_price":108750,"ppsf":93,"dom":55,"pop":1675,"lat":37.5636,"lng":-94.71657},{"zip":"66713","name":"Baxter Springs","pending_pct":0.2432,"pending":9,"active":29,"total":37,"new":8,"median_price":153725,"ppsf":119,"dom":49,"pop":5635,"lat":37.03323,"lng":-94.78637},{"zip":"66716","name":"Bronson","pending_pct":null,"pending":null,"active":1,"total":1,"new":2,"median_price":174900,"ppsf":146,"dom":34,"pop":813,"lat":37.93923,"lng":-95.04001},{"zip":"66717","name":"Buffalo","pending_pct":0.3333,"pending":1,"active":2,"total":3,"new":0,"median_price":108200,"ppsf":79,"dom":40,"pop":467,"lat":37.69671,"lng":-95.68672},{"zip":"66720","name":"Chanute","pending_pct":0.3509,"pending":20,"active":38,"total":57,"new":18,"median_price":172500,"ppsf":94,"dom":43,"pop":10631,"lat":37.64631,"lng":-95.459},{"zip":"66724","name":"Cherokee","pending_pct":0.3333,"pending":1,"active":1,"total":3,"new":0,"median_price":80000,"ppsf":53,"dom":182,"pop":935,"lat":37.34891,"lng":-94.86333},{"zip":"66725","name":"Columbus","pending_pct":0.1944,"pending":7,"active":29,"total":36,"new":4,"median_price":163000,"ppsf":91,"dom":69,"pop":4991,"lat":37.15906,"lng":-94.88892},{"zip":"66733","name":"Erie","pending_pct":0.5,"pending":3,"active":3,"total":6,"new":0,"median_price":249900,"ppsf":112,"dom":103,"pop":2012,"lat":37.59014,"lng":-95.25282},{"zip":"66734","name":"Farlington","pending_pct":0.5,"pending":1,"active":2,"total":2,"new":0,"median_price":900000,"ppsf":224,"dom":31,"pop":343,"lat":37.61534,"lng":-94.82172},{"zip":"66735","name":"Franklin","pending_pct":0.5,"pending":1,"active":2,"total":2,"new":0,"median_price":144750,"ppsf":94,"dom":143,"pop":692,"lat":37.52091,"lng":-94.71313},{"zip":"66736","name":"Fredonia","pending_pct":0.3182,"pending":7,"active":16,"total":22,"new":2,"median_price":108000,"ppsf":63,"dom":54,"pop":3374,"lat":37.55335,"lng":-95.86381},{"zip":"66738","name":"Fulton","pending_pct":0.3333,"pending":1,"active":2,"total":3,"new":0,"median_price":60950,"ppsf":38,"dom":141,"pop":173,"lat":38.01473,"lng":-94.7162},{"zip":"66739","name":"Galena","pending_pct":0.3448,"pending":10,"active":19,"total":29,"new":4,"median_price":179500,"ppsf":114,"dom":73,"pop":5025,"lat":37.12084,"lng":-94.66595},{"zip":"66742","name":"","pending_pct":null,"pending":null,"active":0,"total":0,"new":0,"median_price":59000,"ppsf":28,"dom":229,"pop":30,"lat":37.92023,"lng":-95.34755},{"zip":"66743","name":"Girard","pending_pct":0.4,"pending":6,"active":9,"total":15,"new":4,"median_price":117450,"ppsf":81,"dom":60,"pop":4313,"lat":37.50551,"lng":-94.88786},{"zip":"66748","name":"Humboldt","pending_pct":0.3333,"pending":4,"active":8,"total":12,"new":0,"median_price":100225,"ppsf":75,"dom":62,"pop":2830,"lat":37.79882,"lng":-95.43577},{"zip":"66749","name":"Iola","pending_pct":0.3684,"pending":21,"active":35,"total":57,"new":12,"median_price":147425,"ppsf":80,"dom":69,"pop":7448,"lat":37.93597,"lng":-95.41069},{"zip":"66751","name":"La Harpe","pending_pct":0.6667,"pending":2,"active":1,"total":3,"new":0,"median_price":114900,"ppsf":85,"dom":228,"pop":590,"lat":37.93421,"lng":-95.28466},{"zip":"66753","name":"Mc Cune","pending_pct":0.5,"pending":2,"active":3,"total":4,"new":0,"median_price":291875,"ppsf":160,"dom":98,"pop":949,"lat":37.36529,"lng":-95.01444},{"zip":"66754","name":"Mapleton","pending_pct":0.1667,"pending":1,"active":5,"total":6,"new":0,"median_price":198000,"ppsf":280,"dom":62,"pop":344,"lat":38.00377,"lng":-94.88848},{"zip":"66755","name":"Moran","pending_pct":0.6667,"pending":2,"active":1,"total":3,"new":0,"median_price":245750,"ppsf":135,"dom":67,"pop":890,"lat":37.91211,"lng":-95.16727},{"zip":"66756","name":"Mulberry","pending_pct":0.5,"pending":1,"active":1,"total":2,"new":0,"median_price":79000,"ppsf":57,"dom":9,"pop":1052,"lat":37.53928,"lng":-94.64869},{"zip":"66757","name":"Neodesha","pending_pct":0.2727,"pending":6,"active":16,"total":22,"new":6,"median_price":139375,"ppsf":121,"dom":65,"pop":3326,"lat":37.41602,"lng":-95.69874},{"zip":"66761","name":"Piqua","pending_pct":null,"pending":null,"active":1,"total":1,"new":0,"median_price":168000,"ppsf":164,"dom":49,"pop":255,"lat":37.91469,"lng":-95.56694},{"zip":"66762","name":"Pittsburg","pending_pct":0.3402,"pending":33,"active":63,"total":97,"new":24,"median_price":164925,"ppsf":121,"dom":68,"pop":24907,"lat":37.39443,"lng":-94.71092},{"zip":"66763","name":"Frontenac","pending_pct":0.3636,"pending":4,"active":7,"total":11,"new":2,"median_price":175000,"ppsf":94,"dom":32,"pop":3392,"lat":37.46063,"lng":-94.6965},{"zip":"66767","name":"Prescott","pending_pct":1.0,"pending":1,"active":1,"total":1,"new":0,"median_price":110000,"ppsf":86,"dom":40,"pop":374,"lat":38.07741,"lng":-94.71159},{"zip":"66769","name":"Redfield","pending_pct":null,"pending":null,"active":2,"total":2,"new":0,"median_price":563500,"ppsf":177,"dom":92,"pop":520,"lat":37.85317,"lng":-94.89379},{"zip":"66770","name":"Riverton","pending_pct":0.375,"pending":3,"active":6,"total":8,"new":0,"median_price":163750,"ppsf":84,"dom":69,"pop":1047,"lat":37.08014,"lng":-94.71601},{"zip":"66771","name":"Saint Paul","pending_pct":null,"pending":null,"active":4,"total":4,"new":0,"median_price":249500,"ppsf":161,"dom":33,"pop":1074,"lat":37.49211,"lng":-95.14883},{"zip":"66773","name":"Scammon","pending_pct":0.5,"pending":1,"active":1,"total":2,"new":0,"median_price":149900,"ppsf":114,"dom":57,"pop":587,"lat":37.26599,"lng":-94.81262},{"zip":"66776","name":"Thayer","pending_pct":null,"pending":null,"active":2,"total":2,"new":0,"median_price":432000,"ppsf":213,"dom":33,"pop":1524,"lat":37.46848,"lng":-95.48893},{"zip":"66777","name":"Toronto","pending_pct":0.2,"pending":1,"active":4,"total":5,"new":0,"median_price":105000,"ppsf":119,"dom":37,"pop":473,"lat":37.79087,"lng":-95.9684},{"zip":"66779","name":"Uniontown","pending_pct":0.3333,"pending":1,"active":2,"total":3,"new":2,"median_price":812500,"ppsf":134,"dom":11,"pop":892,"lat":37.83751,"lng":-94.97867},{"zip":"66780","name":"Walnut","pending_pct":0.5,"pending":1,"active":1,"total":2,"new":0,"median_price":234000,"ppsf":141,"dom":139,"pop":674,"lat":37.60895,"lng":-95.05881},{"zip":"66781","name":"Weir","pending_pct":0.1667,"pending":1,"active":4,"total":6,"new":0,"median_price":164250,"ppsf":95,"dom":63,"pop":1183,"lat":37.29114,"lng":-94.72806},{"zip":"66782","name":"West Mineral","pending_pct":null,"pending":null,"active":1,"total":1,"new":0,"median_price":74000,"ppsf":58,"dom":289,"pop":164,"lat":37.28493,"lng":-94.92609},{"zip":"66783","name":"Yates Center","pending_pct":0.6667,"pending":2,"active":1,"total":3,"new":0,"median_price":155000,"ppsf":111,"dom":8,"pop":2190,"lat":37.87682,"lng":-95.73322},{"zip":"66801","name":"Emporia","pending_pct":0.4118,"pending":42,"active":60,"total":102,"new":38,"median_price":219925,"ppsf":120,"dom":47,"pop":27585,"lat":38.41105,"lng":-96.2221},{"zip":"66833","name":"Allen","pending_pct":0.5,"pending":1,"active":1,"total":2,"new":0,"median_price":699900,"ppsf":609,"dom":90,"pop":641,"lat":38.67694,"lng":-96.18374},{"zip":"66834","name":"Alta Vista","pending_pct":1.0,"pending":1,"active":1,"total":1,"new":0,"median_price":249000,"ppsf":85,"dom":74,"pop":856,"lat":38.86528,"lng":-96.44822},{"zip":"66835","name":"Americus","pending_pct":1.0,"pending":4,"active":0,"total":4,"new":0,"median_price":174900,"ppsf":90,"dom":9,"pop":1202,"lat":38.53458,"lng":-96.26266},{"zip":"66838","name":"Burdick","pending_pct":null,"pending":null,"active":1,"total":1,"new":0,"median_price":299000,"ppsf":103,"dom":154,"pop":99,"lat":38.56207,"lng":-96.79665},{"zip":"66839","name":"Burlington","pending_pct":0.1667,"pending":4,"active":20,"total":24,"new":10,"median_price":220833,"ppsf":121,"dom":57,"pop":3654,"lat":38.21655,"lng":-95.75371},{"zip":"66840","name":"Burns","pending_pct":1.0,"pending":2,"active":0,"total":2,"new":0,"median_price":665000,"ppsf":216,"dom":188,"pop":474,"lat":38.07283,"lng":-96.8719},{"zip":"66846","name":"Council Grove","pending_pct":0.3478,"pending":8,"active":15,"total":23,"new":6,"median_price":334950,"ppsf":114,"dom":71,"pop":3333,"lat":38.64383,"lng":-96.47187},{"zip":"66849","name":"Dwight","pending_pct":1.0,"pending":1,"active":0,"total":1,"new":0,"median_price":150000,"ppsf":58,"dom":112,"pop":531,"lat":38.87427,"lng":-96.59789},{"zip":"66850","name":"Elmdale","pending_pct":null,"pending":null,"active":1,"total":1,"new":0,"median_price":968750,"ppsf":420,"dom":360,"pop":202,"lat":38.40648,"lng":-96.71764},{"zip":"66852","name":"Gridley","pending_pct":0.25,"pending":1,"active":3,"total":4,"new":0,"median_price":230000,"ppsf":160,"dom":99,"pop":587,"lat":38.0716,"lng":-95.89874},{"zip":"66854","name":"Hartford","pending_pct":0.4,"pending":2,"active":2,"total":5,"new":2,"median_price":225750,"ppsf":163,"dom":51,"pop":1007,"lat":38.25872,"lng":-95.98735},{"zip":"66856","name":"Lebo","pending_pct":0.25,"pending":1,"active":3,"total":4,"new":0,"median_price":212400,"ppsf":102,"dom":52,"pop":1583,"lat":38.39853,"lng":-95.81838},{"zip":"66857","name":"Le Roy","pending_pct":null,"pending":null,"active":2,"total":2,"new":4,"median_price":235000,"ppsf":154,"dom":11,"pop":872,"lat":38.10202,"lng":-95.63526},{"zip":"66858","name":"Lincolnville","pending_pct":0.5,"pending":1,"active":1,"total":2,"new":2,"median_price":45000,"ppsf":42,"dom":14,"pop":428,"lat":38.47462,"lng":-96.9207},{"zip":"66860","name":"Madison","pending_pct":0.2,"pending":2,"active":8,"total":10,"new":4,"median_price":80750,"ppsf":78,"dom":47,"pop":1342,"lat":38.12775,"lng":-96.1652},{"zip":"66861","name":"Marion","pending_pct":0.2857,"pending":4,"active":11,"total":14,"new":4,"median_price":184500,"ppsf":109,"dom":73,"pop":2769,"lat":38.36415,"lng":-97.00617},{"zip":"66864","name":"Neosho Rapids","pending_pct":0.5,"pending":1,"active":2,"total":2,"new":0,"median_price":314450,"ppsf":142,"dom":8,"pop":375,"lat":38.36132,"lng":-95.98207},{"zip":"66865","name":"Olpe","pending_pct":0.6667,"pending":2,"active":1,"total":3,"new":0,"median_price":209900,"ppsf":130,"dom":56,"pop":1105,"lat":38.2181,"lng":-96.27993},{"zip":"66866","name":"Peabody","pending_pct":1.0,"pending":2,"active":1,"total":2,"new":0,"median_price":447500,"ppsf":124,"dom":102,"pop":1737,"lat":38.17438,"lng":-97.10385},{"zip":"66868","name":"Reading","pending_pct":null,"pending":null,"active":1,"total":1,"new":0,"median_price":315000,"ppsf":180,"dom":237,"pop":620,"lat":38.54284,"lng":-95.98387},{"zip":"66869","name":"Strong City","pending_pct":null,"pending":null,"active":1,"total":1,"new":0,"median_price":295000,"ppsf":220,"dom":205,"pop":669,"lat":38.4548,"lng":-96.54444},{"zip":"66870","name":"Virgil","pending_pct":null,"pending":null,"active":1,"total":1,"new":2,"median_price":999999,"ppsf":363,"dom":7,"pop":121,"lat":37.93809,"lng":-95.99316},{"zip":"66871","name":"Waverly","pending_pct":null,"pending":null,"active":3,"total":3,"new":4,"median_price":158750,"ppsf":116,"dom":16,"pop":1347,"lat":38.35941,"lng":-95.61815},{"zip":"66872","name":"White City","pending_pct":null,"pending":null,"active":3,"total":3,"new":0,"median_price":7900,"ppsf":11,"dom":62,"pop":807,"lat":38.79878,"lng":-96.76147},{"zip":"66901","name":"Concordia","pending_pct":0.1887,"pending":10,"active":42,"total":53,"new":12,"median_price":136200,"ppsf":89,"dom":91,"pop":6055,"lat":39.55618,"lng":-97.64317},{"zip":"66933","name":"Barnes","pending_pct":null,"pending":null,"active":2,"total":2,"new":0,"median_price":347500,"ppsf":159,"dom":73,"pop":345,"lat":39.67124,"lng":-96.86706},{"zip":"66935","name":"Belleville","pending_pct":0.3077,"pending":4,"active":8,"total":13,"new":2,"median_price":136250,"ppsf":81,"dom":107,"pop":2413,"lat":39.82694,"lng":-97.63538},{"zip":"66936","name":"Burr Oak","pending_pct":1.0,"pending":1,"active":0,"total":1,"new":0,"median_price":48000,"ppsf":29,"dom":40,"pop":194,"lat":39.9213,"lng":-98.30091},{"zip":"66937","name":"Clifton","pending_pct":null,"pending":null,"active":1,"total":1,"new":0,"median_price":79500,"ppsf":53,"dom":261,"pop":691,"lat":39.58959,"lng":-97.26493},{"zip":"66938","name":"Clyde","pending_pct":0.5,"pending":1,"active":2,"total":2,"new":0,"median_price":225000,"ppsf":100,"dom":254,"pop":1191,"lat":39.58018,"lng":-97.41081},{"zip":"66939","name":"Courtland","pending_pct":null,"pending":null,"active":1,"total":1,"new":0,"median_price":139500,"ppsf":82,"dom":220,"pop":335,"lat":39.85179,"lng":-97.89754},{"zip":"66942","name":"Formoso","pending_pct":null,"pending":null,"active":1,"total":1,"new":0,"median_price":990000,"ppsf":511,"dom":160,"pop":305,"lat":39.79278,"lng":-98.00448},{"zip":"66948","name":"Jamestown","pending_pct":null,"pending":null,"active":1,"total":1,"new":0,"median_price":360000,"ppsf":306,"dom":57,"pop":566,"lat":39.59743,"lng":-97.85141},{"zip":"66949","name":"Jewell","pending_pct":0.3333,"pending":1,"active":2,"total":3,"new":2,"median_price":159225,"ppsf":97,"dom":42,"pop":524,"lat":39.646,"lng":-98.19755},{"zip":"66951","name":"Kensington","pending_pct":null,"pending":null,"active":5,"total":5,"new":2,"median_price":149900,"ppsf":109,"dom":44,"pop":920,"lat":39.86239,"lng":-99.03072},{"zip":"66952","name":"Lebanon","pending_pct":0.1429,"pending":1,"active":6,"total":7,"new":0,"median_price":110000,"ppsf":89,"dom":100,"pop":401,"lat":39.84269,"lng":-98.60214},{"zip":"66956","name":"Mankato","pending_pct":0.2857,"pending":2,"active":5,"total":7,"new":0,"median_price":177250,"ppsf":110,"dom":56,"pop":1351,"lat":39.79625,"lng":-98.21581},{"zip":"66958","name":"Morrowville","pending_pct":null,"pending":null,"active":1,"total":1,"new":0,"median_price":98000,"ppsf":54,"dom":46,"pop":198,"lat":39.88657,"lng":-97.1787},{"zip":"66959","name":"Munden","pending_pct":null,"pending":null,"active":1,"total":1,"new":0,"median_price":270000,"ppsf":108,"dom":117,"pop":339,"lat":39.92276,"lng":-97.53551},{"zip":"66966","name":"Scandia","pending_pct":0.3333,"pending":1,"active":3,"total":3,"new":0,"median_price":388000,"ppsf":130,"dom":58,"pop":577,"lat":39.7793,"lng":-97.76206},{"zip":"66967","name":"Smith Center","pending_pct":0.0556,"pending":1,"active":17,"total":18,"new":4,"median_price":127250,"ppsf":69,"dom":103,"pop":1913,"lat":39.82571,"lng":-98.79366},{"zip":"66968","name":"Washington","pending_pct":null,"pending":null,"active":3,"total":3,"new":0,"median_price":799000,"ppsf":138,"dom":74,"pop":1454,"lat":39.8294,"lng":-97.06524},{"zip":"66970","name":"Webber","pending_pct":null,"pending":null,"active":2,"total":2,"new":0,"median_price":245950,"ppsf":116,"dom":144,"pop":39,"lat":39.94533,"lng":-98.02336},{"zip":"67001","name":"Andale","pending_pct":0.6,"pending":3,"active":3,"total":5,"new":0,"median_price":340000,"ppsf":155,"dom":61,"pop":2535,"lat":37.76069,"lng":-97.62953},{"zip":"67002","name":"Andover","pending_pct":0.4623,"pending":49,"active":58,"total":106,"new":22,"median_price":383225,"ppsf":173,"dom":61,"pop":17221,"lat":37.69575,"lng":-97.10725},{"zip":"67003","name":"Anthony","pending_pct":0.1429,"pending":3,"active":17,"total":21,"new":4,"median_price":137425,"ppsf":86,"dom":61,"pop":2477,"lat":37.1109,"lng":-98.06319},{"zip":"67004","name":"Argonia","pending_pct":null,"pending":null,"active":4,"total":4,"new":0,"median_price":802500,"ppsf":209,"dom":62,"pop":801,"lat":37.28317,"lng":-97.76401},{"zip":"67005","name":"Arkansas City","pending_pct":0.2222,"pending":18,"active":64,"total":81,"new":26,"median_price":145475,"ppsf":99,"dom":67,"pop":15073,"lat":37.06722,"lng":-96.99645},{"zip":"67009","name":"Attica","pending_pct":null,"pending":null,"active":4,"total":4,"new":0,"median_price":104850,"ppsf":93,"dom":52,"pop":796,"lat":37.22153,"lng":-98.26369},{"zip":"67010","name":"Augusta","pending_pct":0.4762,"pending":20,"active":22,"total":42,"new":16,"median_price":236250,"ppsf":122,"dom":39,"pop":13947,"lat":37.66099,"lng":-96.97388},{"zip":"67013","name":"Belle Plaine","pending_pct":0.3846,"pending":5,"active":8,"total":13,"new":2,"median_price":229900,"ppsf":154,"dom":35,"pop":2678,"lat":37.37904,"lng":-97.27378},{"zip":"67016","name":"Bentley","pending_pct":null,"pending":null,"active":2,"total":2,"new":0,"median_price":202000,"ppsf":104,"dom":33,"pop":480,"lat":37.88882,"lng":-97.51812},{"zip":"67017","name":"Benton","pending_pct":0.3333,"pending":1,"active":2,"total":3,"new":0,"median_price":481150,"ppsf":179,"dom":81,"pop":2264,"lat":37.82778,"lng":-97.11165},{"zip":"67018","name":"Bluff City","pending_pct":null,"pending":null,"active":0,"total":0,"new":0,"median_price":75000,"ppsf":80,"dom":102,"pop":65,"lat":37.07108,"lng":-97.85872},{"zip":"67019","name":"Burden","pending_pct":0.2,"pending":1,"active":4,"total":5,"new":0,"median_price":127125,"ppsf":99,"dom":75,"pop":992,"lat":37.31225,"lng":-96.78174},{"zip":"67020","name":"Burrton","pending_pct":0.1429,"pending":1,"active":6,"total":7,"new":0,"median_price":575000,"ppsf":167,"dom":91,"pop":1596,"lat":38.00881,"lng":-97.66903},{"zip":"67022","name":"Caldwell","pending_pct":0.6667,"pending":2,"active":1,"total":3,"new":0,"median_price":137400,"ppsf":69,"dom":98,"pop":1436,"lat":37.07352,"lng":-97.63347},{"zip":"67024","name":"Cedar Vale","pending_pct":null,"pending":null,"active":2,"total":2,"new":0,"median_price":1007500,"ppsf":2313,"dom":159,"pop":937,"lat":37.11397,"lng":-96.49164},{"zip":"67025","name":"Cheney","pending_pct":0.4,"pending":6,"active":8,"total":15,"new":6,"median_price":421250,"ppsf":140,"dom":38,"pop":3940,"lat":37.64146,"lng":-97.78789},{"zip":"67026","name":"Clearwater","pending_pct":0.2692,"pending":7,"active":20,"total":26,"new":8,"median_price":270000,"ppsf":168,"dom":44,"pop":5692,"lat":37.51047,"lng":-97.49239},{"zip":"67029","name":"Coldwater","pending_pct":0.3333,"pending":1,"active":3,"total":3,"new":2,"median_price":269500,"ppsf":182,"dom":39,"pop":962,"lat":37.16925,"lng":-99.28026},{"zip":"67030","name":"Colwich","pending_pct":null,"pending":null,"active":1,"total":1,"new":0,"median_price":730000,"ppsf":278,"dom":70,"pop":3037,"lat":37.78548,"lng":-97.54661},{"zip":"67031","name":"Conway Springs","pending_pct":0.5,"pending":2,"active":2,"total":4,"new":2,"median_price":262500,"ppsf":121,"dom":57,"pop":2497,"lat":37.40444,"lng":-97.63848},{"zip":"67035","name":"Cunningham","pending_pct":1.0,"pending":1,"active":1,"total":1,"new":2,"median_price":120000,"ppsf":99,"dom":2,"pop":891,"lat":37.64845,"lng":-98.39338},{"zip":"67037","name":"Derby","pending_pct":0.4394,"pending":58,"active":74,"total":132,"new":54,"median_price":368950,"ppsf":155,"dom":35,"pop":30278,"lat":37.56646,"lng":-97.22095},{"zip":"67039","name":"Douglass","pending_pct":0.5,"pending":7,"active":7,"total":14,"new":4,"median_price":250000,"ppsf":116,"dom":54,"pop":2996,"lat":37.52163,"lng":-96.97322},{"zip":"67042","name":"El Dorado","pending_pct":0.4304,"pending":34,"active":47,"total":79,"new":24,"median_price":182175,"ppsf":121,"dom":43,"pop":16978,"lat":37.84868,"lng":-96.79809},{"zip":"67045","name":"Eureka","pending_pct":0.1429,"pending":2,"active":12,"total":14,"new":6,"median_price":128675,"ppsf":82,"dom":73,"pop":3406,"lat":37.85131,"lng":-96.33863},{"zip":"67047","name":"Fall River","pending_pct":0.25,"pending":1,"active":3,"total":4,"new":0,"median_price":115000,"ppsf":122,"dom":104,"pop":496,"lat":37.63921,"lng":-96.05327},{"zip":"67049","name":"Freeport","pending_pct":null,"pending":null,"active":1,"total":1,"new":0,"median_price":340000,"ppsf":123,"dom":21,"pop":12,"lat":37.17059,"lng":-97.84646},{"zip":"67050","name":"Garden Plain","pending_pct":0.3333,"pending":3,"active":7,"total":9,"new":2,"median_price":650000,"ppsf":185,"dom":55,"pop":1907,"lat":37.675,"lng":-97.6769},{"zip":"67051","name":"Geuda Springs","pending_pct":null,"pending":null,"active":0,"total":0,"new":0,"median_price":215000,"ppsf":100,"dom":180,"pop":404,"lat":37.08932,"lng":-97.19399},{"zip":"67052","name":"Goddard","pending_pct":0.1675,"pending":35,"active":175,"total":209,"new":42,"median_price":237450,"ppsf":162,"dom":62,"pop":9262,"lat":37.65812,"lng":-97.57357},{"zip":"67053","name":"Goessel","pending_pct":0.3333,"pending":1,"active":2,"total":3,"new":0,"median_price":97500,"ppsf":85,"dom":57,"pop":600,"lat":38.24728,"lng":-97.34545},{"zip":"67054","name":"Greensburg","pending_pct":1.0,"pending":1,"active":1,"total":1,"new":0,"median_price":19000,"ppsf":21,"dom":null,"pop":1251,"lat":37.57658,"lng":-99.31884},{"zip":"67055","name":"Greenwich","pending_pct":null,"pending":null,"active":1,"total":1,"new":0,"median_price":377400,"ppsf":143,"dom":17,"pop":62,"lat":37.78325,"lng":-97.2037},{"zip":"67056","name":"Halstead","pending_pct":0.4615,"pending":6,"active":7,"total":13,"new":10,"median_price":276325,"ppsf":124,"dom":48,"pop":3040,"lat":38.01936,"lng":-97.52345},{"zip":"67057","name":"Hardtner","pending_pct":1.0,"pending":1,"active":1,"total":1,"new":2,"median_price":null,"ppsf":null,"dom":14,"pop":252,"lat":37.05954,"lng":-98.77864},{"zip":"67058","name":"Harper","pending_pct":0.4,"pending":4,"active":7,"total":10,"new":0,"median_price":85000,"ppsf":73,"dom":79,"pop":1777,"lat":37.32006,"lng":-98.06493},{"zip":"67059","name":"Haviland","pending_pct":1.0,"pending":1,"active":1,"total":1,"new":2,"median_price":87500,"ppsf":66,"dom":9,"pop":932,"lat":37.65102,"lng":-99.10046},{"zip":"67060","name":"Haysville","pending_pct":0.5102,"pending":25,"active":22,"total":49,"new":14,"median_price":240000,"ppsf":148,"dom":26,"pop":14125,"lat":37.54601,"lng":-97.35952},{"zip":"67062","name":"Hesston","pending_pct":0.5556,"pending":5,"active":4,"total":9,"new":0,"median_price":549925,"ppsf":195,"dom":45,"pop":3970,"lat":38.1431,"lng":-97.43296},{"zip":"67063","name":"Hillsboro","pending_pct":0.5,"pending":4,"active":4,"total":8,"new":0,"median_price":97975,"ppsf":93,"dom":41,"pop":3470,"lat":38.34244,"lng":-97.23019},{"zip":"67067","name":"Kechi","pending_pct":0.5,"pending":2,"active":2,"total":4,"new":2,"median_price":259950,"ppsf":133,"dom":78,"pop":2293,"lat":37.7951,"lng":-97.27044},{"zip":"67068","name":"Kingman","pending_pct":0.5,"pending":4,"active":4,"total":8,"new":0,"median_price":144900,"ppsf":104,"dom":103,"pop":3949,"lat":37.61991,"lng":-98.11473},{"zip":"67070","name":"Kiowa","pending_pct":0.25,"pending":2,"active":6,"total":8,"new":2,"median_price":149000,"ppsf":80,"dom":153,"pop":921,"lat":37.0696,"lng":-98.53204},{"zip":"67072","name":"Latham","pending_pct":1.0,"pending":1,"active":1,"total":1,"new":0,"median_price":null,"ppsf":null,"dom":32,"pop":290,"lat":37.5445,"lng":-96.61632},{"zip":"67074","name":"Leon","pending_pct":1.0,"pending":1,"active":1,"total":1,"new":4,"median_price":380000,"ppsf":245,"dom":2,"pop":1583,"lat":37.67038,"lng":-96.72945},{"zip":"67101","name":"Maize","pending_pct":0.3165,"pending":25,"active":56,"total":79,"new":8,"median_price":486835,"ppsf":188,"dom":141,"pop":6941,"lat":37.78489,"lng":-97.46356},{"zip":"67102","name":"Maple City","pending_pct":null,"pending":null,"active":1,"total":1,"new":0,"median_price":259900,"ppsf":193,"dom":27,"pop":38,"lat":37.03857,"lng":-96.78839},{"zip":"67104","name":"Medicine Lodge","pending_pct":0.0909,"pending":1,"active":11,"total":11,"new":4,"median_price":92075,"ppsf":68,"dom":73,"pop":2142,"lat":37.27286,"lng":-98.65223},{"zip":"67106","name":"Milton","pending_pct":0.6667,"pending":2,"active":1,"total":3,"new":0,"median_price":5700000,"ppsf":728,"dom":222,"pop":560,"lat":37.46335,"lng":-97.75804},{"zip":"67107","name":"Moundridge","pending_pct":0.25,"pending":2,"active":7,"total":8,"new":2,"median_price":237425,"ppsf":94,"dom":79,"pop":2459,"lat":38.19496,"lng":-97.53911},{"zip":"67108","name":"Mount Hope","pending_pct":0.1667,"pending":1,"active":5,"total":6,"new":4,"median_price":328475,"ppsf":133,"dom":20,"pop":1384,"lat":37.81428,"lng":-97.68621},{"zip":"67109","name":"Mullinville","pending_pct":1.0,"pending":2,"active":2,"total":2,"new":0,"median_price":310750,"ppsf":187,"dom":35,"pop":335,"lat":37.56448,"lng":-99.47914},{"zip":"67110","name":"Mulvane","pending_pct":0.45,"pending":18,"active":22,"total":40,"new":14,"median_price":276240,"ppsf":147,"dom":43,"pop":8722,"lat":37.47022,"lng":-97.22425},{"zip":"67111","name":"Murdock","pending_pct":null,"pending":null,"active":1,"total":1,"new":0,"median_price":475000,"ppsf":308,"dom":67,"pop":318,"lat":37.6151,"lng":-97.93453},{"zip":"67114","name":"Newton","pending_pct":0.3293,"pending":27,"active":55,"total":82,"new":32,"median_price":214500,"ppsf":114,"dom":43,"pop":20919,"lat":38.07034,"lng":-97.28359},{"zip":"67117","name":"North Newton","pending_pct":0.5,"pending":4,"active":4,"total":8,"new":2,"median_price":284950,"ppsf":102,"dom":21,"pop":2157,"lat":38.07416,"lng":-97.34544},{"zip":"67118","name":"Norwich","pending_pct":0.25,"pending":1,"active":3,"total":4,"new":0,"median_price":198750,"ppsf":113,"dom":40,"pop":769,"lat":37.47829,"lng":-97.8605},{"zip":"67119","name":"Oxford","pending_pct":0.5,"pending":1,"active":1,"total":2,"new":0,"median_price":100000,"ppsf":63,"dom":19,"pop":1287,"lat":37.24202,"lng":-97.18152},{"zip":"67120","name":"Peck","pending_pct":0.1667,"pending":1,"active":6,"total":6,"new":2,"median_price":465875,"ppsf":158,"dom":64,"pop":575,"lat":37.46591,"lng":-97.37592},{"zip":"67122","name":"Piedmont","pending_pct":null,"pending":null,"active":1,"total":1,"new":0,"median_price":439000,"ppsf":null,"dom":155,"pop":296,"lat":37.62015,"lng":-96.42392},{"zip":"67123","name":"Potwin","pending_pct":null,"pending":null,"active":2,"total":2,"new":0,"median_price":316000,"ppsf":135,"dom":34,"pop":867,"lat":37.94676,"lng":-96.99352},{"zip":"67124","name":"Pratt","pending_pct":0.2553,"pending":12,"active":37,"total":47,"new":10,"median_price":204500,"ppsf":84,"dom":86,"pop":7868,"lat":37.63644,"lng":-98.77236},{"zip":"67127","name":"Protection","pending_pct":null,"pending":null,"active":1,"total":1,"new":0,"median_price":102465,"ppsf":56,"dom":264,"pop":681,"lat":37.16009,"lng":-99.49057},{"zip":"67133","name":"Rose Hill","pending_pct":0.3448,"pending":10,"active":20,"total":29,"new":8,"median_price":344738,"ppsf":153,"dom":37,"pop":6931,"lat":37.57677,"lng":-97.10451},{"zip":"67135","name":"Sedgwick","pending_pct":0.5714,"pending":4,"active":4,"total":7,"new":0,"median_price":444975,"ppsf":126,"dom":60,"pop":3681,"lat":37.91362,"lng":-97.45942},{"zip":"67137","name":"Severy","pending_pct":0.5,"pending":2,"active":3,"total":4,"new":0,"median_price":185500,"ppsf":54,"dom":56,"pop":357,"lat":37.63145,"lng":-96.22196},{"zip":"67138","name":"Sharon","pending_pct":1.0,"pending":1,"active":1,"total":1,"new":0,"median_price":55000,"ppsf":36,"dom":30,"pop":438,"lat":37.25996,"lng":-98.41858},{"zip":"67140","name":"South Haven","pending_pct":0.5,"pending":1,"active":1,"total":2,"new":0,"median_price":349500,"ppsf":97,"dom":21,"pop":971,"lat":37.07992,"lng":-97.35748},{"zip":"67142","name":"Spivey","pending_pct":0.3333,"pending":1,"active":2,"total":3,"new":0,"median_price":469100,"ppsf":128,"dom":185,"pop":358,"lat":37.45655,"lng":-98.1094},{"zip":"67144","name":"Towanda","pending_pct":0.6,"pending":3,"active":3,"total":5,"new":0,"median_price":403250,"ppsf":147,"dom":48,"pop":2712,"lat":37.81673,"lng":-97.00539},{"zip":"67146","name":"Udall","pending_pct":0.75,"pending":3,"active":2,"total":4,"new":0,"median_price":175000,"ppsf":70,"dom":54,"pop":1867,"lat":37.39016,"lng":-97.10398},{"zip":"67147","name":"Valley Center","pending_pct":0.4085,"pending":29,"active":42,"total":71,"new":18,"median_price":267720,"ppsf":145,"dom":123,"pop":10792,"lat":37.86062,"lng":-97.3058},{"zip":"67149","name":"Viola","pending_pct":null,"pending":null,"active":2,"total":2,"new":0,"median_price":1262500,"ppsf":404,"dom":91,"pop":844,"lat":37.54243,"lng":-97.62915},{"zip":"67151","name":"Walton","pending_pct":null,"pending":null,"active":1,"total":1,"new":2,"median_price":170000,"ppsf":92,"dom":6,"pop":402,"lat":38.14499,"lng":-97.24934},{"zip":"67152","name":"Wellington","pending_pct":0.383,"pending":18,"active":32,"total":47,"new":16,"median_price":138725,"ppsf":102,"dom":46,"pop":9212,"lat":37.2623,"lng":-97.41104},{"zip":"67156","name":"Winfield","pending_pct":0.3377,"pending":26,"active":52,"total":77,"new":28,"median_price":159900,"ppsf":99,"dom":50,"pop":14513,"lat":37.25099,"lng":-96.96503},{"zip":"67159","name":"Zenda","pending_pct":1.0,"pending":1,"active":1,"total":1,"new":0,"median_price":54900,"ppsf":46,"dom":132,"pop":183,"lat":37.42053,"lng":-98.30948},{"zip":"67202","name":"Wichita","pending_pct":0.6667,"pending":2,"active":1,"total":3,"new":0,"median_price":529925,"ppsf":287,"dom":258,"pop":2046,"lat":37.68668,"lng":-97.33521},{"zip":"67203","name":"Wichita","pending_pct":0.5652,"pending":39,"active":32,"total":69,"new":42,"median_price":188750,"ppsf":125,"dom":34,"pop":30710,"lat":37.70402,"lng":-97.36497},{"zip":"67204","name":"Wichita","pending_pct":0.4,"pending":24,"active":35,"total":60,"new":28,"median_price":374750,"ppsf":168,"dom":44,"pop":22538,"lat":37.77167,"lng":-97.36341},{"zip":"67205","name":"Wichita","pending_pct":0.2676,"pending":38,"active":107,"total":142,"new":42,"median_price":349950,"ppsf":151,"dom":71,"pop":20098,"lat":37.75012,"lng":-97.42317},{"zip":"67206","name":"Wichita","pending_pct":0.3529,"pending":24,"active":44,"total":68,"new":28,"median_price":398500,"ppsf":156,"dom":55,"pop":17380,"lat":37.70363,"lng":-97.22461},{"zip":"67207","name":"Wichita","pending_pct":0.4343,"pending":43,"active":56,"total":99,"new":32,"median_price":266975,"ppsf":126,"dom":44,"pop":27414,"lat":37.66567,"lng":-97.22923},{"zip":"67208","name":"Wichita","pending_pct":0.4762,"pending":30,"active":33,"total":63,"new":28,"median_price":199875,"ppsf":121,"dom":32,"pop":18950,"lat":37.70449,"lng":-97.27928},{"zip":"67209","name":"Wichita","pending_pct":0.4,"pending":14,"active":21,"total":35,"new":24,"median_price":275000,"ppsf":134,"dom":29,"pop":13289,"lat":37.6639,"lng":-97.43463},{"zip":"67210","name":"Wichita","pending_pct":0.4516,"pending":14,"active":17,"total":31,"new":12,"median_price":272500,"ppsf":158,"dom":84,"pop":9024,"lat":37.62944,"lng":-97.24604},{"zip":"67211","name":"Wichita","pending_pct":0.3968,"pending":25,"active":36,"total":63,"new":36,"median_price":139200,"ppsf":119,"dom":27,"pop":19105,"lat":37.66708,"lng":-97.31706},{"zip":"67212","name":"Wichita","pending_pct":0.6194,"pending":83,"active":52,"total":134,"new":60,"median_price":273325,"ppsf":126,"dom":35,"pop":42902,"lat":37.70247,"lng":-97.43658},{"zip":"67213","name":"Wichita","pending_pct":0.4677,"pending":29,"active":33,"total":62,"new":24,"median_price":147475,"ppsf":107,"dom":45,"pop":19699,"lat":37.66722,"lng":-97.36498},{"zip":"67214","name":"Wichita","pending_pct":0.5366,"pending":22,"active":21,"total":41,"new":8,"median_price":123750,"ppsf":111,"dom":58,"pop":15243,"lat":37.70661,"lng":-97.31755},{"zip":"67215","name":"Wichita","pending_pct":0.2727,"pending":21,"active":59,"total":77,"new":14,"median_price":234195,"ppsf":156,"dom":52,"pop":7129,"lat":37.61637,"lng":-97.42707},{"zip":"67216","name":"Wichita","pending_pct":0.4576,"pending":27,"active":32,"total":59,"new":24,"median_price":146250,"ppsf":110,"dom":43,"pop":23254,"lat":37.6089,"lng":-97.3143},{"zip":"67217","name":"Wichita","pending_pct":0.4143,"pending":29,"active":45,"total":70,"new":36,"median_price":183675,"ppsf":135,"dom":32,"pop":32603,"lat":37.61535,"lng":-97.36239},{"zip":"67218","name":"Wichita","pending_pct":0.5152,"pending":34,"active":33,"total":66,"new":24,"median_price":159725,"ppsf":125,"dom":41,"pop":23383,"lat":37.66851,"lng":-97.28039},{"zip":"67219","name":"Wichita","pending_pct":0.4848,"pending":32,"active":34,"total":66,"new":18,"median_price":272493,"ppsf":151,"dom":49,"pop":12586,"lat":37.76931,"lng":-97.31643},{"zip":"67220","name":"Wichita","pending_pct":0.3276,"pending":19,"active":39,"total":58,"new":14,"median_price":234500,"ppsf":169,"dom":45,"pop":16270,"lat":37.75191,"lng":-97.27909},{"zip":"67223","name":"Wichita","pending_pct":0.1562,"pending":5,"active":26,"total":32,"new":6,"median_price":207175,"ppsf":144,"dom":14,"pop":849,"lat":37.74195,"lng":-97.49797},{"zip":"67226","name":"Wichita","pending_pct":0.4118,"pending":56,"active":81,"total":136,"new":22,"median_price":399675,"ppsf":169,"dom":64,"pop":21596,"lat":37.76898,"lng":-97.21915},{"zip":"67227","name":"Wichita","pending_pct":null,"pending":null,"active":1,"total":1,"new":0,"median_price":415000,"ppsf":104,"dom":44,"pop":152,"lat":37.62693,"lng":-97.50109},{"zip":"67228","name":"Wichita","pending_pct":0.6364,"pending":7,"active":4,"total":11,"new":4,"median_price":467875,"ppsf":147,"dom":36,"pop":2424,"lat":37.77749,"lng":-97.17274},{"zip":"67230","name":"Wichita","pending_pct":0.4206,"pending":45,"active":63,"total":107,"new":24,"median_price":469700,"ppsf":160,"dom":47,"pop":11981,"lat":37.68655,"lng":-97.17087},{"zip":"67235","name":"Wichita","pending_pct":0.3852,"pending":47,"active":77,"total":122,"new":32,"median_price":347240,"ppsf":170,"dom":62,"pop":14958,"lat":37.68951,"lng":-97.49929},{"zip":"67301","name":"Independence","pending_pct":0.2368,"pending":18,"active":58,"total":76,"new":16,"median_price":183750,"ppsf":96,"dom":49,"pop":12953,"lat":37.21092,"lng":-95.75224},{"zip":"67330","name":"Altamont","pending_pct":0.4286,"pending":3,"active":4,"total":7,"new":2,"median_price":179750,"ppsf":100,"dom":70,"pop":1644,"lat":37.163,"lng":-95.31238},{"zip":"67332","name":"Bartlett","pending_pct":1.0,"pending":1,"active":1,"total":1,"new":0,"median_price":319000,"ppsf":126,"dom":197,"pop":204,"lat":37.04345,"lng":-95.23281},{"zip":"67333","name":"Caney","pending_pct":0.3333,"pending":6,"active":12,"total":18,"new":6,"median_price":132450,"ppsf":97,"dom":64,"pop":2478,"lat":37.04695,"lng":-95.87253},{"zip":"67335","name":"Cherryvale","pending_pct":0.7333,"pending":11,"active":6,"total":15,"new":2,"median_price":188750,"ppsf":127,"dom":30,"pop":3246,"lat":37.28005,"lng":-95.53381},{"zip":"67336","name":"Chetopa","pending_pct":0.5,"pending":4,"active":3,"total":8,"new":0,"median_price":168200,"ppsf":88,"dom":123,"pop":1150,"lat":37.05385,"lng":-95.07489},{"zip":"67337","name":"Coffeyville","pending_pct":0.3673,"pending":18,"active":32,"total":49,"new":14,"median_price":158100,"ppsf":91,"dom":57,"pop":10890,"lat":37.05486,"lng":-95.5993},{"zip":"67340","name":"Dearing","pending_pct":null,"pending":null,"active":0,"total":0,"new":0,"median_price":173000,"ppsf":150,"dom":152,"pop":209,"lat":37.05948,"lng":-95.71207},{"zip":"67342","name":"Edna","pending_pct":null,"pending":null,"active":1,"total":1,"new":0,"median_price":142500,"ppsf":74,"dom":11,"pop":618,"lat":37.05877,"lng":-95.35513},{"zip":"67344","name":"Elk City","pending_pct":0.6,"pending":3,"active":3,"total":5,"new":0,"median_price":183500,"ppsf":104,"dom":124,"pop":754,"lat":37.28875,"lng":-95.9514},{"zip":"67347","name":"Havana","pending_pct":null,"pending":null,"active":4,"total":4,"new":0,"median_price":747500,"ppsf":331,"dom":215,"pop":521,"lat":37.12559,"lng":-95.95188},{"zip":"67349","name":"Howard","pending_pct":1.0,"pending":1,"active":0,"total":1,"new":0,"median_price":144950,"ppsf":56,"dom":92,"pop":646,"lat":37.48811,"lng":-96.28066},{"zip":"67351","name":"Liberty","pending_pct":null,"pending":null,"active":1,"total":1,"new":0,"median_price":180000,"ppsf":81,"dom":21,"pop":325,"lat":37.14066,"lng":-95.56698},{"zip":"67352","name":"Longton","pending_pct":null,"pending":null,"active":4,"total":4,"new":0,"median_price":218500,"ppsf":412,"dom":59,"pop":488,"lat":37.3574,"lng":-96.08154},{"zip":"67353","name":"Moline","pending_pct":null,"pending":null,"active":1,"total":1,"new":0,"median_price":75000,"ppsf":55,"dom":null,"pop":519,"lat":37.31371,"lng":-96.31151},{"zip":"67354","name":"Mound Valley","pending_pct":null,"pending":null,"active":1,"total":1,"new":0,"median_price":229000,"ppsf":null,"dom":64,"pop":733,"lat":37.20727,"lng":-95.41126},{"zip":"67356","name":"Oswego","pending_pct":0.375,"pending":3,"active":5,"total":8,"new":2,"median_price":187400,"ppsf":89,"dom":126,"pop":2728,"lat":37.17886,"lng":-95.14161},{"zip":"67357","name":"Parsons","pending_pct":0.3704,"pending":20,"active":35,"total":54,"new":16,"median_price":185725,"ppsf":89,"dom":72,"pop":11853,"lat":37.33951,"lng":-95.25261},{"zip":"67360","name":"Peru","pending_pct":1.0,"pending":1,"active":1,"total":1,"new":0,"median_price":1440000,"ppsf":1646,"dom":175,"pop":259,"lat":37.05148,"lng":-96.09702},{"zip":"67361","name":"Sedan","pending_pct":null,"pending":null,"active":6,"total":6,"new":2,"median_price":93350,"ppsf":78,"dom":75,"pop":1780,"lat":37.13733,"lng":-96.21714},{"zip":"67401","name":"Salina","pending_pct":0.5085,"pending":90,"active":91,"total":177,"new":56,"median_price":219900,"ppsf":133,"dom":49,"pop":50217,"lat":38.83554,"lng":-97.64621},{"zip":"67410","name":"Abilene","pending_pct":0.4048,"pending":17,"active":25,"total":42,"new":14,"median_price":238225,"ppsf":94,"dom":42,"pop":10000,"lat":38.95632,"lng":-97.22104},{"zip":"67416","name":"Assaria","pending_pct":null,"pending":null,"active":1,"total":1,"new":2,"median_price":130000,"ppsf":112,"dom":5,"pop":950,"lat":38.66505,"lng":-97.5718},{"zip":"67420","name":"Beloit","pending_pct":0.24,"pending":6,"active":19,"total":25,"new":6,"median_price":165475,"ppsf":109,"dom":121,"pop":3863,"lat":39.40035,"lng":-98.08527},{"zip":"67422","name":"Bennington","pending_pct":0.375,"pending":3,"active":6,"total":8,"new":0,"median_price":290250,"ppsf":110,"dom":38,"pop":1407,"lat":39.03127,"lng":-97.59849},{"zip":"67423","name":"Beverly","pending_pct":null,"pending":null,"active":1,"total":1,"new":4,"median_price":159900,"ppsf":119,"dom":5,"pop":304,"lat":38.97018,"lng":-97.98058},{"zip":"67425","name":"Brookville","pending_pct":0.25,"pending":1,"active":3,"total":4,"new":0,"median_price":450000,"ppsf":189,"dom":101,"pop":593,"lat":38.77991,"lng":-97.92492},{"zip":"67427","name":"Bushton","pending_pct":0.5,"pending":1,"active":1,"total":2,"new":0,"median_price":138000,"ppsf":52,"dom":216,"pop":323,"lat":38.50364,"lng":-98.39977},{"zip":"67428","name":"Canton","pending_pct":0.8,"pending":4,"active":2,"total":5,"new":0,"median_price":108675,"ppsf":88,"dom":79,"pop":1191,"lat":38.3832,"lng":-97.41405},{"zip":"67430","name":"Cawker City","pending_pct":null,"pending":null,"active":1,"total":1,"new":4,"median_price":128000,"ppsf":null,"dom":5,"pop":468,"lat":39.57571,"lng":-98.44193},{"zip":"67431","name":"Chapman","pending_pct":0.6364,"pending":7,"active":5,"total":11,"new":4,"median_price":278675,"ppsf":118,"dom":52,"pop":2242,"lat":38.95833,"lng":-97.01179},{"zip":"67432","name":"Clay Center","pending_pct":0.375,"pending":9,"active":14,"total":24,"new":6,"median_price":246625,"ppsf":104,"dom":45,"pop":5607,"lat":39.33503,"lng":-97.17997},{"zip":"67436","name":"Delphos","pending_pct":null,"pending":null,"active":6,"total":6,"new":0,"median_price":202500,"ppsf":168,"dom":44,"pop":548,"lat":39.28071,"lng":-97.72454},{"zip":"67437","name":"Downs","pending_pct":0.2857,"pending":2,"active":5,"total":7,"new":2,"median_price":126225,"ppsf":82,"dom":81,"pop":971,"lat":39.50705,"lng":-98.55857},{"zip":"67438","name":"Durham","pending_pct":1.0,"pending":1,"active":0,"total":1,"new":0,"median_price":82000,"ppsf":51,"dom":49,"pop":226,"lat":38.50366,"lng":-97.27861},{"zip":"67439","name":"Ellsworth","pending_pct":0.2222,"pending":4,"active":14,"total":18,"new":6,"median_price":167500,"ppsf":142,"dom":51,"pop":3471,"lat":38.76169,"lng":-98.2201},{"zip":"67441","name":"Enterprise","pending_pct":1.0,"pending":2,"active":0,"total":2,"new":0,"median_price":212400,"ppsf":88,"dom":151,"pop":964,"lat":38.87712,"lng":-97.10399},{"zip":"67442","name":"Falun","pending_pct":null,"pending":null,"active":1,"total":1,"new":0,"median_price":30000,"ppsf":31,"dom":30,"pop":152,"lat":38.64939,"lng":-97.78073},{"zip":"67443","name":"Galva","pending_pct":0.6,"pending":3,"active":2,"total":5,"new":0,"median_price":448500,"ppsf":214,"dom":225,"pop":2080,"lat":38.37801,"lng":-97.5208},{"zip":"67444","name":"Geneseo","pending_pct":0.5,"pending":1,"active":1,"total":2,"new":0,"median_price":243425,"ppsf":199,"dom":64,"pop":623,"lat":38.54759,"lng":-98.12702},{"zip":"67445","name":"Glasco","pending_pct":0.1667,"pending":1,"active":5,"total":6,"new":0,"median_price":149900,"ppsf":104,"dom":76,"pop":565,"lat":39.37789,"lng":-97.8172},{"zip":"67446","name":"Glen Elder","pending_pct":0.3333,"pending":1,"active":2,"total":3,"new":0,"median_price":174900,"ppsf":111,"dom":129,"pop":673,"lat":39.47442,"lng":-98.32363},{"zip":"67447","name":"Green","pending_pct":1.0,"pending":1,"active":1,"total":1,"new":2,"median_price":295000,"ppsf":100,"dom":7,"pop":207,"lat":39.48048,"lng":-96.97153},{"zip":"67448","name":"Gypsum","pending_pct":0.3333,"pending":2,"active":4,"total":6,"new":2,"median_price":153500,"ppsf":99,"dom":41,"pop":1251,"lat":38.65826,"lng":-97.40756},{"zip":"67449","name":"Herington","pending_pct":0.2857,"pending":6,"active":16,"total":21,"new":4,"median_price":83447,"ppsf":62,"dom":49,"pop":2860,"lat":38.68214,"lng":-96.89569},{"zip":"67450","name":"Holyrood","pending_pct":0.3333,"pending":1,"active":2,"total":3,"new":0,"median_price":120875,"ppsf":78,"dom":97,"pop":432,"lat":38.62746,"lng":-98.45788},{"zip":"67451","name":"Hope","pending_pct":1.0,"pending":1,"active":0,"total":1,"new":0,"median_price":224900,"ppsf":75,"dom":72,"pop":840,"lat":38.70094,"lng":-97.13157},{"zip":"67454","name":"Kanopolis","pending_pct":null,"pending":null,"active":3,"total":3,"new":0,"median_price":88000,"ppsf":125,"dom":64,"pop":610,"lat":38.69808,"lng":-98.11308},{"zip":"67455","name":"Lincoln","pending_pct":0.0714,"pending":1,"active":14,"total":14,"new":2,"median_price":140000,"ppsf":91,"dom":106,"pop":1596,"lat":39.02765,"lng":-98.16478},{"zip":"67456","name":"Lindsborg","pending_pct":0.75,"pending":9,"active":3,"total":12,"new":4,"median_price":395000,"ppsf":139,"dom":54,"pop":4977,"lat":38.5949,"lng":-97.6769},{"zip":"67457","name":"Little River","pending_pct":0.5,"pending":2,"active":3,"total":4,"new":0,"median_price":156750,"ppsf":101,"dom":50,"pop":618,"lat":38.38746,"lng":-97.99143},{"zip":"67460","name":"Mcpherson","pending_pct":0.3516,"pending":32,"active":60,"total":91,"new":30,"median_price":261925,"ppsf":147,"dom":49,"pop":16348,"lat":38.38431,"lng":-97.69719},{"zip":"67464","name":"Marquette","pending_pct":0.1667,"pending":1,"active":5,"total":6,"new":0,"median_price":583500,"ppsf":182,"dom":54,"pop":1051,"lat":38.56537,"lng":-97.90143},{"zip":"67466","name":"Miltonvale","pending_pct":0.3333,"pending":1,"active":3,"total":3,"new":0,"median_price":69900,"ppsf":42,"dom":129,"pop":728,"lat":39.32787,"lng":-97.47905},{"zip":"67467","name":"Minneapolis","pending_pct":0.25,"pending":4,"active":13,"total":16,"new":4,"median_price":180000,"ppsf":82,"dom":62,"pop":2871,"lat":39.14639,"lng":-97.69907},{"zip":"67468","name":"Morganville","pending_pct":null,"pending":null,"active":1,"total":1,"new":0,"median_price":295000,"ppsf":86,"dom":27,"pop":265,"lat":39.45791,"lng":-97.25697},{"zip":"67473","name":"Osborne","pending_pct":null,"pending":null,"active":5,"total":5,"new":0,"median_price":132450,"ppsf":93,"dom":70,"pop":1724,"lat":39.37567,"lng":-98.73356},{"zip":"67480","name":"Solomon","pending_pct":0.2857,"pending":2,"active":5,"total":7,"new":2,"median_price":236100,"ppsf":133,"dom":77,"pop":1406,"lat":38.97073,"lng":-97.40282},{"zip":"67481","name":"Sylvan Grove","pending_pct":0.125,"pending":1,"active":7,"total":8,"new":0,"median_price":198500,"ppsf":143,"dom":107,"pop":729,"lat":39.01244,"lng":-98.38903},{"zip":"67482","name":"Talmage","pending_pct":1.0,"pending":1,"active":0,"total":1,"new":0,"median_price":59500,"ppsf":44,"dom":75,"pop":44,"lat":39.02686,"lng":-97.25976},{"zip":"67485","name":"Tipton","pending_pct":1.0,"pending":1,"active":0,"total":1,"new":0,"median_price":250000,"ppsf":null,"dom":77,"pop":380,"lat":39.31474,"lng":-98.49492},{"zip":"67487","name":"Wakefield","pending_pct":0.4,"pending":2,"active":4,"total":5,"new":0,"median_price":217200,"ppsf":130,"dom":75,"pop":1515,"lat":39.17628,"lng":-97.06653},{"zip":"67490","name":"Wilson","pending_pct":null,"pending":null,"active":9,"total":9,"new":0,"median_price":97000,"ppsf":86,"dom":58,"pop":1031,"lat":38.79223,"lng":-98.44722},{"zip":"67491","name":"Windom","pending_pct":1.0,"pending":1,"active":0,"total":1,"new":0,"median_price":56000,"ppsf":53,"dom":90,"pop":379,"lat":38.38837,"lng":-97.90051},{"zip":"67492","name":"Woodbine","pending_pct":0.6667,"pending":2,"active":1,"total":3,"new":0,"median_price":190000,"ppsf":93,"dom":37,"pop":200,"lat":38.81558,"lng":-96.96418},{"zip":"67501","name":"Hutchinson","pending_pct":0.4,"pending":20,"active":29,"total":50,"new":20,"median_price":117450,"ppsf":90,"dom":41,"pop":24605,"lat":37.97989,"lng":-97.9309},{"zip":"67502","name":"Hutchinson","pending_pct":0.573,"pending":51,"active":42,"total":89,"new":22,"median_price":268275,"ppsf":117,"dom":38,"pop":23099,"lat":38.12146,"lng":-97.92673},{"zip":"67505","name":"South Hutchinson","pending_pct":0.5,"pending":6,"active":7,"total":12,"new":6,"median_price":270000,"ppsf":108,"dom":46,"pop":2761,"lat":38.02855,"lng":-97.94333},{"zip":"67513","name":"Alexander","pending_pct":null,"pending":null,"active":1,"total":1,"new":0,"median_price":83000,"ppsf":71,"dom":58,"pop":97,"lat":38.43892,"lng":-99.53846},{"zip":"67514","name":"Arlington","pending_pct":0.3333,"pending":1,"active":2,"total":3,"new":0,"median_price":218725,"ppsf":123,"dom":30,"pop":705,"lat":37.86278,"lng":-98.19714},{"zip":"67516","name":"Bazine","pending_pct":null,"pending":null,"active":1,"total":1,"new":0,"median_price":125000,"ppsf":59,"dom":88,"pop":510,"lat":38.38768,"lng":-99.68486},{"zip":"67519","name":"Belpre","pending_pct":1.0,"pending":1,"active":0,"total":1,"new":0,"median_price":85000,"ppsf":77,"dom":193,"pop":175,"lat":37.93573,"lng":-99.10292},{"zip":"67520","name":"Bison","pending_pct":0.5,"pending":1,"active":1,"total":2,"new":0,"median_price":145000,"ppsf":92,"dom":127,"pop":267,"lat":38.58781,"lng":-99.18302},{"zip":"67521","name":"Brownell","pending_pct":0.5,"pending":1,"active":1,"total":2,"new":0,"median_price":199500,"ppsf":89,"dom":210,"pop":136,"lat":38.62575,"lng":-99.72253},{"zip":"67522","name":"Buhler","pending_pct":0.5,"pending":1,"active":2,"total":2,"new":0,"median_price":812450,"ppsf":205,"dom":133,"pop":2160,"lat":38.12294,"lng":-97.74608},{"zip":"67523","name":"Burdett","pending_pct":null,"pending":null,"active":1,"total":1,"new":0,"median_price":289000,"ppsf":88,"dom":115,"pop":498,"lat":38.19687,"lng":-99.55256},{"zip":"67524","name":"Chase","pending_pct":0.5,"pending":1,"active":1,"total":2,"new":0,"median_price":53900,"ppsf":75,"dom":16,"pop":618,"lat":38.37797,"lng":-98.37398},{"zip":"67525","name":"Claflin","pending_pct":0.4,"pending":2,"active":3,"total":5,"new":0,"median_price":338675,"ppsf":131,"dom":109,"pop":680,"lat":38.57205,"lng":-98.57111},{"zip":"67526","name":"Ellinwood","pending_pct":0.3333,"pending":3,"active":6,"total":9,"new":4,"median_price":209900,"ppsf":104,"dom":45,"pop":2621,"lat":38.29764,"lng":-98.54711},{"zip":"67529","name":"Garfield","pending_pct":null,"pending":null,"active":3,"total":3,"new":0,"median_price":74900,"ppsf":59,"dom":107,"pop":366,"lat":38.0728,"lng":-99.25436},{"zip":"67530","name":"Great Bend","pending_pct":0.2619,"pending":22,"active":63,"total":84,"new":22,"median_price":188475,"ppsf":108,"dom":54,"pop":17798,"lat":38.35149,"lng":-98.79678},{"zip":"67543","name":"Haven","pending_pct":0.4286,"pending":3,"active":4,"total":7,"new":0,"median_price":207375,"ppsf":117,"dom":29,"pop":2026,"lat":37.88346,"lng":-97.79511},{"zip":"67544","name":"Hoisington","pending_pct":0.4286,"pending":6,"active":8,"total":14,"new":2,"median_price":175000,"ppsf":98,"dom":81,"pop":3064,"lat":38.57584,"lng":-98.75456},{"zip":"67546","name":"Inman","pending_pct":0.3333,"pending":2,"active":5,"total":6,"new":4,"median_price":250000,"ppsf":125,"dom":35,"pop":2601,"lat":38.22811,"lng":-97.82116},{"zip":"67547","name":"Kinsley","pending_pct":0.2308,"pending":3,"active":10,"total":13,"new":0,"median_price":115725,"ppsf":79,"dom":73,"pop":1628,"lat":37.93926,"lng":-99.46526},{"zip":"67548","name":"La Crosse","pending_pct":0.125,"pending":1,"active":6,"total":8,"new":0,"median_price":100000,"ppsf":94,"dom":110,"pop":1289,"lat":38.59299,"lng":-99.33579},{"zip":"67550","name":"Larned","pending_pct":0.1944,"pending":7,"active":29,"total":36,"new":8,"median_price":167375,"ppsf":77,"dom":92,"pop":5104,"lat":38.18121,"lng":-99.12487},{"zip":"67552","name":"Lewis","pending_pct":1.0,"pending":1,"active":1,"total":1,"new":0,"median_price":67000,"ppsf":37,"dom":34,"pop":686,"lat":37.8606,"lng":-99.23651},{"zip":"67554","name":"Lyons","pending_pct":0.1,"pending":2,"active":18,"total":20,"new":6,"median_price":98225,"ppsf":81,"dom":49,"pop":4048,"lat":38.37489,"lng":-98.1858},{"zip":"67557","name":"Macksville","pending_pct":null,"pending":null,"active":1,"total":1,"new":0,"median_price":235000,"ppsf":98,"dom":71,"pop":765,"lat":37.91557,"lng":-98.96678},{"zip":"67559","name":"Nekoma","pending_pct":null,"pending":null,"active":1,"total":1,"new":0,"median_price":680000,"ppsf":540,"dom":163,"pop":66,"lat":38.37645,"lng":-99.44966},{"zip":"67560","name":"Ness City","pending_pct":0.1111,"pending":1,"active":8,"total":9,"new":2,"median_price":152500,"ppsf":84,"dom":121,"pop":1336,"lat":38.39781,"lng":-99.94818},{"zip":"67561","name":"Nickerson","pending_pct":0.6667,"pending":2,"active":1,"total":3,"new":2,"median_price":122000,"ppsf":75,"dom":46,"pop":1591,"lat":38.10427,"lng":-98.09921},{"zip":"67563","name":"Offerle","pending_pct":null,"pending":null,"active":1,"total":1,"new":0,"median_price":39900,"ppsf":28,"dom":58,"pop":339,"lat":37.84627,"lng":-99.55931},{"zip":"67564","name":"Olmitz","pending_pct":1.0,"pending":1,"active":1,"total":1,"new":0,"median_price":189500,"ppsf":149,"dom":173,"pop":290,"lat":38.52855,"lng":-98.92845},{"zip":"67565","name":"Otis","pending_pct":0.5,"pending":1,"active":1,"total":2,"new":0,"median_price":57000,"ppsf":28,"dom":null,"pop":447,"lat":38.60428,"lng":-99.04439},{"zip":"67566","name":"Partridge","pending_pct":null,"pending":null,"active":1,"total":1,"new":0,"median_price":1599000,"ppsf":355,"dom":252,"pop":785,"lat":37.944,"lng":-98.09938},{"zip":"67567","name":"Pawnee Rock","pending_pct":null,"pending":null,"active":3,"total":3,"new":0,"median_price":235000,"ppsf":39,"dom":155,"pop":643,"lat":38.26632,"lng":-98.97241},{"zip":"67568","name":"Plevna","pending_pct":0.5,"pending":1,"active":2,"total":2,"new":0,"median_price":247375,"ppsf":148,"dom":49,"pop":247,"lat":38.01729,"lng":-98.30888},{"zip":"67570","name":"Pretty Prairie","pending_pct":0.6667,"pending":2,"active":2,"total":3,"new":0,"median_price":102400,"ppsf":89,"dom":33,"pop":1571,"lat":37.78686,"lng":-97.968},{"zip":"67572","name":"Ransom","pending_pct":null,"pending":null,"active":1,"total":1,"new":0,"median_price":135000,"ppsf":98,"dom":337,"pop":430,"lat":38.68663,"lng":-99.90825},{"zip":"67576","name":"St John","pending_pct":null,"pending":null,"active":7,"total":7,"new":2,"median_price":76250,"ppsf":79,"dom":28,"pop":1806,"lat":38.03228,"lng":-98.79343},{"zip":"67578","name":"Stafford","pending_pct":0.25,"pending":3,"active":10,"total":12,"new":4,"median_price":147475,"ppsf":90,"dom":77,"pop":1104,"lat":37.96922,"lng":-98.59105},{"zip":"67579","name":"Sterling","pending_pct":0.4286,"pending":3,"active":4,"total":7,"new":6,"median_price":196000,"ppsf":86,"dom":30,"pop":3102,"lat":38.18615,"lng":-98.20861},{"zip":"67583","name":"Turon","pending_pct":null,"pending":null,"active":2,"total":2,"new":0,"median_price":239950,"ppsf":134,"dom":37,"pop":848,"lat":37.79997,"lng":-98.4714},{"zip":"67584","name":"Utica","pending_pct":1.0,"pending":1,"active":1,"total":1,"new":0,"median_price":78000,"ppsf":81,"dom":24,"pop":187,"lat":38.6847,"lng":-100.16072},{"zip":"67601","name":"Hays","pending_pct":0.3368,"pending":32,"active":64,"total":95,"new":38,"median_price":288000,"ppsf":127,"dom":42,"pop":24330,"lat":38.873,"lng":-99.34032},{"zip":"67621","name":"Agra","pending_pct":null,"pending":null,"active":1,"total":1,"new":0,"median_price":76000,"ppsf":43,"dom":40,"pop":335,"lat":39.82866,"lng":-99.12891},{"zip":"67622","name":"Almena","pending_pct":null,"pending":null,"active":1,"total":1,"new":0,"median_price":550000,"ppsf":153,"dom":98,"pop":680,"lat":39.89983,"lng":-99.72522},{"zip":"67623","name":"Alton","pending_pct":null,"pending":null,"active":1,"total":1,"new":0,"median_price":105000,"ppsf":69,"dom":114,"pop":228,"lat":39.45363,"lng":-98.95627},{"zip":"67631","name":"Collyer","pending_pct":null,"pending":null,"active":0,"total":0,"new":0,"median_price":199000,"ppsf":99,"dom":null,"pop":93,"lat":39.00837,"lng":-100.08569},{"zip":"67632","name":"Damar","pending_pct":0.3333,"pending":1,"active":2,"total":3,"new":0,"median_price":765875,"ppsf":313,"dom":121,"pop":201,"lat":39.33557,"lng":-99.58362},{"zip":"67634","name":"Dorrance","pending_pct":null,"pending":null,"active":1,"total":1,"new":0,"median_price":1900000,"ppsf":776,"dom":228,"pop":237,"lat":38.82654,"lng":-98.6073},{"zip":"67637","name":"Ellis","pending_pct":0.2381,"pending":5,"active":16,"total":21,"new":10,"median_price":192975,"ppsf":109,"dom":86,"pop":2711,"lat":38.94008,"lng":-99.59197},{"zip":"67640","name":"Gorham","pending_pct":0.5,"pending":1,"active":1,"total":2,"new":0,"median_price":80000,"ppsf":129,"dom":29,"pop":601,"lat":38.89853,"lng":-99.04925},{"zip":"67642","name":"Hill City","pending_pct":0.1667,"pending":1,"active":5,"total":6,"new":0,"median_price":97500,"ppsf":79,"dom":48,"pop":1752,"lat":39.36989,"lng":-99.8315},{"zip":"67645","name":"Lenora","pending_pct":0.3333,"pending":1,"active":2,"total":3,"new":0,"median_price":142450,"ppsf":73,"dom":36,"pop":531,"lat":39.60144,"lng":-99.89604},{"zip":"67648","name":"Lucas","pending_pct":null,"pending":null,"active":3,"total":3,"new":0,"median_price":86000,"ppsf":91,"dom":219,"pop":528,"lat":39.07746,"lng":-98.57278},{"zip":"67649","name":"Luray","pending_pct":1.0,"pending":1,"active":0,"total":1,"new":0,"median_price":103500,"ppsf":66,"dom":141,"pop":178,"lat":39.13404,"lng":-98.69232},{"zip":"67650","name":"Morland","pending_pct":1.0,"pending":2,"active":0,"total":2,"new":0,"median_price":252500,"ppsf":96,"dom":86,"pop":204,"lat":39.37477,"lng":-100.09925},{"zip":"67653","name":"Norcatur","pending_pct":null,"pending":null,"active":1,"total":1,"new":0,"median_price":58000,"ppsf":62,"dom":183,"pop":232,"lat":39.90873,"lng":-100.20554},{"zip":"67654","name":"Norton","pending_pct":0.05,"pending":1,"active":20,"total":20,"new":4,"median_price":233500,"ppsf":77,"dom":118,"pop":4021,"lat":39.83067,"lng":-99.95573},{"zip":"67657","name":"Palco","pending_pct":null,"pending":null,"active":0,"total":0,"new":0,"median_price":160000,"ppsf":82,"dom":69,"pop":326,"lat":39.21126,"lng":-99.60811},{"zip":"67661","name":"Phillipsburg","pending_pct":0.125,"pending":2,"active":14,"total":16,"new":2,"median_price":147875,"ppsf":81,"dom":101,"pop":2849,"lat":39.82546,"lng":-99.33039},{"zip":"67663","name":"Plainville","pending_pct":0.25,"pending":2,"active":7,"total":8,"new":4,"median_price":109000,"ppsf":75,"dom":70,"pop":2346,"lat":39.20597,"lng":-99.34222},{"zip":"67665","name":"Russell","pending_pct":0.3846,"pending":15,"active":24,"total":39,"new":10,"median_price":210875,"ppsf":97,"dom":67,"pop":4861,"lat":38.847,"lng":-98.88022},{"zip":"67667","name":"Schoenchen","pending_pct":1.0,"pending":1,"active":1,"total":1,"new":0,"median_price":149000,"ppsf":117,"dom":206,"pop":181,"lat":38.71304,"lng":-99.33249},{"zip":"67669","name":"Stockton","pending_pct":0.2,"pending":2,"active":8,"total":10,"new":0,"median_price":164950,"ppsf":64,"dom":127,"pop":1888,"lat":39.45631,"lng":-99.34914},{"zip":"67671","name":"Victoria","pending_pct":0.5,"pending":3,"active":4,"total":6,"new":2,"median_price":260000,"ppsf":174,"dom":92,"pop":1533,"lat":38.87559,"lng":-99.14432},{"zip":"67672","name":"Wakeeney","pending_pct":0.5455,"pending":6,"active":5,"total":11,"new":4,"median_price":137500,"ppsf":76,"dom":17,"pop":2159,"lat":38.99882,"lng":-99.90746},{"zip":"67701","name":"Colby","pending_pct":0.4762,"pending":10,"active":11,"total":21,"new":4,"median_price":199000,"ppsf":90,"dom":48,"pop":6134,"lat":39.39509,"lng":-101.05034},{"zip":"67730","name":"Atwood","pending_pct":null,"pending":null,"active":6,"total":6,"new":0,"median_price":162450,"ppsf":108,"dom":151,"pop":1654,"lat":39.80366,"lng":-101.11624},{"zip":"67731","name":"Bird City","pending_pct":0.5,"pending":2,"active":2,"total":4,"new":2,"median_price":143950,"ppsf":93,"dom":48,"pop":942,"lat":39.76277,"lng":-101.53858},{"zip":"67732","name":"Brewster","pending_pct":1.0,"pending":1,"active":0,"total":1,"new":0,"median_price":225000,"ppsf":null,"dom":59,"pop":691,"lat":39.37333,"lng":-101.3708},{"zip":"67735","name":"Goodland","pending_pct":0.2941,"pending":10,"active":24,"total":34,"new":2,"median_price":190000,"ppsf":102,"dom":64,"pop":5424,"lat":39.35119,"lng":-101.76646},{"zip":"67736","name":"Gove","pending_pct":null,"pending":null,"active":1,"total":1,"new":0,"median_price":44500,"ppsf":41,"dom":58,"pop":183,"lat":38.85492,"lng":-100.44715},{"zip":"67737","name":"Grainfield","pending_pct":null,"pending":null,"active":1,"total":1,"new":2,"median_price":127500,"ppsf":58,"dom":5,"pop":451,"lat":39.08798,"lng":-100.49367},{"zip":"67739","name":"Herndon","pending_pct":null,"pending":null,"active":2,"total":2,"new":0,"median_price":118750,"ppsf":75,"dom":90,"pop":280,"lat":39.8848,"lng":-100.80581},{"zip":"67740","name":"Hoxie","pending_pct":null,"pending":null,"active":6,"total":6,"new":0,"median_price":275000,"ppsf":179,"dom":118,"pop":1592,"lat":39.35576,"lng":-100.36089},{"zip":"67745","name":"Mc Donald","pending_pct":null,"pending":null,"active":3,"total":3,"new":0,"median_price":42350,"ppsf":43,"dom":85,"pop":353,"lat":39.8147,"lng":-101.34795},{"zip":"67748","name":"Oakley","pending_pct":0.4737,"pending":9,"active":10,"total":19,"new":2,"median_price":168000,"ppsf":67,"dom":60,"pop":2637,"lat":39.06507,"lng":-100.85643},{"zip":"67749","name":"Oberlin","pending_pct":0.1739,"pending":4,"active":19,"total":23,"new":2,"median_price":169000,"ppsf":78,"dom":98,"pop":2209,"lat":39.83214,"lng":-100.56728},{"zip":"67752","name":"Quinter","pending_pct":0.4,"pending":2,"active":3,"total":5,"new":0,"median_price":125000,"ppsf":61,"dom":118,"pop":1544,"lat":38.9924,"lng":-100.23145},{"zip":"67756","name":"Saint Francis","pending_pct":0.25,"pending":3,"active":10,"total":12,"new":2,"median_price":170750,"ppsf":101,"dom":134,"pop":1677,"lat":39.79815,"lng":-101.84265},{"zip":"67757","name":"Selden","pending_pct":null,"pending":null,"active":1,"total":1,"new":0,"median_price":70000,"ppsf":44,"dom":58,"pop":466,"lat":39.54527,"lng":-100.60881},{"zip":"67758","name":"Sharon Springs","pending_pct":null,"pending":null,"active":4,"total":4,"new":0,"median_price":117700,"ppsf":78,"dom":136,"pop":1009,"lat":38.89658,"lng":-101.7842},{"zip":"67801","name":"Dodge City","pending_pct":0.2069,"pending":24,"active":92,"total":116,"new":26,"median_price":247438,"ppsf":190,"dom":100,"pop":30967,"lat":37.72961,"lng":-100.05406},{"zip":"67831","name":"Ashland","pending_pct":null,"pending":null,"active":4,"total":4,"new":0,"median_price":117450,"ppsf":70,"dom":71,"pop":968,"lat":37.17956,"lng":-99.8018},{"zip":"67834","name":"Bucklin","pending_pct":0.1429,"pending":1,"active":7,"total":7,"new":0,"median_price":160500,"ppsf":107,"dom":80,"pop":891,"lat":37.53174,"lng":-99.61886},{"zip":"67835","name":"Cimarron","pending_pct":0.0833,"pending":1,"active":11,"total":12,"new":4,"median_price":276100,"ppsf":138,"dom":54,"pop":2716,"lat":37.98071,"lng":-100.31746},{"zip":"67836","name":"Coolidge","pending_pct":null,"pending":null,"active":1,"total":1,"new":0,"median_price":195000,"ppsf":94,"dom":46,"pop":44,"lat":38.03977,"lng":-101.9942},{"zip":"67838","name":"Deerfield","pending_pct":null,"pending":null,"active":3,"total":3,"new":0,"median_price":271250,"ppsf":272,"dom":72,"pop":960,"lat":38.05641,"lng":-101.13086},{"zip":"67839","name":"Dighton","pending_pct":null,"pending":null,"active":2,"total":2,"new":0,"median_price":169000,"ppsf":118,"dom":105,"pop":1050,"lat":38.47911,"lng":-100.43961},{"zip":"67840","name":"Englewood","pending_pct":null,"pending":null,"active":1,"total":1,"new":0,"median_price":47400,"ppsf":29,"dom":224,"pop":56,"lat":37.0736,"lng":-100.01097},{"zip":"67844","name":"Fowler","pending_pct":0.1429,"pending":1,"active":6,"total":7,"new":0,"median_price":155000,"ppsf":100,"dom":57,"pop":796,"lat":37.37798,"lng":-100.19562},{"zip":"67846","name":"Garden City","pending_pct":0.274,"pending":40,"active":107,"total":146,"new":30,"median_price":282500,"ppsf":220,"dom":73,"pop":34475,"lat":38.02311,"lng":-100.77756},{"zip":"67849","name":"Hanston","pending_pct":null,"pending":null,"active":2,"total":2,"new":0,"median_price":172500,"ppsf":128,"dom":92,"pop":300,"lat":38.15061,"lng":-99.71725},{"zip":"67850","name":"Healy","pending_pct":null,"pending":null,"active":1,"total":1,"new":0,"median_price":210000,"ppsf":53,"dom":195,"pop":486,"lat":38.6315,"lng":-100.63896},{"zip":"67851","name":"Holcomb","pending_pct":0.5,"pending":4,"active":5,"total":8,"new":2,"median_price":208975,"ppsf":222,"dom":57,"pop":3145,"lat":38.08796,"lng":-101.01972},{"zip":"67854","name":"Jetmore","pending_pct":0.2,"pending":1,"active":4,"total":5,"new":0,"median_price":164750,"ppsf":117,"dom":127,"pop":1004,"lat":38.09034,"lng":-100.0023},{"zip":"67855","name":"Johnson","pending_pct":0.4,"pending":2,"active":3,"total":5,"new":0,"median_price":146000,"ppsf":52,"dom":76,"pop":1831,"lat":37.54551,"lng":-101.69477},{"zip":"67859","name":"Kismet","pending_pct":0.25,"pending":1,"active":3,"total":4,"new":0,"median_price":149900,"ppsf":69,"dom":98,"pop":535,"lat":37.23636,"lng":-100.77421},{"zip":"67860","name":"Lakin","pending_pct":0.3333,"pending":5,"active":10,"total":15,"new":2,"median_price":254000,"ppsf":145,"dom":40,"pop":2763,"lat":38.0185,"lng":-101.29831},{"zip":"67861","name":"Leoti","pending_pct":0.6667,"pending":2,"active":1,"total":3,"new":0,"median_price":329900,"ppsf":168,"dom":217,"pop":1854,"lat":38.46768,"lng":-101.38914},{"zip":"67864","name":"Meade","pending_pct":0.1667,"pending":2,"active":10,"total":12,"new":2,"median_price":145000,"ppsf":116,"dom":61,"pop":1701,"lat":37.17178,"lng":-100.31807},{"zip":"67865","name":"Minneola","pending_pct":1.0,"pending":2,"active":2,"total":2,"new":0,"median_price":139950,"ppsf":73,"dom":3,"pop":1007,"lat":37.4368,"lng":-99.96506},{"zip":"67867","name":"Montezuma","pending_pct":0.6667,"pending":2,"active":1,"total":3,"new":0,"median_price":350000,"ppsf":166,"dom":74,"pop":1596,"lat":37.56812,"lng":-100.45804},{"zip":"67869","name":"Plains","pending_pct":0.5,"pending":2,"active":2,"total":4,"new":2,"median_price":219250,"ppsf":71,"dom":39,"pop":1327,"lat":37.24489,"lng":-100.57358},{"zip":"67870","name":"Satanta","pending_pct":0.5,"pending":2,"active":2,"total":4,"new":0,"median_price":291200,"ppsf":150,"dom":89,"pop":1277,"lat":37.53255,"lng":-101.01829},{"zip":"67871","name":"Scott City","pending_pct":0.4,"pending":2,"active":3,"total":5,"new":0,"median_price":319000,"ppsf":120,"dom":225,"pop":4985,"lat":38.49162,"lng":-100.91145},{"zip":"67876","name":"Spearville","pending_pct":0.25,"pending":1,"active":4,"total":4,"new":0,"median_price":143500,"ppsf":132,"dom":68,"pop":1499,"lat":37.86154,"lng":-99.73654},{"zip":"67877","name":"Sublette","pending_pct":0.1,"pending":1,"active":9,"total":10,"new":0,"median_price":222474,"ppsf":138,"dom":134,"pop":2289,"lat":37.54887,"lng":-100.84342},{"zip":"67878","name":"Syracuse","pending_pct":0.1667,"pending":1,"active":6,"total":6,"new":0,"median_price":247450,"ppsf":136,"dom":121,"pop":2316,"lat":38.00218,"lng":-101.80824},{"zip":"67879","name":"Tribune","pending_pct":null,"pending":null,"active":3,"total":3,"new":0,"median_price":89500,"ppsf":95,"dom":212,"pop":1302,"lat":38.47091,"lng":-101.79459},{"zip":"67880","name":"Ulysses","pending_pct":0.5294,"pending":9,"active":9,"total":17,"new":2,"median_price":217000,"ppsf":106,"dom":36,"pop":7293,"lat":37.60489,"lng":-101.32384},{"zip":"67882","name":"Wright","pending_pct":null,"pending":null,"active":2,"total":2,"new":0,"median_price":379450,"ppsf":193,"dom":64,"pop":179,"lat":37.8019,"lng":-99.88505},{"zip":"67901","name":"Liberal","pending_pct":0.2381,"pending":15,"active":48,"total":63,"new":12,"median_price":227250,"ppsf":98,"dom":115,"pop":20902,"lat":37.0943,"lng":-100.89864},{"zip":"67950","name":"Elkhart","pending_pct":0.2308,"pending":3,"active":10,"total":13,"new":0,"median_price":145550,"ppsf":65,"dom":71,"pop":1744,"lat":37.06277,"lng":-101.86765},{"zip":"67951","name":"Hugoton","pending_pct":0.3571,"pending":5,"active":9,"total":14,"new":0,"median_price":171250,"ppsf":90,"dom":208,"pop":4563,"lat":37.1639,"lng":-101.33486},{"zip":"67952","name":"Moscow","pending_pct":null,"pending":null,"active":1,"total":1,"new":0,"median_price":550000,"ppsf":136,"dom":117,"pop":452,"lat":37.29886,"lng":-101.13934},{"zip":"67954","name":"Rolla","pending_pct":null,"pending":null,"active":2,"total":2,"new":0,"median_price":89000,"ppsf":66,"dom":163,"pop":777,"lat":37.17999,"lng":-101.61179}]}