{"202606":[{"zip":"70001","name":"Metairie","pending_pct":0.2545,"pending":42,"active":128,"total":165,"new":32,"median_price":334725,"ppsf":196,"dom":59,"pop":38950,"lat":29.98272,"lng":-90.16881},{"zip":"70002","name":"Metairie","pending_pct":0.1771,"pending":17,"active":78,"total":96,"new":22,"median_price":352200,"ppsf":184,"dom":60,"pop":19426,"lat":30.0102,"lng":-90.16241},{"zip":"70003","name":"Metairie","pending_pct":0.2604,"pending":50,"active":140,"total":192,"new":52,"median_price":298375,"ppsf":178,"dom":60,"pop":39344,"lat":29.99874,"lng":-90.21418},{"zip":"70005","name":"Metairie","pending_pct":0.2164,"pending":29,"active":106,"total":134,"new":30,"median_price":449375,"ppsf":250,"dom":56,"pop":24088,"lat":30.00024,"lng":-90.13422},{"zip":"70006","name":"Metairie","pending_pct":0.2179,"pending":17,"active":61,"total":78,"new":18,"median_price":350000,"ppsf":181,"dom":64,"pop":16170,"lat":30.01393,"lng":-90.19171},{"zip":"70030","name":"Des Allemands","pending_pct":0.375,"pending":3,"active":5,"total":8,"new":2,"median_price":299000,"ppsf":142,"dom":262,"pop":4290,"lat":29.81635,"lng":-90.43526},{"zip":"70031","name":"Ama","pending_pct":0.3333,"pending":1,"active":2,"total":3,"new":2,"median_price":125000,"ppsf":132,"dom":61,"pop":1483,"lat":29.94401,"lng":-90.29666},{"zip":"70032","name":"Arabi","pending_pct":0.25,"pending":13,"active":39,"total":52,"new":2,"median_price":296500,"ppsf":181,"dom":67,"pop":4625,"lat":29.95128,"lng":-89.9958},{"zip":"70036","name":"Barataria","pending_pct":0.125,"pending":1,"active":7,"total":8,"new":0,"median_price":258675,"ppsf":145,"dom":91,"pop":544,"lat":29.69855,"lng":-90.12667},{"zip":"70037","name":"Belle Chasse","pending_pct":0.2198,"pending":20,"active":73,"total":91,"new":14,"median_price":436200,"ppsf":187,"dom":72,"pop":16639,"lat":29.78669,"lng":-90.01523},{"zip":"70039","name":"Boutte","pending_pct":0.1,"pending":1,"active":9,"total":10,"new":2,"median_price":238000,"ppsf":162,"dom":49,"pop":1993,"lat":29.88274,"lng":-90.37925},{"zip":"70040","name":"Braithwaite","pending_pct":0.2,"pending":2,"active":9,"total":10,"new":0,"median_price":255000,"ppsf":128,"dom":101,"pop":1056,"lat":29.75806,"lng":-89.92327},{"zip":"70041","name":"Buras","pending_pct":null,"pending":null,"active":12,"total":12,"new":0,"median_price":165000,"ppsf":86,"dom":236,"pop":1747,"lat":29.33194,"lng":-89.46978},{"zip":"70043","name":"Chalmette","pending_pct":0.1429,"pending":14,"active":84,"total":98,"new":36,"median_price":249000,"ppsf":149,"dom":69,"pop":22638,"lat":29.9571,"lng":-89.96481},{"zip":"70047","name":"Destrehan","pending_pct":0.2576,"pending":17,"active":50,"total":66,"new":18,"median_price":309900,"ppsf":148,"dom":75,"pop":13220,"lat":29.96686,"lng":-90.36552},{"zip":"70049","name":"Edgard","pending_pct":null,"pending":null,"active":1,"total":1,"new":0,"median_price":220000,"ppsf":60,"dom":null,"pop":1482,"lat":30.03062,"lng":-90.55911},{"zip":"70051","name":"Garyville","pending_pct":0.2727,"pending":3,"active":8,"total":11,"new":2,"median_price":141850,"ppsf":118,"dom":53,"pop":1878,"lat":30.07356,"lng":-90.63999},{"zip":"70052","name":"Gramercy","pending_pct":0.1333,"pending":2,"active":14,"total":15,"new":2,"median_price":189000,"ppsf":121,"dom":29,"pop":3171,"lat":30.07103,"lng":-90.68731},{"zip":"70053","name":"Gretna","pending_pct":0.1944,"pending":14,"active":60,"total":72,"new":18,"median_price":248000,"ppsf":155,"dom":104,"pop":16621,"lat":29.91456,"lng":-90.05318},{"zip":"70056","name":"Gretna","pending_pct":0.2791,"pending":36,"active":93,"total":129,"new":34,"median_price":270000,"ppsf":155,"dom":63,"pop":40348,"lat":29.88848,"lng":-90.03028},{"zip":"70057","name":"Hahnville","pending_pct":0.1875,"pending":3,"active":13,"total":16,"new":4,"median_price":339950,"ppsf":166,"dom":111,"pop":4122,"lat":29.95949,"lng":-90.45897},{"zip":"70058","name":"Harvey","pending_pct":0.2013,"pending":32,"active":126,"total":159,"new":28,"median_price":257900,"ppsf":151,"dom":57,"pop":39578,"lat":29.8701,"lng":-90.06708},{"zip":"70062","name":"Kenner","pending_pct":0.1556,"pending":7,"active":39,"total":45,"new":4,"median_price":266000,"ppsf":180,"dom":80,"pop":17771,"lat":29.98924,"lng":-90.25579},{"zip":"70065","name":"Kenner","pending_pct":0.1966,"pending":46,"active":188,"total":234,"new":44,"median_price":297000,"ppsf":164,"dom":63,"pop":48936,"lat":30.02767,"lng":-90.25405},{"zip":"70067","name":"Lafitte","pending_pct":0.1333,"pending":2,"active":13,"total":15,"new":4,"median_price":250200,"ppsf":154,"dom":100,"pop":2754,"lat":29.72008,"lng":-90.10383},{"zip":"70068","name":"La Place","pending_pct":0.3117,"pending":48,"active":106,"total":154,"new":26,"median_price":240000,"ppsf":135,"dom":87,"pop":32720,"lat":30.14113,"lng":-90.43502},{"zip":"70070","name":"Luling","pending_pct":0.1912,"pending":13,"active":55,"total":68,"new":24,"median_price":339950,"ppsf":159,"dom":73,"pop":13960,"lat":29.83302,"lng":-90.3052},{"zip":"70071","name":"Lutcher","pending_pct":0.1111,"pending":1,"active":9,"total":9,"new":4,"median_price":156225,"ppsf":99,"dom":50,"pop":3018,"lat":30.05123,"lng":-90.70291},{"zip":"70072","name":"Marrero","pending_pct":0.2398,"pending":59,"active":189,"total":246,"new":52,"median_price":224900,"ppsf":155,"dom":68,"pop":55693,"lat":29.83012,"lng":-90.12724},{"zip":"70075","name":"Meraux","pending_pct":0.2333,"pending":7,"active":24,"total":30,"new":12,"median_price":257950,"ppsf":158,"dom":96,"pop":5392,"lat":29.93158,"lng":-89.92081},{"zip":"70076","name":"Mount Airy","pending_pct":null,"pending":null,"active":1,"total":1,"new":0,"median_price":82000,"ppsf":55,"dom":105,"pop":100,"lat":30.04945,"lng":-90.63678},{"zip":"70079","name":"Norco","pending_pct":0.4545,"pending":5,"active":7,"total":11,"new":0,"median_price":219725,"ppsf":148,"dom":107,"pop":2757,"lat":30.00172,"lng":-90.41218},{"zip":"70083","name":"Port Sulphur","pending_pct":0.0667,"pending":1,"active":14,"total":15,"new":4,"median_price":245000,"ppsf":151,"dom":98,"pop":2317,"lat":29.52342,"lng":-89.85211},{"zip":"70084","name":"Reserve","pending_pct":0.2273,"pending":5,"active":18,"total":22,"new":2,"median_price":183500,"ppsf":119,"dom":78,"pop":5629,"lat":30.07242,"lng":-90.57251},{"zip":"70085","name":"Saint Bernard","pending_pct":0.1852,"pending":5,"active":23,"total":27,"new":0,"median_price":248000,"ppsf":174,"dom":86,"pop":4736,"lat":29.81629,"lng":-89.76127},{"zip":"70087","name":"Saint Rose","pending_pct":0.4375,"pending":7,"active":10,"total":16,"new":8,"median_price":234500,"ppsf":156,"dom":55,"pop":7314,"lat":29.98092,"lng":-90.31264},{"zip":"70090","name":"Vacherie","pending_pct":0.25,"pending":4,"active":11,"total":16,"new":0,"median_price":280000,"ppsf":163,"dom":168,"pop":6447,"lat":29.96725,"lng":-90.6934},{"zip":"70091","name":"Venice","pending_pct":null,"pending":null,"active":1,"total":1,"new":0,"median_price":425000,"ppsf":232,"dom":72,"pop":337,"lat":29.17723,"lng":-89.23204},{"zip":"70092","name":"Violet","pending_pct":0.2917,"pending":7,"active":18,"total":24,"new":6,"median_price":196250,"ppsf":139,"dom":79,"pop":6936,"lat":29.90026,"lng":-89.89598},{"zip":"70094","name":"Westwego","pending_pct":0.2672,"pending":31,"active":84,"total":116,"new":20,"median_price":209450,"ppsf":149,"dom":68,"pop":32130,"lat":29.91162,"lng":-90.20876},{"zip":"70112","name":"New Orleans","pending_pct":0.0556,"pending":3,"active":51,"total":54,"new":4,"median_price":359250,"ppsf":407,"dom":126,"pop":3490,"lat":29.95608,"lng":-90.07733},{"zip":"70113","name":"New Orleans","pending_pct":0.0896,"pending":6,"active":61,"total":67,"new":6,"median_price":454250,"ppsf":327,"dom":120,"pop":9387,"lat":29.9422,"lng":-90.08382},{"zip":"70114","name":"New Orleans","pending_pct":0.155,"pending":20,"active":109,"total":129,"new":14,"median_price":277000,"ppsf":174,"dom":81,"pop":22659,"lat":29.93704,"lng":-90.0321},{"zip":"70115","name":"New Orleans","pending_pct":0.2841,"pending":50,"active":130,"total":176,"new":58,"median_price":494000,"ppsf":337,"dom":60,"pop":31183,"lat":29.92375,"lng":-90.10219},{"zip":"70116","name":"New Orleans","pending_pct":0.09,"pending":18,"active":183,"total":200,"new":20,"median_price":387000,"ppsf":422,"dom":85,"pop":10404,"lat":29.96697,"lng":-90.06448},{"zip":"70117","name":"New Orleans","pending_pct":0.0812,"pending":16,"active":181,"total":197,"new":30,"median_price":229250,"ppsf":171,"dom":73,"pop":25652,"lat":29.9685,"lng":-90.03004},{"zip":"70118","name":"New Orleans","pending_pct":0.275,"pending":44,"active":113,"total":160,"new":28,"median_price":339000,"ppsf":236,"dom":75,"pop":36072,"lat":29.9451,"lng":-90.1257},{"zip":"70119","name":"New Orleans","pending_pct":0.1844,"pending":26,"active":114,"total":141,"new":26,"median_price":299000,"ppsf":217,"dom":71,"pop":37253,"lat":29.97567,"lng":-90.08729},{"zip":"70121","name":"New Orleans","pending_pct":0.1579,"pending":12,"active":64,"total":76,"new":16,"median_price":270925,"ppsf":187,"dom":66,"pop":10558,"lat":29.9608,"lng":-90.15881},{"zip":"70122","name":"New Orleans","pending_pct":0.2146,"pending":44,"active":163,"total":205,"new":30,"median_price":305000,"ppsf":173,"dom":64,"pop":35253,"lat":30.00835,"lng":-90.06467},{"zip":"70123","name":"New Orleans","pending_pct":0.2174,"pending":30,"active":110,"total":138,"new":28,"median_price":374925,"ppsf":199,"dom":55,"pop":27386,"lat":29.951,"lng":-90.20501},{"zip":"70124","name":"New Orleans","pending_pct":0.3174,"pending":53,"active":114,"total":167,"new":32,"median_price":571000,"ppsf":241,"dom":82,"pop":21778,"lat":30.00747,"lng":-90.10378},{"zip":"70125","name":"New Orleans","pending_pct":0.1205,"pending":10,"active":74,"total":83,"new":16,"median_price":337000,"ppsf":193,"dom":63,"pop":17821,"lat":29.95202,"lng":-90.10338},{"zip":"70126","name":"New Orleans","pending_pct":0.2373,"pending":28,"active":90,"total":118,"new":10,"median_price":178938,"ppsf":112,"dom":92,"pop":27047,"lat":30.01948,"lng":-90.01739},{"zip":"70127","name":"New Orleans","pending_pct":0.2381,"pending":15,"active":48,"total":63,"new":12,"median_price":181669,"ppsf":117,"dom":90,"pop":23107,"lat":30.02966,"lng":-89.9761},{"zip":"70128","name":"New Orleans","pending_pct":0.1791,"pending":12,"active":56,"total":67,"new":12,"median_price":216750,"ppsf":110,"dom":93,"pop":22986,"lat":30.04896,"lng":-89.95398},{"zip":"70129","name":"New Orleans","pending_pct":0.2203,"pending":13,"active":47,"total":59,"new":6,"median_price":259675,"ppsf":119,"dom":93,"pop":9769,"lat":30.08239,"lng":-89.81617},{"zip":"70130","name":"New Orleans","pending_pct":0.1387,"pending":33,"active":203,"total":238,"new":32,"median_price":388000,"ppsf":360,"dom":80,"pop":12560,"lat":29.93671,"lng":-90.06949},{"zip":"70131","name":"New Orleans","pending_pct":0.2143,"pending":33,"active":122,"total":154,"new":20,"median_price":294225,"ppsf":131,"dom":85,"pop":25151,"lat":29.9081,"lng":-89.96044},{"zip":"70301","name":"Thibodaux","pending_pct":0.2819,"pending":64,"active":163,"total":227,"new":46,"median_price":287475,"ppsf":153,"dom":78,"pop":50095,"lat":29.81431,"lng":-90.7411},{"zip":"70339","name":"Pierre Part","pending_pct":0.0769,"pending":2,"active":24,"total":26,"new":2,"median_price":412000,"ppsf":216,"dom":79,"pop":4848,"lat":29.92987,"lng":-91.18357},{"zip":"70340","name":"","pending_pct":null,"pending":null,"active":1,"total":1,"new":0,"median_price":229000,"ppsf":77,"dom":81,"pop":0,"lat":29.66974,"lng":-91.1043},{"zip":"70341","name":"Belle Rose","pending_pct":0.4444,"pending":4,"active":6,"total":9,"new":0,"median_price":315000,"ppsf":100,"dom":33,"pop":3690,"lat":30.02579,"lng":-91.08267},{"zip":"70342","name":"Berwick","pending_pct":0.3636,"pending":4,"active":8,"total":11,"new":4,"median_price":292250,"ppsf":120,"dom":96,"pop":4607,"lat":29.69486,"lng":-91.23772},{"zip":"70343","name":"Bourg","pending_pct":0.3684,"pending":7,"active":12,"total":19,"new":4,"median_price":344200,"ppsf":153,"dom":120,"pop":5280,"lat":29.55308,"lng":-90.56402},{"zip":"70344","name":"Chauvin","pending_pct":0.0345,"pending":1,"active":29,"total":29,"new":4,"median_price":356500,"ppsf":218,"dom":100,"pop":4724,"lat":29.39711,"lng":-90.63777},{"zip":"70345","name":"Cut Off","pending_pct":0.102,"pending":5,"active":45,"total":49,"new":2,"median_price":221000,"ppsf":109,"dom":125,"pop":8344,"lat":29.51815,"lng":-90.23763},{"zip":"70346","name":"Donaldsonville","pending_pct":0.25,"pending":5,"active":15,"total":20,"new":2,"median_price":189000,"ppsf":114,"dom":62,"pop":9927,"lat":30.10774,"lng":-91.02061},{"zip":"70353","name":"Dulac","pending_pct":0.1333,"pending":2,"active":13,"total":15,"new":4,"median_price":210000,"ppsf":171,"dom":86,"pop":442,"lat":29.36598,"lng":-90.70554},{"zip":"70354","name":"Galliano","pending_pct":0.25,"pending":5,"active":16,"total":20,"new":0,"median_price":149900,"ppsf":85,"dom":60,"pop":3404,"lat":29.43136,"lng":-90.34336},{"zip":"70355","name":"Gheens","pending_pct":null,"pending":null,"active":3,"total":3,"new":0,"median_price":97950,"ppsf":89,"dom":166,"pop":957,"lat":29.69491,"lng":-90.42916},{"zip":"70356","name":"Gibson","pending_pct":0.25,"pending":1,"active":3,"total":4,"new":0,"median_price":154900,"ppsf":113,"dom":61,"pop":1495,"lat":29.64142,"lng":-90.95953},{"zip":"70357","name":"Golden Meadow","pending_pct":0.1304,"pending":3,"active":20,"total":23,"new":2,"median_price":141750,"ppsf":69,"dom":147,"pop":2351,"lat":29.28451,"lng":-90.17463},{"zip":"70358","name":"Grand Isle","pending_pct":0.0988,"pending":8,"active":75,"total":81,"new":6,"median_price":461250,"ppsf":317,"dom":98,"pop":623,"lat":29.21367,"lng":-90.0306},{"zip":"70359","name":"Gray","pending_pct":0.2632,"pending":10,"active":29,"total":38,"new":2,"median_price":234500,"ppsf":156,"dom":201,"pop":10038,"lat":29.68649,"lng":-90.77859},{"zip":"70360","name":"Houma","pending_pct":0.1497,"pending":25,"active":141,"total":167,"new":24,"median_price":348750,"ppsf":160,"dom":94,"pop":28574,"lat":29.58396,"lng":-90.81001},{"zip":"70363","name":"Houma","pending_pct":0.2674,"pending":23,"active":64,"total":86,"new":10,"median_price":161420,"ppsf":107,"dom":90,"pop":24127,"lat":29.51516,"lng":-90.70404},{"zip":"70364","name":"Houma","pending_pct":0.242,"pending":38,"active":118,"total":157,"new":34,"median_price":211500,"ppsf":131,"dom":88,"pop":28716,"lat":29.63419,"lng":-90.68752},{"zip":"70372","name":"Labadieville","pending_pct":0.2222,"pending":2,"active":8,"total":9,"new":4,"median_price":171000,"ppsf":119,"dom":73,"pop":1968,"lat":29.78249,"lng":-90.9889},{"zip":"70373","name":"Larose","pending_pct":0.1613,"pending":5,"active":26,"total":31,"new":4,"median_price":185000,"ppsf":105,"dom":186,"pop":5539,"lat":29.61335,"lng":-90.31919},{"zip":"70374","name":"Lockport","pending_pct":0.2609,"pending":6,"active":18,"total":23,"new":0,"median_price":235000,"ppsf":143,"dom":91,"pop":5872,"lat":29.59924,"lng":-90.50319},{"zip":"70375","name":"Mathews","pending_pct":null,"pending":null,"active":1,"total":1,"new":0,"median_price":734000,"ppsf":260,"dom":null,"pop":178,"lat":29.69491,"lng":-90.53257},{"zip":"70377","name":"Montegut","pending_pct":0.1667,"pending":3,"active":16,"total":18,"new":2,"median_price":96125,"ppsf":80,"dom":155,"pop":3056,"lat":29.45808,"lng":-90.51361},{"zip":"70380","name":"Morgan City","pending_pct":0.1286,"pending":9,"active":62,"total":70,"new":16,"median_price":193375,"ppsf":104,"dom":98,"pop":20529,"lat":29.71944,"lng":-91.12634},{"zip":"70390","name":"Napoleonville","pending_pct":0.2308,"pending":3,"active":11,"total":13,"new":4,"median_price":179750,"ppsf":121,"dom":79,"pop":7160,"lat":29.89068,"lng":-91.03616},{"zip":"70391","name":"","pending_pct":null,"pending":null,"active":1,"total":1,"new":0,"median_price":225000,"ppsf":156,"dom":87,"pop":0,"lat":29.99516,"lng":-91.06029},{"zip":"70392","name":"Patterson","pending_pct":0.1053,"pending":2,"active":17,"total":19,"new":4,"median_price":259000,"ppsf":121,"dom":89,"pop":8173,"lat":29.69847,"lng":-91.32164},{"zip":"70394","name":"Raceland","pending_pct":0.186,"pending":8,"active":36,"total":43,"new":8,"median_price":192000,"ppsf":130,"dom":102,"pop":13395,"lat":29.69448,"lng":-90.61399},{"zip":"70395","name":"Schriever","pending_pct":0.1765,"pending":3,"active":14,"total":17,"new":2,"median_price":387500,"ppsf":172,"dom":174,"pop":4420,"lat":29.69309,"lng":-90.8513},{"zip":"70397","name":"Theriot","pending_pct":null,"pending":null,"active":15,"total":15,"new":0,"median_price":289000,"ppsf":169,"dom":208,"pop":971,"lat":29.38444,"lng":-90.823},{"zip":"70401","name":"Hammond","pending_pct":0.2,"pending":15,"active":60,"total":75,"new":10,"median_price":249925,"ppsf":143,"dom":71,"pop":21221,"lat":30.5281,"lng":-90.45472},{"zip":"70403","name":"Hammond","pending_pct":0.2086,"pending":29,"active":109,"total":139,"new":24,"median_price":257500,"ppsf":149,"dom":77,"pop":30173,"lat":30.47989,"lng":-90.48639},{"zip":"70420","name":"Abita Springs","pending_pct":0.2727,"pending":12,"active":32,"total":44,"new":6,"median_price":464500,"ppsf":220,"dom":72,"pop":7950,"lat":30.48767,"lng":-89.95907},{"zip":"70422","name":"Amite","pending_pct":0.1935,"pending":6,"active":25,"total":31,"new":4,"median_price":286000,"ppsf":130,"dom":70,"pop":15399,"lat":30.73699,"lng":-90.491},{"zip":"70426","name":"Angie","pending_pct":0.3333,"pending":2,"active":5,"total":6,"new":0,"median_price":172500,"ppsf":87,"dom":42,"pop":6090,"lat":30.93142,"lng":-89.85807},{"zip":"70427","name":"Bogalusa","pending_pct":0.2542,"pending":15,"active":45,"total":59,"new":6,"median_price":169950,"ppsf":100,"dom":86,"pop":17596,"lat":30.74587,"lng":-89.9125},{"zip":"70431","name":"Bush","pending_pct":0.1892,"pending":7,"active":31,"total":37,"new":6,"median_price":541250,"ppsf":206,"dom":78,"pop":5769,"lat":30.61211,"lng":-89.97215},{"zip":"70433","name":"Covington","pending_pct":0.237,"pending":82,"active":267,"total":346,"new":74,"median_price":445750,"ppsf":198,"dom":66,"pop":41876,"lat":30.46184,"lng":-90.13796},{"zip":"70435","name":"Covington","pending_pct":0.25,"pending":35,"active":103,"total":140,"new":30,"median_price":379000,"ppsf":178,"dom":62,"pop":22475,"lat":30.55955,"lng":-90.101},{"zip":"70437","name":"Folsom","pending_pct":0.24,"pending":12,"active":40,"total":50,"new":12,"median_price":448725,"ppsf":211,"dom":58,"pop":8030,"lat":30.60909,"lng":-90.20928},{"zip":"70438","name":"Franklinton","pending_pct":0.2222,"pending":14,"active":48,"total":63,"new":10,"median_price":248000,"ppsf":137,"dom":95,"pop":19349,"lat":30.84139,"lng":-90.11186},{"zip":"70441","name":"Greensburg","pending_pct":0.0909,"pending":1,"active":11,"total":11,"new":0,"median_price":173125,"ppsf":123,"dom":70,"pop":5685,"lat":30.85987,"lng":-90.7489},{"zip":"70443","name":"Independence","pending_pct":0.2,"pending":6,"active":25,"total":30,"new":8,"median_price":236950,"ppsf":154,"dom":48,"pop":9006,"lat":30.62885,"lng":-90.54257},{"zip":"70444","name":"Kentwood","pending_pct":0.1739,"pending":4,"active":19,"total":23,"new":8,"median_price":280725,"ppsf":153,"dom":47,"pop":8687,"lat":30.90833,"lng":-90.48707},{"zip":"70445","name":"Lacombe","pending_pct":0.3239,"pending":23,"active":50,"total":71,"new":14,"median_price":256975,"ppsf":155,"dom":62,"pop":9288,"lat":30.36352,"lng":-89.91265},{"zip":"70446","name":"Loranger","pending_pct":0.25,"pending":7,"active":21,"total":28,"new":2,"median_price":299963,"ppsf":158,"dom":82,"pop":7173,"lat":30.63612,"lng":-90.35159},{"zip":"70447","name":"Madisonville","pending_pct":0.2684,"pending":51,"active":137,"total":190,"new":42,"median_price":427125,"ppsf":190,"dom":59,"pop":17897,"lat":30.42144,"lng":-90.20257},{"zip":"70448","name":"Mandeville","pending_pct":0.2875,"pending":46,"active":116,"total":160,"new":58,"median_price":382000,"ppsf":193,"dom":53,"pop":26338,"lat":30.36278,"lng":-90.03943},{"zip":"70449","name":"Maurepas","pending_pct":0.2609,"pending":6,"active":18,"total":23,"new":0,"median_price":489900,"ppsf":234,"dom":70,"pop":3092,"lat":30.26363,"lng":-90.66345},{"zip":"70450","name":"Mount Hermon","pending_pct":null,"pending":null,"active":4,"total":4,"new":0,"median_price":231450,"ppsf":164,"dom":82,"pop":2921,"lat":30.93667,"lng":-90.26755},{"zip":"70452","name":"Pearl River","pending_pct":0.32,"pending":16,"active":34,"total":50,"new":12,"median_price":316250,"ppsf":160,"dom":66,"pop":12650,"lat":30.41424,"lng":-89.76048},{"zip":"70453","name":"Pine Grove","pending_pct":null,"pending":null,"active":1,"total":1,"new":0,"median_price":449900,"ppsf":187,"dom":10,"pop":1162,"lat":30.69385,"lng":-90.76918},{"zip":"70454","name":"Ponchatoula","pending_pct":0.2387,"pending":58,"active":185,"total":243,"new":64,"median_price":265000,"ppsf":152,"dom":61,"pop":34564,"lat":30.39525,"lng":-90.3682},{"zip":"70455","name":"Robert","pending_pct":0.45,"pending":9,"active":10,"total":20,"new":2,"median_price":230625,"ppsf":156,"dom":48,"pop":2181,"lat":30.52438,"lng":-90.31883},{"zip":"70456","name":"Roseland","pending_pct":0.1667,"pending":1,"active":5,"total":6,"new":0,"median_price":399900,"ppsf":206,"dom":51,"pop":3193,"lat":30.79332,"lng":-90.50702},{"zip":"70458","name":"Slidell","pending_pct":0.1947,"pending":59,"active":246,"total":303,"new":58,"median_price":286975,"ppsf":146,"dom":65,"pop":39034,"lat":30.25864,"lng":-89.79441},{"zip":"70460","name":"Slidell","pending_pct":0.2,"pending":25,"active":101,"total":125,"new":18,"median_price":199000,"ppsf":123,"dom":77,"pop":21669,"lat":30.29925,"lng":-89.83455},{"zip":"70461","name":"Slidell","pending_pct":0.3,"pending":81,"active":190,"total":270,"new":44,"median_price":325975,"ppsf":148,"dom":69,"pop":34808,"lat":30.2326,"lng":-89.70931},{"zip":"70462","name":"Springfield","pending_pct":0.2973,"pending":22,"active":51,"total":74,"new":10,"median_price":357250,"ppsf":176,"dom":108,"pop":5593,"lat":30.3656,"lng":-90.58368},{"zip":"70464","name":"","pending_pct":null,"pending":null,"active":1,"total":1,"new":0,"median_price":129000,"ppsf":78,"dom":102,"pop":109,"lat":30.54416,"lng":-89.89221},{"zip":"70465","name":"","pending_pct":null,"pending":null,"active":1,"total":1,"new":0,"median_price":80000,"ppsf":96,"dom":12,"pop":522,"lat":30.87577,"lng":-90.51384},{"zip":"70466","name":"Tickfaw","pending_pct":0.4231,"pending":11,"active":16,"total":26,"new":2,"median_price":219900,"ppsf":138,"dom":67,"pop":10148,"lat":30.5685,"lng":-90.50195},{"zip":"70471","name":"Mandeville","pending_pct":0.2933,"pending":44,"active":106,"total":150,"new":34,"median_price":453250,"ppsf":183,"dom":61,"pop":24199,"lat":30.407,"lng":-90.06346},{"zip":"70501","name":"Lafayette","pending_pct":0.1864,"pending":22,"active":96,"total":118,"new":22,"median_price":133898,"ppsf":102,"dom":117,"pop":26465,"lat":30.2391,"lng":-91.99122},{"zip":"70503","name":"Lafayette","pending_pct":0.2765,"pending":47,"active":122,"total":170,"new":46,"median_price":338500,"ppsf":163,"dom":77,"pop":28643,"lat":30.17353,"lng":-92.05901},{"zip":"70506","name":"Lafayette","pending_pct":0.2452,"pending":51,"active":156,"total":208,"new":64,"median_price":222500,"ppsf":138,"dom":66,"pop":42318,"lat":30.19586,"lng":-92.08075},{"zip":"70507","name":"Lafayette","pending_pct":0.3684,"pending":35,"active":60,"total":95,"new":22,"median_price":256000,"ppsf":139,"dom":58,"pop":20096,"lat":30.28293,"lng":-92.02825},{"zip":"70508","name":"Lafayette","pending_pct":0.2655,"pending":73,"active":202,"total":275,"new":76,"median_price":376999,"ppsf":195,"dom":76,"pop":40592,"lat":30.15627,"lng":-92.02913},{"zip":"70510","name":"Abbeville","pending_pct":0.2329,"pending":17,"active":56,"total":73,"new":6,"median_price":200000,"ppsf":100,"dom":92,"pop":24107,"lat":29.89493,"lng":-92.19569},{"zip":"70512","name":"Arnaudville","pending_pct":0.1923,"pending":5,"active":21,"total":26,"new":4,"median_price":284750,"ppsf":141,"dom":36,"pop":10740,"lat":30.41333,"lng":-91.92337},{"zip":"70514","name":"Baldwin","pending_pct":null,"pending":null,"active":3,"total":3,"new":0,"median_price":138000,"ppsf":92,"dom":249,"pop":1914,"lat":29.8452,"lng":-91.55301},{"zip":"70515","name":"Basile","pending_pct":0.2143,"pending":3,"active":11,"total":14,"new":2,"median_price":259800,"ppsf":123,"dom":85,"pop":3978,"lat":30.44843,"lng":-92.57154},{"zip":"70516","name":"Branch","pending_pct":null,"pending":null,"active":3,"total":3,"new":0,"median_price":110000,"ppsf":113,"dom":51,"pop":1267,"lat":30.3674,"lng":-92.30289},{"zip":"70517","name":"Breaux Bridge","pending_pct":0.2523,"pending":28,"active":82,"total":111,"new":6,"median_price":249800,"ppsf":147,"dom":82,"pop":26024,"lat":30.28421,"lng":-91.79615},{"zip":"70518","name":"Broussard","pending_pct":0.2553,"pending":36,"active":104,"total":141,"new":22,"median_price":361250,"ppsf":185,"dom":71,"pop":17263,"lat":30.13503,"lng":-91.92922},{"zip":"70519","name":"","pending_pct":1.0,"pending":1,"active":1,"total":1,"new":0,"median_price":375000,"ppsf":176,"dom":46,"pop":71,"lat":30.08178,"lng":-91.90705},{"zip":"70520","name":"Carencro","pending_pct":0.32,"pending":32,"active":67,"total":100,"new":30,"median_price":246500,"ppsf":153,"dom":75,"pop":20390,"lat":30.33265,"lng":-92.03619},{"zip":"70523","name":"","pending_pct":null,"pending":null,"active":1,"total":1,"new":0,"median_price":88000,"ppsf":75,"dom":null,"pop":476,"lat":29.87383,"lng":-91.52956},{"zip":"70525","name":"Church Point","pending_pct":0.2368,"pending":9,"active":29,"total":38,"new":4,"median_price":196725,"ppsf":128,"dom":53,"pop":14687,"lat":30.40765,"lng":-92.21761},{"zip":"70526","name":"Crowley","pending_pct":0.3725,"pending":19,"active":33,"total":51,"new":10,"median_price":166625,"ppsf":85,"dom":65,"pop":16566,"lat":30.21051,"lng":-92.37951},{"zip":"70528","name":"Delcambre","pending_pct":0.3333,"pending":1,"active":2,"total":3,"new":0,"median_price":109738,"ppsf":80,"dom":131,"pop":2745,"lat":29.89766,"lng":-91.96692},{"zip":"70529","name":"Duson","pending_pct":0.5172,"pending":30,"active":28,"total":58,"new":28,"median_price":226250,"ppsf":137,"dom":72,"pop":12949,"lat":30.19593,"lng":-92.16327},{"zip":"70531","name":"Egan","pending_pct":0.3333,"pending":1,"active":3,"total":3,"new":0,"median_price":298000,"ppsf":177,"dom":148,"pop":1477,"lat":30.23101,"lng":-92.49678},{"zip":"70532","name":"Elton","pending_pct":0.3333,"pending":1,"active":3,"total":3,"new":0,"median_price":95000,"ppsf":66,"dom":126,"pop":2434,"lat":30.4705,"lng":-92.6993},{"zip":"70533","name":"Erath","pending_pct":0.1538,"pending":2,"active":11,"total":13,"new":0,"median_price":139600,"ppsf":86,"dom":46,"pop":7099,"lat":29.90439,"lng":-92.03536},{"zip":"70535","name":"Eunice","pending_pct":0.2093,"pending":9,"active":34,"total":43,"new":10,"median_price":159000,"ppsf":103,"dom":150,"pop":18466,"lat":30.47999,"lng":-92.42367},{"zip":"70538","name":"Franklin","pending_pct":0.16,"pending":8,"active":43,"total":50,"new":6,"median_price":192475,"ppsf":92,"dom":125,"pop":12464,"lat":29.74051,"lng":-91.54092},{"zip":"70541","name":"","pending_pct":0.5,"pending":1,"active":1,"total":2,"new":0,"median_price":145000,"ppsf":141,"dom":50,"pop":858,"lat":30.42062,"lng":-92.0426},{"zip":"70542","name":"Gueydan","pending_pct":null,"pending":null,"active":4,"total":4,"new":0,"median_price":187500,"ppsf":108,"dom":67,"pop":3186,"lat":30.00442,"lng":-92.5886},{"zip":"70543","name":"Iota","pending_pct":0.2,"pending":1,"active":4,"total":5,"new":2,"median_price":272250,"ppsf":133,"dom":74,"pop":4082,"lat":30.33532,"lng":-92.5014},{"zip":"70544","name":"Jeanerette","pending_pct":0.2353,"pending":4,"active":14,"total":17,"new":4,"median_price":244900,"ppsf":100,"dom":83,"pop":10269,"lat":29.9059,"lng":-91.6575},{"zip":"70546","name":"Jennings","pending_pct":0.1538,"pending":8,"active":45,"total":52,"new":12,"median_price":165000,"ppsf":97,"dom":92,"pop":15242,"lat":30.26756,"lng":-92.66747},{"zip":"70548","name":"Kaplan","pending_pct":0.2593,"pending":7,"active":21,"total":27,"new":8,"median_price":168025,"ppsf":90,"dom":76,"pop":8780,"lat":29.79733,"lng":-92.41875},{"zip":"70549","name":"Lake Arthur","pending_pct":0.2857,"pending":2,"active":5,"total":7,"new":0,"median_price":98475,"ppsf":54,"dom":200,"pop":3874,"lat":30.04988,"lng":-92.83139},{"zip":"70551","name":"","pending_pct":null,"pending":null,"active":1,"total":1,"new":0,"median_price":210000,"ppsf":175,"dom":190,"pop":570,"lat":30.46675,"lng":-91.98028},{"zip":"70554","name":"Mamou","pending_pct":0.4444,"pending":4,"active":6,"total":9,"new":2,"median_price":105000,"ppsf":64,"dom":138,"pop":4728,"lat":30.63633,"lng":-92.48885},{"zip":"70555","name":"Maurice","pending_pct":0.5167,"pending":31,"active":29,"total":60,"new":20,"median_price":275000,"ppsf":147,"dom":46,"pop":8759,"lat":30.08188,"lng":-92.14123},{"zip":"70556","name":"Mermentau","pending_pct":1.0,"pending":1,"active":1,"total":1,"new":0,"median_price":null,"ppsf":null,"dom":null,"pop":627,"lat":30.19072,"lng":-92.58325},{"zip":"70558","name":"","pending_pct":null,"pending":null,"active":1,"total":1,"new":0,"median_price":394000,"ppsf":177,"dom":106,"pop":24,"lat":30.10042,"lng":-92.07573},{"zip":"70559","name":"Morse","pending_pct":0.5,"pending":1,"active":1,"total":2,"new":0,"median_price":115000,"ppsf":93,"dom":43,"pop":2699,"lat":30.12876,"lng":-92.50903},{"zip":"70560","name":"New Iberia","pending_pct":0.2473,"pending":23,"active":71,"total":93,"new":16,"median_price":117575,"ppsf":72,"dom":75,"pop":36996,"lat":29.93965,"lng":-91.8642},{"zip":"70563","name":"New Iberia","pending_pct":0.2875,"pending":23,"active":57,"total":80,"new":16,"median_price":305500,"ppsf":124,"dom":79,"pop":20165,"lat":30.02454,"lng":-91.73053},{"zip":"70570","name":"Opelousas","pending_pct":0.2245,"pending":33,"active":114,"total":147,"new":24,"median_price":195250,"ppsf":106,"dom":80,"pop":37565,"lat":30.5315,"lng":-92.10852},{"zip":"70576","name":"","pending_pct":null,"pending":null,"active":2,"total":2,"new":0,"median_price":132000,"ppsf":72,"dom":27,"pop":908,"lat":30.78097,"lng":-92.41826},{"zip":"70577","name":"Port Barre","pending_pct":0.0769,"pending":1,"active":13,"total":13,"new":2,"median_price":243500,"ppsf":109,"dom":77,"pop":3939,"lat":30.54848,"lng":-91.92018},{"zip":"70578","name":"Rayne","pending_pct":0.1778,"pending":8,"active":38,"total":45,"new":6,"median_price":215000,"ppsf":113,"dom":73,"pop":16432,"lat":30.2291,"lng":-92.26261},{"zip":"70582","name":"Saint Martinville","pending_pct":0.2128,"pending":10,"active":36,"total":47,"new":8,"median_price":205000,"ppsf":109,"dom":71,"pop":19209,"lat":30.15961,"lng":-91.7854},{"zip":"70583","name":"Scott","pending_pct":0.2069,"pending":18,"active":69,"total":87,"new":26,"median_price":292250,"ppsf":201,"dom":120,"pop":8386,"lat":30.25846,"lng":-92.12204},{"zip":"70584","name":"Sunset","pending_pct":0.4333,"pending":13,"active":18,"total":30,"new":4,"median_price":239900,"ppsf":152,"dom":80,"pop":7481,"lat":30.38856,"lng":-92.10193},{"zip":"70586","name":"Ville Platte","pending_pct":0.1628,"pending":7,"active":36,"total":43,"new":10,"median_price":133750,"ppsf":68,"dom":94,"pop":19320,"lat":30.74504,"lng":-92.34151},{"zip":"70589","name":"Washington","pending_pct":0.2,"pending":2,"active":7,"total":10,"new":4,"median_price":300000,"ppsf":110,"dom":73,"pop":2875,"lat":30.68584,"lng":-92.04098},{"zip":"70591","name":"Welsh","pending_pct":0.2857,"pending":6,"active":16,"total":21,"new":2,"median_price":171750,"ppsf":99,"dom":69,"pop":5983,"lat":30.25604,"lng":-92.8397},{"zip":"70592","name":"Youngsville","pending_pct":0.2824,"pending":96,"active":242,"total":340,"new":66,"median_price":359000,"ppsf":197,"dom":85,"pop":32167,"lat":30.08024,"lng":-92.01338},{"zip":"70601","name":"Lake Charles","pending_pct":0.2549,"pending":39,"active":114,"total":153,"new":30,"median_price":165000,"ppsf":114,"dom":101,"pop":30872,"lat":30.22627,"lng":-93.21525},{"zip":"70605","name":"Lake Charles","pending_pct":0.28,"pending":70,"active":181,"total":250,"new":64,"median_price":349900,"ppsf":144,"dom":81,"pop":40482,"lat":30.13048,"lng":-93.27418},{"zip":"70607","name":"Lake Charles","pending_pct":0.3547,"pending":61,"active":115,"total":172,"new":34,"median_price":236950,"ppsf":125,"dom":100,"pop":27080,"lat":30.04982,"lng":-93.20606},{"zip":"70611","name":"Lake Charles","pending_pct":0.4352,"pending":47,"active":62,"total":108,"new":22,"median_price":319999,"ppsf":149,"dom":87,"pop":22124,"lat":30.34594,"lng":-93.20156},{"zip":"70615","name":"Lake Charles","pending_pct":0.3214,"pending":9,"active":20,"total":28,"new":2,"median_price":141350,"ppsf":108,"dom":100,"pop":12980,"lat":30.25609,"lng":-93.12346},{"zip":"70630","name":"Bell City","pending_pct":null,"pending":null,"active":2,"total":2,"new":0,"median_price":1279500,"ppsf":386,"dom":118,"pop":1478,"lat":30.02723,"lng":-93.04966},{"zip":"70631","name":"Cameron","pending_pct":0.125,"pending":1,"active":7,"total":8,"new":2,"median_price":375000,"ppsf":285,"dom":104,"pop":370,"lat":29.86692,"lng":-93.55404},{"zip":"70633","name":"Dequincy","pending_pct":0.2381,"pending":10,"active":32,"total":42,"new":4,"median_price":141800,"ppsf":108,"dom":75,"pop":8486,"lat":30.42762,"lng":-93.3925},{"zip":"70634","name":"Deridder","pending_pct":0.2214,"pending":29,"active":104,"total":131,"new":38,"median_price":223450,"ppsf":126,"dom":69,"pop":25194,"lat":30.80142,"lng":-93.24309},{"zip":"70637","name":"Dry Creek","pending_pct":null,"pending":null,"active":2,"total":2,"new":0,"median_price":1344500,"ppsf":503,"dom":149,"pop":825,"lat":30.70508,"lng":-92.97207},{"zip":"70639","name":"Evans","pending_pct":null,"pending":null,"active":1,"total":1,"new":0,"median_price":122900,"ppsf":101,"dom":12,"pop":367,"lat":30.98235,"lng":-93.49793},{"zip":"70640","name":"","pending_pct":null,"pending":null,"active":2,"total":2,"new":0,"median_price":48450,"ppsf":55,"dom":284,"pop":196,"lat":30.36587,"lng":-92.91652},{"zip":"70645","name":"Hackberry","pending_pct":0.2,"pending":3,"active":14,"total":15,"new":4,"median_price":343875,"ppsf":206,"dom":62,"pop":899,"lat":29.96154,"lng":-93.40854},{"zip":"70646","name":"","pending_pct":null,"pending":null,"active":1,"total":1,"new":0,"median_price":171000,"ppsf":88,"dom":29,"pop":877,"lat":30.10767,"lng":-92.92938},{"zip":"70647","name":"Iowa","pending_pct":0.383,"pending":18,"active":30,"total":47,"new":6,"median_price":265600,"ppsf":136,"dom":73,"pop":12736,"lat":30.24752,"lng":-93.01605},{"zip":"70648","name":"Kinder","pending_pct":0.1875,"pending":3,"active":13,"total":16,"new":0,"median_price":138000,"ppsf":87,"dom":57,"pop":7104,"lat":30.50568,"lng":-92.88387},{"zip":"70650","name":"Lacassine","pending_pct":1.0,"pending":3,"active":1,"total":3,"new":0,"median_price":209500,"ppsf":105,"dom":204,"pop":218,"lat":30.23376,"lng":-92.92067},{"zip":"70652","name":"Longville","pending_pct":0.25,"pending":5,"active":16,"total":20,"new":0,"median_price":296100,"ppsf":161,"dom":116,"pop":2149,"lat":30.60547,"lng":-93.24646},{"zip":"70653","name":"Merryville","pending_pct":0.25,"pending":3,"active":9,"total":12,"new":2,"median_price":45000,"ppsf":50,"dom":80,"pop":3184,"lat":30.66744,"lng":-93.55994},{"zip":"70654","name":"Mittie","pending_pct":null,"pending":null,"active":1,"total":1,"new":0,"median_price":495000,"ppsf":253,"dom":76,"pop":1,"lat":30.69212,"lng":-92.88075},{"zip":"70655","name":"Oberlin","pending_pct":null,"pending":null,"active":3,"total":3,"new":4,"median_price":74750,"ppsf":55,"dom":13,"pop":3047,"lat":30.63022,"lng":-92.70234},{"zip":"70656","name":"Pitkin","pending_pct":0.0,"pending":0,"active":4,"total":4,"new":0,"median_price":157000,"ppsf":98,"dom":157,"pop":4015,"lat":30.91647,"lng":-92.94272},{"zip":"70657","name":"Ragley","pending_pct":0.25,"pending":4,"active":11,"total":16,"new":8,"median_price":302294,"ppsf":161,"dom":39,"pop":5254,"lat":30.5004,"lng":-93.14279},{"zip":"70658","name":"Reeves","pending_pct":1.0,"pending":2,"active":2,"total":2,"new":0,"median_price":172200,"ppsf":87,"dom":192,"pop":914,"lat":30.52324,"lng":-93.03297},{"zip":"70659","name":"Rosepine","pending_pct":null,"pending":null,"active":2,"total":2,"new":0,"median_price":197000,"ppsf":115,"dom":41,"pop":1387,"lat":30.92161,"lng":-93.284},{"zip":"70661","name":"Starks","pending_pct":0.1667,"pending":1,"active":5,"total":6,"new":0,"median_price":215000,"ppsf":146,"dom":62,"pop":1861,"lat":30.36683,"lng":-93.64833},{"zip":"70662","name":"Sugartown","pending_pct":0.5,"pending":1,"active":2,"total":2,"new":0,"median_price":361225,"ppsf":176,"dom":68,"pop":488,"lat":30.80072,"lng":-92.99834},{"zip":"70663","name":"Sulphur","pending_pct":0.2764,"pending":34,"active":89,"total":123,"new":20,"median_price":197500,"ppsf":112,"dom":89,"pop":27799,"lat":30.2772,"lng":-93.39086},{"zip":"70665","name":"Sulphur","pending_pct":0.3239,"pending":23,"active":50,"total":71,"new":16,"median_price":286225,"ppsf":135,"dom":93,"pop":13222,"lat":30.12756,"lng":-93.44555},{"zip":"70668","name":"Vinton","pending_pct":0.1481,"pending":4,"active":23,"total":27,"new":4,"median_price":178650,"ppsf":126,"dom":178,"pop":6169,"lat":30.17678,"lng":-93.60488},{"zip":"70669","name":"Westlake","pending_pct":0.2745,"pending":14,"active":36,"total":51,"new":12,"median_price":243450,"ppsf":131,"dom":71,"pop":9552,"lat":30.24216,"lng":-93.27731},{"zip":"70706","name":"Denham Springs","pending_pct":0.2956,"pending":47,"active":113,"total":159,"new":32,"median_price":268075,"ppsf":164,"dom":59,"pop":21833,"lat":30.61453,"lng":-90.90086},{"zip":"70710","name":"Addis","pending_pct":0.2727,"pending":6,"active":17,"total":22,"new":14,"median_price":294196,"ppsf":158,"dom":27,"pop":7252,"lat":30.3559,"lng":-91.26773},{"zip":"70711","name":"Albany","pending_pct":0.2143,"pending":3,"active":10,"total":14,"new":2,"median_price":282500,"ppsf":153,"dom":65,"pop":5612,"lat":30.53065,"lng":-90.60229},{"zip":"70714","name":"Baker","pending_pct":0.443,"pending":35,"active":45,"total":79,"new":12,"median_price":213750,"ppsf":126,"dom":57,"pop":17433,"lat":30.58634,"lng":-91.12812},{"zip":"70715","name":"Batchelor","pending_pct":0.25,"pending":1,"active":3,"total":4,"new":2,"median_price":202450,"ppsf":66,"dom":77,"pop":802,"lat":30.81204,"lng":-91.66262},{"zip":"70719","name":"Brusly","pending_pct":0.5,"pending":3,"active":4,"total":6,"new":2,"median_price":287500,"ppsf":168,"dom":79,"pop":4856,"lat":30.37734,"lng":-91.29077},{"zip":"70721","name":"Carville","pending_pct":1.0,"pending":1,"active":1,"total":1,"new":0,"median_price":187000,"ppsf":144,"dom":48,"pop":447,"lat":30.21639,"lng":-91.09301},{"zip":"70722","name":"Clinton","pending_pct":0.25,"pending":4,"active":13,"total":16,"new":6,"median_price":302000,"ppsf":165,"dom":115,"pop":4233,"lat":30.84337,"lng":-90.93244},{"zip":"70723","name":"Convent","pending_pct":0.0,"pending":0,"active":1,"total":1,"new":0,"median_price":129900,"ppsf":91,"dom":40,"pop":1189,"lat":30.06379,"lng":-90.84111},{"zip":"70725","name":"Darrow","pending_pct":0.2,"pending":2,"active":8,"total":10,"new":0,"median_price":389450,"ppsf":191,"dom":136,"pop":943,"lat":30.13652,"lng":-90.97255},{"zip":"70726","name":"Denham Springs","pending_pct":0.3603,"pending":138,"active":249,"total":383,"new":108,"median_price":269900,"ppsf":157,"dom":62,"pop":63575,"lat":30.42994,"lng":-90.90361},{"zip":"70729","name":"Erwinville","pending_pct":0.5,"pending":1,"active":1,"total":2,"new":0,"median_price":365000,"ppsf":185,"dom":93,"pop":1004,"lat":30.58891,"lng":-91.34671},{"zip":"70730","name":"Ethel","pending_pct":0.1818,"pending":2,"active":9,"total":11,"new":0,"median_price":515000,"ppsf":180,"dom":81,"pop":3990,"lat":30.81588,"lng":-91.10869},{"zip":"70732","name":"Fordoche","pending_pct":1.0,"pending":1,"active":0,"total":1,"new":0,"median_price":299995,"ppsf":100,"dom":255,"pop":1035,"lat":30.6322,"lng":-91.60678},{"zip":"70733","name":"French Settlement","pending_pct":0.4,"pending":2,"active":4,"total":5,"new":0,"median_price":276725,"ppsf":138,"dom":57,"pop":1715,"lat":30.30437,"lng":-90.79487},{"zip":"70734","name":"Geismar","pending_pct":0.24,"pending":18,"active":57,"total":75,"new":26,"median_price":420750,"ppsf":188,"dom":90,"pop":9213,"lat":30.20812,"lng":-91.00095},{"zip":"70736","name":"Glynn","pending_pct":null,"pending":null,"active":1,"total":1,"new":0,"median_price":168500,"ppsf":93,"dom":224,"pop":376,"lat":30.63748,"lng":-91.33915},{"zip":"70737","name":"Gonzales","pending_pct":0.2929,"pending":82,"active":197,"total":280,"new":82,"median_price":335000,"ppsf":176,"dom":65,"pop":49084,"lat":30.22587,"lng":-90.92271},{"zip":"70739","name":"Greenwell Springs","pending_pct":0.2727,"pending":18,"active":49,"total":66,"new":20,"median_price":350000,"ppsf":170,"dom":57,"pop":14877,"lat":30.60107,"lng":-90.9684},{"zip":"70740","name":"Grosse Tete","pending_pct":0.3333,"pending":1,"active":3,"total":3,"new":0,"median_price":187450,"ppsf":105,"dom":213,"pop":975,"lat":30.33777,"lng":-91.43311},{"zip":"70744","name":"Holden","pending_pct":0.4286,"pending":6,"active":8,"total":14,"new":2,"median_price":247175,"ppsf":151,"dom":70,"pop":6070,"lat":30.56173,"lng":-90.67689},{"zip":"70748","name":"Jackson","pending_pct":0.2222,"pending":4,"active":14,"total":18,"new":2,"median_price":269500,"ppsf":145,"dom":98,"pop":6909,"lat":30.8164,"lng":-91.20613},{"zip":"70749","name":"Jarreau","pending_pct":0.2308,"pending":3,"active":10,"total":13,"new":4,"median_price":595000,"ppsf":246,"dom":87,"pop":1701,"lat":30.6326,"lng":-91.40985},{"zip":"70750","name":"Krotz Springs","pending_pct":0.2,"pending":1,"active":5,"total":5,"new":0,"median_price":199425,"ppsf":82,"dom":135,"pop":1117,"lat":30.46433,"lng":-91.7865},{"zip":"70752","name":"Lakeland","pending_pct":1.0,"pending":2,"active":1,"total":2,"new":0,"median_price":225000,"ppsf":152,"dom":3,"pop":437,"lat":30.57986,"lng":-91.41915},{"zip":"70753","name":"Lettsworth","pending_pct":null,"pending":null,"active":1,"total":1,"new":0,"median_price":1875000,"ppsf":341,"dom":85,"pop":671,"lat":30.7999,"lng":-91.72106},{"zip":"70754","name":"Livingston","pending_pct":0.3784,"pending":14,"active":23,"total":37,"new":6,"median_price":327425,"ppsf":167,"dom":87,"pop":11641,"lat":30.40542,"lng":-90.74462},{"zip":"70755","name":"Livonia","pending_pct":0.3333,"pending":1,"active":3,"total":3,"new":0,"median_price":161250,"ppsf":143,"dom":99,"pop":1617,"lat":30.59473,"lng":-91.52981},{"zip":"70757","name":"Maringouin","pending_pct":0.3333,"pending":1,"active":3,"total":3,"new":0,"median_price":153700,"ppsf":86,"dom":169,"pop":2356,"lat":30.37204,"lng":-91.53468},{"zip":"70759","name":"Morganza","pending_pct":0.2,"pending":1,"active":4,"total":5,"new":0,"median_price":134500,"ppsf":67,"dom":216,"pop":934,"lat":30.71346,"lng":-91.58762},{"zip":"70760","name":"New Roads","pending_pct":0.2273,"pending":5,"active":17,"total":22,"new":2,"median_price":321675,"ppsf":169,"dom":83,"pop":6314,"lat":30.69839,"lng":-91.48085},{"zip":"70762","name":"Oscar","pending_pct":0.4167,"pending":5,"active":7,"total":12,"new":4,"median_price":750000,"ppsf":281,"dom":108,"pop":895,"lat":30.57843,"lng":-91.46695},{"zip":"70763","name":"Paulina","pending_pct":0.2,"pending":1,"active":5,"total":5,"new":0,"median_price":293500,"ppsf":143,"dom":193,"pop":4264,"lat":30.04929,"lng":-90.73736},{"zip":"70764","name":"Plaquemine","pending_pct":0.2222,"pending":12,"active":41,"total":54,"new":8,"median_price":210000,"ppsf":132,"dom":108,"pop":14757,"lat":30.22505,"lng":-91.30656},{"zip":"70767","name":"Port Allen","pending_pct":0.413,"pending":19,"active":27,"total":46,"new":10,"median_price":219500,"ppsf":135,"dom":99,"pop":14900,"lat":30.47737,"lng":-91.32787},{"zip":"70769","name":"Prairieville","pending_pct":0.3156,"pending":83,"active":179,"total":263,"new":82,"median_price":375000,"ppsf":178,"dom":52,"pop":49278,"lat":30.30802,"lng":-90.93967},{"zip":"70770","name":"Pride","pending_pct":0.2667,"pending":4,"active":10,"total":15,"new":0,"median_price":608749,"ppsf":285,"dom":138,"pop":3787,"lat":30.65134,"lng":-90.99316},{"zip":"70772","name":"Rosedale","pending_pct":null,"pending":null,"active":1,"total":1,"new":0,"median_price":340000,"ppsf":89,"dom":68,"pop":1020,"lat":30.43748,"lng":-91.46484},{"zip":"70774","name":"Saint Amant","pending_pct":0.2,"pending":8,"active":32,"total":40,"new":8,"median_price":344998,"ppsf":186,"dom":65,"pop":10041,"lat":30.22741,"lng":-90.78815},{"zip":"70775","name":"Saint Francisville","pending_pct":0.1549,"pending":11,"active":60,"total":71,"new":12,"median_price":526000,"ppsf":227,"dom":58,"pop":9945,"lat":30.85982,"lng":-91.36847},{"zip":"70776","name":"Saint Gabriel","pending_pct":0.2692,"pending":7,"active":19,"total":26,"new":8,"median_price":288675,"ppsf":159,"dom":53,"pop":7100,"lat":30.26051,"lng":-91.08923},{"zip":"70777","name":"Slaughter","pending_pct":0.3333,"pending":4,"active":8,"total":12,"new":0,"median_price":210000,"ppsf":150,"dom":69,"pop":4406,"lat":30.73898,"lng":-91.07319},{"zip":"70778","name":"Sorrento","pending_pct":0.4615,"pending":6,"active":7,"total":13,"new":0,"median_price":288500,"ppsf":146,"dom":75,"pop":2742,"lat":30.16085,"lng":-90.81777},{"zip":"70780","name":"Sunshine","pending_pct":0.3333,"pending":2,"active":4,"total":6,"new":0,"median_price":199900,"ppsf":165,"dom":33,"pop":487,"lat":30.29538,"lng":-91.16993},{"zip":"70783","name":"Ventress","pending_pct":0.25,"pending":4,"active":11,"total":16,"new":6,"median_price":429700,"ppsf":244,"dom":92,"pop":2804,"lat":30.67032,"lng":-91.4087},{"zip":"70785","name":"Walker","pending_pct":0.2887,"pending":28,"active":69,"total":97,"new":22,"median_price":275000,"ppsf":160,"dom":68,"pop":23921,"lat":30.55621,"lng":-90.81858},{"zip":"70788","name":"White Castle","pending_pct":0.2,"pending":1,"active":4,"total":5,"new":0,"median_price":207500,"ppsf":103,"dom":167,"pop":3830,"lat":30.13618,"lng":-91.17939},{"zip":"70789","name":"Wilson","pending_pct":0.3333,"pending":1,"active":2,"total":3,"new":0,"median_price":259500,"ppsf":184,"dom":129,"pop":917,"lat":30.92973,"lng":-91.07109},{"zip":"70791","name":"Zachary","pending_pct":0.3274,"pending":73,"active":150,"total":223,"new":36,"median_price":336875,"ppsf":161,"dom":75,"pop":30385,"lat":30.65013,"lng":-91.15734},{"zip":"70801","name":"Baton Rouge","pending_pct":null,"pending":null,"active":1,"total":1,"new":0,"median_price":1795000,"ppsf":419,"dom":317,"pop":192,"lat":30.44954,"lng":-91.18608},{"zip":"70802","name":"Baton Rouge","pending_pct":0.1415,"pending":15,"active":91,"total":106,"new":26,"median_price":117248,"ppsf":112,"dom":71,"pop":25118,"lat":30.44691,"lng":-91.17554},{"zip":"70805","name":"Baton Rouge","pending_pct":0.1215,"pending":13,"active":95,"total":107,"new":10,"median_price":65250,"ppsf":58,"dom":93,"pop":23288,"lat":30.48831,"lng":-91.15951},{"zip":"70806","name":"Baton Rouge","pending_pct":0.1963,"pending":32,"active":131,"total":163,"new":36,"median_price":333500,"ppsf":188,"dom":78,"pop":28302,"lat":30.44879,"lng":-91.1247},{"zip":"70807","name":"Baton Rouge","pending_pct":0.25,"pending":8,"active":25,"total":32,"new":6,"median_price":112000,"ppsf":80,"dom":74,"pop":15300,"lat":30.5425,"lng":-91.2068},{"zip":"70808","name":"Baton Rouge","pending_pct":0.3017,"pending":54,"active":125,"total":179,"new":50,"median_price":455000,"ppsf":221,"dom":57,"pop":35843,"lat":30.4057,"lng":-91.14236},{"zip":"70809","name":"Baton Rouge","pending_pct":0.178,"pending":34,"active":155,"total":191,"new":54,"median_price":322000,"ppsf":167,"dom":69,"pop":25732,"lat":30.39408,"lng":-91.07063},{"zip":"70810","name":"Baton Rouge","pending_pct":0.3092,"pending":111,"active":248,"total":359,"new":86,"median_price":459475,"ppsf":206,"dom":66,"pop":42659,"lat":30.34637,"lng":-91.07998},{"zip":"70811","name":"Baton Rouge","pending_pct":0.4091,"pending":18,"active":27,"total":44,"new":6,"median_price":174925,"ppsf":104,"dom":62,"pop":12154,"lat":30.53122,"lng":-91.11617},{"zip":"70812","name":"Baton Rouge","pending_pct":0.4,"pending":12,"active":19,"total":30,"new":8,"median_price":119950,"ppsf":94,"dom":103,"pop":11007,"lat":30.50018,"lng":-91.11051},{"zip":"70814","name":"Baton Rouge","pending_pct":0.3095,"pending":13,"active":28,"total":42,"new":10,"median_price":218950,"ppsf":126,"dom":84,"pop":11921,"lat":30.48502,"lng":-91.06164},{"zip":"70815","name":"Baton Rouge","pending_pct":0.3254,"pending":41,"active":85,"total":126,"new":40,"median_price":249975,"ppsf":114,"dom":55,"pop":31024,"lat":30.45537,"lng":-91.06648},{"zip":"70816","name":"Baton Rouge","pending_pct":0.2179,"pending":39,"active":139,"total":179,"new":54,"median_price":229993,"ppsf":141,"dom":64,"pop":45718,"lat":30.4288,"lng":-91.02144},{"zip":"70817","name":"Baton Rouge","pending_pct":0.2826,"pending":65,"active":167,"total":230,"new":44,"median_price":372220,"ppsf":175,"dom":59,"pop":33482,"lat":30.37558,"lng":-90.98026},{"zip":"70818","name":"Baton Rouge","pending_pct":0.2083,"pending":15,"active":59,"total":72,"new":22,"median_price":390993,"ppsf":179,"dom":67,"pop":9370,"lat":30.54233,"lng":-91.05006},{"zip":"70819","name":"Baton Rouge","pending_pct":0.4167,"pending":10,"active":15,"total":24,"new":4,"median_price":209925,"ppsf":147,"dom":74,"pop":4322,"lat":30.47133,"lng":-91.00748},{"zip":"70820","name":"Baton Rouge","pending_pct":0.3193,"pending":53,"active":113,"total":166,"new":48,"median_price":192475,"ppsf":131,"dom":55,"pop":23377,"lat":30.36812,"lng":-91.18279},{"zip":"70836","name":"Baton Rouge","pending_pct":0.4706,"pending":8,"active":9,"total":17,"new":0,"median_price":301240,"ppsf":200,"dom":34,"pop":501,"lat":30.38758,"lng":-91.08357},{"zip":"71001","name":"Arcadia","pending_pct":0.3333,"pending":2,"active":4,"total":6,"new":2,"median_price":182000,"ppsf":86,"dom":26,"pop":3747,"lat":32.59188,"lng":-92.90028},{"zip":"71003","name":"Athens","pending_pct":0.3333,"pending":1,"active":2,"total":3,"new":0,"median_price":675000,"ppsf":62,"dom":240,"pop":792,"lat":32.62969,"lng":-93.02787},{"zip":"71004","name":"Belcher","pending_pct":0.3333,"pending":1,"active":2,"total":3,"new":0,"median_price":192500,"ppsf":97,"dom":20,"pop":335,"lat":32.74403,"lng":-93.85843},{"zip":"71006","name":"Benton","pending_pct":0.3727,"pending":41,"active":68,"total":110,"new":24,"median_price":453090,"ppsf":186,"dom":67,"pop":16454,"lat":32.72871,"lng":-93.63511},{"zip":"71007","name":"Bethany","pending_pct":0.5,"pending":1,"active":1,"total":2,"new":0,"median_price":170000,"ppsf":140,"dom":101,"pop":1354,"lat":32.36854,"lng":-94.00502},{"zip":"71016","name":"Castor","pending_pct":0.0,"pending":0,"active":1,"total":1,"new":0,"median_price":113000,"ppsf":95,"dom":145,"pop":1852,"lat":32.22899,"lng":-93.10818},{"zip":"71018","name":"Cotton Valley","pending_pct":null,"pending":null,"active":2,"total":2,"new":0,"median_price":363950,"ppsf":170,"dom":130,"pop":1260,"lat":32.82178,"lng":-93.42972},{"zip":"71019","name":"Coushatta","pending_pct":0.2857,"pending":4,"active":10,"total":14,"new":0,"median_price":237500,"ppsf":112,"dom":59,"pop":7207,"lat":32.03951,"lng":-93.30701},{"zip":"71023","name":"Doyline","pending_pct":0.2143,"pending":3,"active":11,"total":14,"new":4,"median_price":148725,"ppsf":113,"dom":78,"pop":3381,"lat":32.4662,"lng":-93.40797},{"zip":"71024","name":"Dubberly","pending_pct":null,"pending":null,"active":1,"total":1,"new":0,"median_price":239000,"ppsf":159,"dom":null,"pop":910,"lat":32.47897,"lng":-93.20336},{"zip":"71027","name":"Frierson","pending_pct":null,"pending":null,"active":3,"total":3,"new":0,"median_price":624225,"ppsf":179,"dom":80,"pop":1031,"lat":32.24953,"lng":-93.68698},{"zip":"71028","name":"Gibsland","pending_pct":null,"pending":null,"active":1,"total":1,"new":4,"median_price":1800000,"ppsf":833,"dom":3,"pop":1472,"lat":32.48961,"lng":-93.07315},{"zip":"71029","name":"Gilliam","pending_pct":0.5,"pending":1,"active":1,"total":2,"new":0,"median_price":209500,"ppsf":103,"dom":77,"pop":142,"lat":32.83733,"lng":-93.83446},{"zip":"71030","name":"Gloster","pending_pct":1.0,"pending":2,"active":2,"total":2,"new":2,"median_price":337500,"ppsf":172,"dom":11,"pop":1878,"lat":32.19267,"lng":-93.78932},{"zip":"71031","name":"Goldonna","pending_pct":0.5,"pending":1,"active":1,"total":2,"new":0,"median_price":34900,"ppsf":18,"dom":239,"pop":803,"lat":32.01097,"lng":-92.89372},{"zip":"71032","name":"Grand Cane","pending_pct":0.3333,"pending":1,"active":2,"total":3,"new":0,"median_price":369450,"ppsf":155,"dom":105,"pop":2330,"lat":32.09383,"lng":-93.79247},{"zip":"71033","name":"Greenwood","pending_pct":0.3043,"pending":7,"active":16,"total":23,"new":2,"median_price":237400,"ppsf":178,"dom":89,"pop":3297,"lat":32.44121,"lng":-94.00364},{"zip":"71034","name":"Hall Summit","pending_pct":null,"pending":null,"active":1,"total":1,"new":0,"median_price":220000,"ppsf":151,"dom":55,"pop":222,"lat":32.18442,"lng":-93.30553},{"zip":"71037","name":"Haughton","pending_pct":0.4524,"pending":38,"active":46,"total":84,"new":26,"median_price":299150,"ppsf":163,"dom":46,"pop":21192,"lat":32.56359,"lng":-93.52804},{"zip":"71038","name":"Haynesville","pending_pct":0.3,"pending":3,"active":7,"total":10,"new":2,"median_price":105000,"ppsf":68,"dom":100,"pop":3796,"lat":32.94372,"lng":-93.0699},{"zip":"71039","name":"Heflin","pending_pct":0.1667,"pending":1,"active":5,"total":6,"new":0,"median_price":149000,"ppsf":90,"dom":57,"pop":1281,"lat":32.4265,"lng":-93.29064},{"zip":"71040","name":"Homer","pending_pct":0.2727,"pending":6,"active":17,"total":22,"new":2,"median_price":377375,"ppsf":181,"dom":91,"pop":7767,"lat":32.78564,"lng":-93.01238},{"zip":"71043","name":"Hosston","pending_pct":null,"pending":null,"active":4,"total":4,"new":0,"median_price":409900,"ppsf":181,"dom":120,"pop":470,"lat":32.88789,"lng":-93.88906},{"zip":"71044","name":"Ida","pending_pct":0.6,"pending":3,"active":3,"total":5,"new":0,"median_price":462500,"ppsf":225,"dom":32,"pop":826,"lat":32.96662,"lng":-93.88083},{"zip":"71046","name":"Keatchie","pending_pct":0.5,"pending":1,"active":2,"total":2,"new":0,"median_price":191950,"ppsf":145,"dom":32,"pop":1033,"lat":32.16647,"lng":-93.94589},{"zip":"71047","name":"Keithville","pending_pct":0.5333,"pending":16,"active":15,"total":30,"new":6,"median_price":261150,"ppsf":136,"dom":49,"pop":10069,"lat":32.29972,"lng":-93.91673},{"zip":"71049","name":"Logansport","pending_pct":0.5,"pending":2,"active":2,"total":4,"new":0,"median_price":151225,"ppsf":110,"dom":241,"pop":3175,"lat":32.01603,"lng":-93.96663},{"zip":"71051","name":"Elm Grove","pending_pct":null,"pending":null,"active":2,"total":2,"new":0,"median_price":343250,"ppsf":195,"dom":64,"pop":2321,"lat":32.3417,"lng":-93.49639},{"zip":"71052","name":"Mansfield","pending_pct":0.1667,"pending":3,"active":16,"total":18,"new":0,"median_price":230450,"ppsf":113,"dom":52,"pop":9102,"lat":32.01814,"lng":-93.66243},{"zip":"71055","name":"Minden","pending_pct":0.3191,"pending":15,"active":34,"total":47,"new":14,"median_price":162500,"ppsf":102,"dom":53,"pop":17772,"lat":32.67335,"lng":-93.29713},{"zip":"71060","name":"Mooringsport","pending_pct":0.2727,"pending":3,"active":7,"total":11,"new":0,"median_price":230000,"ppsf":138,"dom":79,"pop":2400,"lat":32.63933,"lng":-93.987},{"zip":"71061","name":"Oil City","pending_pct":0.2727,"pending":3,"active":8,"total":11,"new":4,"median_price":456963,"ppsf":188,"dom":74,"pop":1977,"lat":32.75342,"lng":-93.97742},{"zip":"71064","name":"Plain Dealing","pending_pct":0.625,"pending":5,"active":3,"total":8,"new":0,"median_price":242000,"ppsf":109,"dom":99,"pop":4350,"lat":32.91356,"lng":-93.68761},{"zip":"71065","name":"Pleasant Hill","pending_pct":1.0,"pending":1,"active":0,"total":1,"new":0,"median_price":89900,"ppsf":null,"dom":null,"pop":976,"lat":31.81028,"lng":-93.49957},{"zip":"71067","name":"Princeton","pending_pct":0.75,"pending":9,"active":3,"total":12,"new":0,"median_price":391772,"ppsf":145,"dom":85,"pop":2406,"lat":32.59836,"lng":-93.49118},{"zip":"71068","name":"Ringgold","pending_pct":0.3333,"pending":3,"active":6,"total":9,"new":0,"median_price":139500,"ppsf":81,"dom":87,"pop":3482,"lat":32.28464,"lng":-93.32186},{"zip":"71070","name":"Saline","pending_pct":1.0,"pending":1,"active":1,"total":1,"new":0,"median_price":153000,"ppsf":87,"dom":310,"pop":1721,"lat":32.08629,"lng":-92.99618},{"zip":"71071","name":"Sarepta","pending_pct":0.3333,"pending":3,"active":6,"total":9,"new":2,"median_price":180300,"ppsf":93,"dom":29,"pop":2159,"lat":32.91747,"lng":-93.45099},{"zip":"71072","name":"Shongaloo","pending_pct":null,"pending":null,"active":2,"total":2,"new":0,"median_price":297000,"ppsf":113,"dom":179,"pop":1348,"lat":32.9373,"lng":-93.31141},{"zip":"71073","name":"Sibley","pending_pct":0.1429,"pending":1,"active":5,"total":7,"new":2,"median_price":354000,"ppsf":127,"dom":34,"pop":2654,"lat":32.5241,"lng":-93.30547},{"zip":"71075","name":"Springhill","pending_pct":0.2222,"pending":6,"active":21,"total":27,"new":4,"median_price":125000,"ppsf":88,"dom":36,"pop":5412,"lat":32.99349,"lng":-93.49199},{"zip":"71078","name":"Stonewall","pending_pct":0.4878,"pending":20,"active":21,"total":41,"new":14,"median_price":426725,"ppsf":188,"dom":73,"pop":7653,"lat":32.27721,"lng":-93.7976},{"zip":"71082","name":"Vivian","pending_pct":0.5714,"pending":4,"active":4,"total":7,"new":2,"median_price":161950,"ppsf":118,"dom":65,"pop":3666,"lat":32.84389,"lng":-93.97763},{"zip":"71101","name":"Shreveport","pending_pct":0.1351,"pending":5,"active":32,"total":37,"new":2,"median_price":66875,"ppsf":64,"dom":110,"pop":6415,"lat":32.5062,"lng":-93.74822},{"zip":"71103","name":"Shreveport","pending_pct":0.2083,"pending":10,"active":39,"total":48,"new":6,"median_price":39250,"ppsf":38,"dom":88,"pop":6332,"lat":32.49154,"lng":-93.7717},{"zip":"71104","name":"Shreveport","pending_pct":0.2476,"pending":26,"active":80,"total":105,"new":24,"median_price":154200,"ppsf":102,"dom":73,"pop":12975,"lat":32.48525,"lng":-93.73171},{"zip":"71105","name":"Shreveport","pending_pct":0.3652,"pending":42,"active":75,"total":115,"new":40,"median_price":224825,"ppsf":120,"dom":49,"pop":20179,"lat":32.45512,"lng":-93.71012},{"zip":"71106","name":"Shreveport","pending_pct":0.2702,"pending":67,"active":181,"total":248,"new":58,"median_price":341331,"ppsf":143,"dom":78,"pop":34117,"lat":32.38507,"lng":-93.73558},{"zip":"71107","name":"Shreveport","pending_pct":0.3571,"pending":40,"active":70,"total":112,"new":32,"median_price":232500,"ppsf":131,"dom":69,"pop":31734,"lat":32.59509,"lng":-93.85909},{"zip":"71108","name":"Shreveport","pending_pct":0.3,"pending":36,"active":85,"total":120,"new":14,"median_price":55000,"ppsf":51,"dom":110,"pop":18072,"lat":32.44236,"lng":-93.78881},{"zip":"71109","name":"Shreveport","pending_pct":0.3495,"pending":36,"active":67,"total":103,"new":12,"median_price":45000,"ppsf":41,"dom":70,"pop":17412,"lat":32.46859,"lng":-93.814},{"zip":"71111","name":"Bossier City","pending_pct":0.3405,"pending":95,"active":187,"total":279,"new":76,"median_price":323750,"ppsf":160,"dom":45,"pop":43925,"lat":32.57904,"lng":-93.70379},{"zip":"71112","name":"Bossier City","pending_pct":0.3828,"pending":49,"active":79,"total":128,"new":46,"median_price":252250,"ppsf":144,"dom":39,"pop":33587,"lat":32.44373,"lng":-93.63874},{"zip":"71115","name":"Shreveport","pending_pct":0.2976,"pending":25,"active":60,"total":84,"new":16,"median_price":251250,"ppsf":128,"dom":62,"pop":14413,"lat":32.26472,"lng":-93.56247},{"zip":"71118","name":"Shreveport","pending_pct":0.3516,"pending":32,"active":59,"total":91,"new":28,"median_price":199150,"ppsf":114,"dom":74,"pop":23219,"lat":32.39262,"lng":-93.80498},{"zip":"71119","name":"Shreveport","pending_pct":0.2581,"pending":16,"active":47,"total":62,"new":18,"median_price":288000,"ppsf":129,"dom":83,"pop":10003,"lat":32.48542,"lng":-93.92296},{"zip":"71129","name":"Shreveport","pending_pct":0.2759,"pending":8,"active":21,"total":29,"new":8,"median_price":222475,"ppsf":125,"dom":72,"pop":12845,"lat":32.38697,"lng":-93.92685},{"zip":"71201","name":"Monroe","pending_pct":0.4032,"pending":25,"active":39,"total":62,"new":16,"median_price":321075,"ppsf":134,"dom":66,"pop":21782,"lat":32.53915,"lng":-92.1069},{"zip":"71202","name":"Monroe","pending_pct":0.2353,"pending":4,"active":13,"total":17,"new":4,"median_price":81850,"ppsf":66,"dom":90,"pop":25444,"lat":32.39549,"lng":-92.05663},{"zip":"71203","name":"Monroe","pending_pct":0.4639,"pending":45,"active":53,"total":97,"new":32,"median_price":242475,"ppsf":128,"dom":79,"pop":38354,"lat":32.58398,"lng":-92.01351},{"zip":"71219","name":"Baskin","pending_pct":1.0,"pending":1,"active":1,"total":1,"new":0,"median_price":76000,"ppsf":37,"dom":25,"pop":1212,"lat":32.32344,"lng":-91.6842},{"zip":"71220","name":"Bastrop","pending_pct":0.2264,"pending":12,"active":42,"total":53,"new":12,"median_price":128000,"ppsf":81,"dom":89,"pop":20398,"lat":32.8622,"lng":-91.91236},{"zip":"71222","name":"Bernice","pending_pct":0.4,"pending":2,"active":3,"total":5,"new":0,"median_price":65000,"ppsf":36,"dom":79,"pop":2871,"lat":32.82859,"lng":-92.65918},{"zip":"71225","name":"Calhoun","pending_pct":0.2414,"pending":7,"active":22,"total":29,"new":8,"median_price":405000,"ppsf":163,"dom":41,"pop":6354,"lat":32.50784,"lng":-92.3477},{"zip":"71227","name":"Choudrant","pending_pct":0.381,"pending":8,"active":14,"total":21,"new":2,"median_price":596188,"ppsf":207,"dom":68,"pop":3783,"lat":32.52866,"lng":-92.48353},{"zip":"71229","name":"Collinston","pending_pct":0.25,"pending":1,"active":3,"total":4,"new":0,"median_price":69000,"ppsf":43,"dom":16,"pop":1331,"lat":32.6374,"lng":-91.89251},{"zip":"71232","name":"Delhi","pending_pct":0.1905,"pending":4,"active":18,"total":21,"new":0,"median_price":392000,"ppsf":182,"dom":51,"pop":5768,"lat":32.41554,"lng":-91.493},{"zip":"71234","name":"Downsville","pending_pct":0.3333,"pending":4,"active":8,"total":12,"new":2,"median_price":362500,"ppsf":143,"dom":33,"pop":5396,"lat":32.64306,"lng":-92.33954},{"zip":"71235","name":"Dubach","pending_pct":0.1429,"pending":1,"active":6,"total":7,"new":0,"median_price":195000,"ppsf":113,"dom":92,"pop":4034,"lat":32.68988,"lng":-92.6726},{"zip":"71237","name":"Epps","pending_pct":null,"pending":null,"active":1,"total":1,"new":0,"median_price":139900,"ppsf":112,"dom":21,"pop":1028,"lat":32.58413,"lng":-91.48024},{"zip":"71238","name":"Eros","pending_pct":0.6,"pending":3,"active":2,"total":5,"new":2,"median_price":415000,"ppsf":199,"dom":30,"pop":2374,"lat":32.36716,"lng":-92.38139},{"zip":"71241","name":"Farmerville","pending_pct":0.2895,"pending":11,"active":28,"total":38,"new":6,"median_price":305000,"ppsf":170,"dom":56,"pop":8485,"lat":32.77107,"lng":-92.36531},{"zip":"71245","name":"Grambling","pending_pct":0.3333,"pending":1,"active":2,"total":3,"new":0,"median_price":92375,"ppsf":71,"dom":41,"pop":4439,"lat":32.52697,"lng":-92.7145},{"zip":"71247","name":"","pending_pct":1.0,"pending":1,"active":0,"total":1,"new":0,"median_price":152000,"ppsf":93,"dom":40,"pop":1133,"lat":32.27255,"lng":-92.72077},{"zip":"71251","name":"Jonesboro","pending_pct":0.3636,"pending":4,"active":7,"total":11,"new":2,"median_price":192425,"ppsf":107,"dom":66,"pop":8026,"lat":32.21891,"lng":-92.67162},{"zip":"71254","name":"Lake Providence","pending_pct":0.3333,"pending":1,"active":3,"total":3,"new":0,"median_price":189750,"ppsf":66,"dom":132,"pop":6397,"lat":32.79429,"lng":-91.23914},{"zip":"71256","name":"Lillie","pending_pct":0.2857,"pending":2,"active":5,"total":7,"new":0,"median_price":219900,"ppsf":118,"dom":206,"pop":678,"lat":32.94852,"lng":-92.71471},{"zip":"71259","name":"Mangham","pending_pct":0.3333,"pending":2,"active":5,"total":6,"new":0,"median_price":297450,"ppsf":119,"dom":93,"pop":2010,"lat":32.2713,"lng":-91.84558},{"zip":"71260","name":"Marion","pending_pct":0.2,"pending":1,"active":4,"total":5,"new":2,"median_price":115000,"ppsf":47,"dom":42,"pop":3151,"lat":32.90615,"lng":-92.23793},{"zip":"71261","name":"Mer Rouge","pending_pct":0.2,"pending":1,"active":4,"total":5,"new":0,"median_price":190000,"ppsf":109,"dom":57,"pop":1171,"lat":32.77802,"lng":-91.69515},{"zip":"71263","name":"Oak Grove","pending_pct":0.2353,"pending":4,"active":13,"total":17,"new":2,"median_price":182250,"ppsf":91,"dom":103,"pop":6410,"lat":32.87497,"lng":-91.428},{"zip":"71264","name":"Oak Ridge","pending_pct":null,"pending":null,"active":4,"total":4,"new":0,"median_price":312500,"ppsf":141,"dom":64,"pop":1130,"lat":32.6029,"lng":-91.7734},{"zip":"71266","name":"Pioneer","pending_pct":0.6667,"pending":2,"active":1,"total":3,"new":0,"median_price":300000,"ppsf":77,"dom":8,"pop":1673,"lat":32.70359,"lng":-91.48362},{"zip":"71268","name":"Quitman","pending_pct":0.5,"pending":1,"active":1,"total":2,"new":0,"median_price":995000,"ppsf":324,"dom":140,"pop":2437,"lat":32.34696,"lng":-92.74418},{"zip":"71269","name":"Rayville","pending_pct":0.25,"pending":8,"active":24,"total":32,"new":4,"median_price":365000,"ppsf":149,"dom":147,"pop":12318,"lat":32.44592,"lng":-91.78718},{"zip":"71270","name":"Ruston","pending_pct":0.2787,"pending":34,"active":89,"total":122,"new":20,"median_price":288250,"ppsf":160,"dom":83,"pop":32885,"lat":32.49378,"lng":-92.64139},{"zip":"71275","name":"Simsboro","pending_pct":0.5,"pending":2,"active":2,"total":4,"new":0,"median_price":283425,"ppsf":140,"dom":145,"pop":2363,"lat":32.51276,"lng":-92.81991},{"zip":"71277","name":"Spearsville","pending_pct":null,"pending":null,"active":1,"total":1,"new":0,"median_price":149900,"ppsf":68,"dom":100,"pop":1263,"lat":32.94902,"lng":-92.55554},{"zip":"71280","name":"Sterlington","pending_pct":0.6296,"pending":17,"active":10,"total":27,"new":4,"median_price":295000,"ppsf":170,"dom":39,"pop":5269,"lat":32.72344,"lng":-92.10389},{"zip":"71282","name":"Tallulah","pending_pct":0.2143,"pending":3,"active":12,"total":14,"new":0,"median_price":182500,"ppsf":71,"dom":132,"pop":8828,"lat":32.35662,"lng":-91.20042},{"zip":"71291","name":"West Monroe","pending_pct":0.4474,"pending":34,"active":43,"total":76,"new":22,"median_price":310725,"ppsf":153,"dom":56,"pop":35269,"lat":32.56977,"lng":-92.18277},{"zip":"71292","name":"West Monroe","pending_pct":0.3636,"pending":16,"active":28,"total":44,"new":12,"median_price":257900,"ppsf":131,"dom":77,"pop":22935,"lat":32.40147,"lng":-92.21569},{"zip":"71295","name":"Winnsboro","pending_pct":0.2857,"pending":8,"active":21,"total":28,"new":2,"median_price":181000,"ppsf":94,"dom":95,"pop":13992,"lat":32.14565,"lng":-91.70795},{"zip":"71301","name":"Alexandria","pending_pct":0.25,"pending":25,"active":74,"total":100,"new":20,"median_price":160000,"ppsf":94,"dom":84,"pop":17035,"lat":31.27446,"lng":-92.46864},{"zip":"71302","name":"Alexandria","pending_pct":0.2286,"pending":8,"active":27,"total":35,"new":10,"median_price":155500,"ppsf":98,"dom":60,"pop":13579,"lat":31.2053,"lng":-92.36667},{"zip":"71303","name":"Alexandria","pending_pct":0.4222,"pending":38,"active":53,"total":90,"new":24,"median_price":293500,"ppsf":137,"dom":77,"pop":25138,"lat":31.28081,"lng":-92.54308},{"zip":"71322","name":"Bunkie","pending_pct":0.4667,"pending":7,"active":8,"total":15,"new":2,"median_price":222075,"ppsf":93,"dom":140,"pop":5356,"lat":30.86731,"lng":-92.15188},{"zip":"71323","name":"Center Point","pending_pct":1.0,"pending":3,"active":1,"total":3,"new":0,"median_price":220450,"ppsf":117,"dom":177,"pop":1027,"lat":31.26656,"lng":-92.21037},{"zip":"71325","name":"Cheneyville","pending_pct":0.3333,"pending":1,"active":2,"total":3,"new":0,"median_price":136250,"ppsf":81,"dom":114,"pop":1273,"lat":31.01153,"lng":-92.32434},{"zip":"71327","name":"Cottonport","pending_pct":0.4615,"pending":6,"active":7,"total":13,"new":4,"median_price":134975,"ppsf":95,"dom":61,"pop":5941,"lat":30.97895,"lng":-92.03863},{"zip":"71328","name":"Deville","pending_pct":0.4,"pending":6,"active":9,"total":15,"new":4,"median_price":245000,"ppsf":138,"dom":65,"pop":7614,"lat":31.35276,"lng":-92.19097},{"zip":"71331","name":"Effie","pending_pct":null,"pending":null,"active":1,"total":1,"new":0,"median_price":110000,"ppsf":55,"dom":68,"pop":714,"lat":31.2578,"lng":-92.07969},{"zip":"71334","name":"Ferriday","pending_pct":0.1515,"pending":5,"active":29,"total":33,"new":4,"median_price":412000,"ppsf":153,"dom":106,"pop":9156,"lat":31.66978,"lng":-91.56864},{"zip":"71336","name":"Gilbert","pending_pct":null,"pending":null,"active":4,"total":4,"new":0,"median_price":161500,"ppsf":96,"dom":105,"pop":1391,"lat":32.02126,"lng":-91.5935},{"zip":"71340","name":"Harrisonburg","pending_pct":null,"pending":null,"active":5,"total":5,"new":2,"median_price":160500,"ppsf":75,"dom":37,"pop":1760,"lat":31.7553,"lng":-91.80696},{"zip":"71341","name":"Hessmer","pending_pct":0.4,"pending":2,"active":4,"total":5,"new":0,"median_price":131250,"ppsf":70,"dom":123,"pop":2943,"lat":31.05969,"lng":-92.16267},{"zip":"71342","name":"Jena","pending_pct":0.1667,"pending":4,"active":21,"total":24,"new":2,"median_price":207249,"ppsf":126,"dom":57,"pop":7735,"lat":31.60042,"lng":-92.1403},{"zip":"71343","name":"Jonesville","pending_pct":0.069,"pending":2,"active":26,"total":29,"new":0,"median_price":199000,"ppsf":167,"dom":105,"pop":6764,"lat":31.51117,"lng":-91.90723},{"zip":"71346","name":"Lecompte","pending_pct":0.5,"pending":3,"active":3,"total":6,"new":0,"median_price":457474,"ppsf":128,"dom":94,"pop":2555,"lat":31.11686,"lng":-92.38446},{"zip":"71350","name":"Mansura","pending_pct":0.4,"pending":6,"active":9,"total":15,"new":4,"median_price":121250,"ppsf":86,"dom":124,"pop":4774,"lat":31.06871,"lng":-92.06053},{"zip":"71351","name":"Marksville","pending_pct":0.1282,"pending":5,"active":33,"total":39,"new":8,"median_price":160750,"ppsf":103,"dom":131,"pop":11499,"lat":31.17227,"lng":-91.9604},{"zip":"71353","name":"Melville","pending_pct":1.0,"pending":1,"active":1,"total":1,"new":0,"median_price":70000,"ppsf":26,"dom":181,"pop":1399,"lat":30.67949,"lng":-91.79664},{"zip":"71354","name":"Monterey","pending_pct":0.1111,"pending":1,"active":8,"total":9,"new":2,"median_price":321750,"ppsf":184,"dom":103,"pop":1394,"lat":31.38364,"lng":-91.73548},{"zip":"71355","name":"Moreauville","pending_pct":0.2,"pending":2,"active":9,"total":10,"new":0,"median_price":93550,"ppsf":62,"dom":98,"pop":1706,"lat":31.05257,"lng":-91.88531},{"zip":"71356","name":"Morrow","pending_pct":1.0,"pending":1,"active":1,"total":1,"new":0,"median_price":199000,"ppsf":95,"dom":46,"pop":596,"lat":30.83423,"lng":-92.02988},{"zip":"71357","name":"Newellton","pending_pct":null,"pending":null,"active":3,"total":3,"new":0,"median_price":90000,"ppsf":313,"dom":76,"pop":1458,"lat":32.1084,"lng":-91.29717},{"zip":"71360","name":"Pineville","pending_pct":0.3902,"pending":48,"active":77,"total":123,"new":38,"median_price":240675,"ppsf":126,"dom":76,"pop":34653,"lat":31.31597,"lng":-92.34593},{"zip":"71362","name":"Plaucheville","pending_pct":null,"pending":null,"active":2,"total":2,"new":0,"median_price":272000,"ppsf":155,"dom":141,"pop":2233,"lat":30.88839,"lng":-91.95225},{"zip":"71366","name":"Saint Joseph","pending_pct":0.1364,"pending":3,"active":18,"total":22,"new":4,"median_price":674500,"ppsf":318,"dom":87,"pop":1369,"lat":31.95051,"lng":-91.35591},{"zip":"71367","name":"Saint Landry","pending_pct":0.5,"pending":1,"active":2,"total":2,"new":0,"median_price":487450,"ppsf":146,"dom":131,"pop":1776,"lat":30.88784,"lng":-92.29426},{"zip":"71368","name":"Sicily Island","pending_pct":0.2,"pending":1,"active":4,"total":5,"new":0,"median_price":151500,"ppsf":72,"dom":119,"pop":1245,"lat":31.86392,"lng":-91.68494},{"zip":"71369","name":"Simmesport","pending_pct":null,"pending":null,"active":3,"total":3,"new":0,"median_price":49900,"ppsf":40,"dom":97,"pop":2518,"lat":30.92949,"lng":-91.85605},{"zip":"71371","name":"Trout","pending_pct":0.1667,"pending":1,"active":5,"total":6,"new":0,"median_price":325000,"ppsf":154,"dom":119,"pop":2033,"lat":31.67542,"lng":-92.2587},{"zip":"71373","name":"Vidalia","pending_pct":0.28,"pending":7,"active":19,"total":25,"new":4,"median_price":169725,"ppsf":95,"dom":104,"pop":5652,"lat":31.35934,"lng":-91.58607},{"zip":"71378","name":"Wisner","pending_pct":0.5,"pending":1,"active":2,"total":2,"new":0,"median_price":86500,"ppsf":55,"dom":24,"pop":2163,"lat":31.95481,"lng":-91.71211},{"zip":"71403","name":"Anacoco","pending_pct":0.3478,"pending":8,"active":14,"total":23,"new":2,"median_price":240250,"ppsf":139,"dom":82,"pop":3962,"lat":31.21047,"lng":-93.44061},{"zip":"71405","name":"Ball","pending_pct":0.4,"pending":10,"active":16,"total":25,"new":6,"median_price":221000,"ppsf":134,"dom":74,"pop":5361,"lat":31.40971,"lng":-92.39771},{"zip":"71407","name":"Bentley","pending_pct":0.5,"pending":1,"active":2,"total":2,"new":0,"median_price":166250,"ppsf":90,"dom":36,"pop":1178,"lat":31.51837,"lng":-92.48402},{"zip":"71409","name":"Boyce","pending_pct":0.0909,"pending":1,"active":10,"total":11,"new":2,"median_price":635000,"ppsf":198,"dom":54,"pop":6135,"lat":31.31287,"lng":-92.69954},{"zip":"71410","name":"","pending_pct":null,"pending":null,"active":1,"total":1,"new":0,"median_price":89500,"ppsf":75,"dom":52,"pop":84,"lat":31.96419,"lng":-92.77125},{"zip":"71411","name":"Campti","pending_pct":0.25,"pending":2,"active":6,"total":8,"new":2,"median_price":120975,"ppsf":89,"dom":58,"pop":2604,"lat":31.90466,"lng":-93.08894},{"zip":"71415","name":"","pending_pct":null,"pending":null,"active":1,"total":1,"new":0,"median_price":65000,"ppsf":35,"dom":106,"pop":366,"lat":32.0253,"lng":-92.14241},{"zip":"71417","name":"Colfax","pending_pct":0.5,"pending":4,"active":3,"total":8,"new":2,"median_price":262475,"ppsf":89,"dom":69,"pop":4940,"lat":31.51611,"lng":-92.65361},{"zip":"71418","name":"Columbia","pending_pct":0.3684,"pending":7,"active":12,"total":19,"new":4,"median_price":349000,"ppsf":138,"dom":42,"pop":5233,"lat":32.13405,"lng":-92.04589},{"zip":"71419","name":"Converse","pending_pct":0.2,"pending":1,"active":4,"total":5,"new":2,"median_price":274000,"ppsf":146,"dom":43,"pop":1936,"lat":31.80188,"lng":-93.72614},{"zip":"71422","name":"Dodson","pending_pct":null,"pending":null,"active":1,"total":1,"new":0,"median_price":940000,"ppsf":328,"dom":60,"pop":1868,"lat":32.07653,"lng":-92.65767},{"zip":"71423","name":"Dry Prong","pending_pct":0.4,"pending":4,"active":6,"total":10,"new":2,"median_price":294250,"ppsf":164,"dom":35,"pop":4962,"lat":31.60012,"lng":-92.56341},{"zip":"71425","name":"Enterprise","pending_pct":null,"pending":null,"active":1,"total":1,"new":0,"median_price":140000,"ppsf":350,"dom":338,"pop":78,"lat":31.89017,"lng":-91.89786},{"zip":"71426","name":"Fisher","pending_pct":1.0,"pending":1,"active":1,"total":1,"new":0,"median_price":160000,"ppsf":null,"dom":92,"pop":142,"lat":31.49182,"lng":-93.46165},{"zip":"71429","name":"Florien","pending_pct":0.1875,"pending":3,"active":13,"total":16,"new":2,"median_price":219000,"ppsf":158,"dom":98,"pop":2849,"lat":31.39843,"lng":-93.43218},{"zip":"71430","name":"Forest Hill","pending_pct":0.25,"pending":1,"active":3,"total":4,"new":0,"median_price":250000,"ppsf":98,"dom":168,"pop":2757,"lat":31.06764,"lng":-92.53135},{"zip":"71432","name":"Georgetown","pending_pct":0.5,"pending":1,"active":1,"total":2,"new":0,"median_price":355000,"ppsf":140,"dom":27,"pop":768,"lat":31.75368,"lng":-92.47435},{"zip":"71433","name":"Glenmora","pending_pct":0.1667,"pending":1,"active":5,"total":6,"new":0,"median_price":241000,"ppsf":121,"dom":34,"pop":4084,"lat":31.00208,"lng":-92.64803},{"zip":"71435","name":"Grayson","pending_pct":0.125,"pending":1,"active":7,"total":8,"new":0,"median_price":278000,"ppsf":141,"dom":147,"pop":3499,"lat":32.02456,"lng":-92.1539},{"zip":"71439","name":"Hornbeck","pending_pct":0.2,"pending":1,"active":4,"total":5,"new":0,"median_price":262000,"ppsf":172,"dom":53,"pop":1961,"lat":31.33707,"lng":-93.36597},{"zip":"71446","name":"Leesville","pending_pct":0.1339,"pending":15,"active":97,"total":112,"new":22,"median_price":177725,"ppsf":113,"dom":79,"pop":21275,"lat":31.15585,"lng":-93.17187},{"zip":"71447","name":"Lena","pending_pct":0.5,"pending":1,"active":1,"total":2,"new":0,"median_price":560000,"ppsf":188,"dom":327,"pop":1010,"lat":31.43202,"lng":-92.8073},{"zip":"71449","name":"Many","pending_pct":0.1356,"pending":8,"active":52,"total":59,"new":10,"median_price":370575,"ppsf":202,"dom":99,"pop":9029,"lat":31.5153,"lng":-93.54383},{"zip":"71450","name":"Marthaville","pending_pct":null,"pending":null,"active":1,"total":1,"new":0,"median_price":240000,"ppsf":127,"dom":29,"pop":842,"lat":31.78137,"lng":-93.40367},{"zip":"71454","name":"Montgomery","pending_pct":0.2,"pending":1,"active":4,"total":5,"new":0,"median_price":291250,"ppsf":168,"dom":91,"pop":2553,"lat":31.69334,"lng":-92.86131},{"zip":"71456","name":"Natchez","pending_pct":0.1429,"pending":1,"active":6,"total":7,"new":0,"median_price":707000,"ppsf":188,"dom":94,"pop":952,"lat":31.63534,"lng":-92.97429},{"zip":"71457","name":"Natchitoches","pending_pct":0.2021,"pending":19,"active":75,"total":94,"new":24,"median_price":263225,"ppsf":149,"dom":84,"pop":24370,"lat":31.74045,"lng":-93.09375},{"zip":"71461","name":"New Llano","pending_pct":0.3333,"pending":4,"active":8,"total":12,"new":0,"median_price":125500,"ppsf":97,"dom":71,"pop":2046,"lat":31.12099,"lng":-93.29775},{"zip":"71462","name":"Noble","pending_pct":null,"pending":null,"active":4,"total":4,"new":0,"median_price":204750,"ppsf":181,"dom":44,"pop":1637,"lat":31.66625,"lng":-93.7324},{"zip":"71463","name":"Oakdale","pending_pct":0.2857,"pending":2,"active":4,"total":7,"new":0,"median_price":230000,"ppsf":87,"dom":95,"pop":8559,"lat":30.80854,"lng":-92.64853},{"zip":"71465","name":"Olla","pending_pct":0.2,"pending":1,"active":4,"total":5,"new":2,"median_price":219750,"ppsf":119,"dom":70,"pop":3086,"lat":31.86499,"lng":-92.19408},{"zip":"71467","name":"Pollock","pending_pct":0.5,"pending":5,"active":6,"total":10,"new":0,"median_price":264925,"ppsf":132,"dom":40,"pop":8228,"lat":31.55789,"lng":-92.39338},{"zip":"71469","name":"Robeline","pending_pct":0.5,"pending":1,"active":1,"total":2,"new":0,"median_price":109000,"ppsf":89,"dom":null,"pop":3020,"lat":31.67755,"lng":-93.2671},{"zip":"71474","name":"Simpson","pending_pct":null,"pending":null,"active":2,"total":2,"new":0,"median_price":128750,"ppsf":104,"dom":105,"pop":348,"lat":31.27724,"lng":-93.01394},{"zip":"71479","name":"Tullos","pending_pct":null,"pending":null,"active":1,"total":1,"new":0,"median_price":95000,"ppsf":70,"dom":16,"pop":510,"lat":31.85129,"lng":-92.36106},{"zip":"71480","name":"","pending_pct":1.0,"pending":1,"active":1,"total":1,"new":0,"median_price":60000,"ppsf":null,"dom":103,"pop":1240,"lat":31.86661,"lng":-92.28415},{"zip":"71483","name":"Winnfield","pending_pct":0.1818,"pending":4,"active":18,"total":22,"new":2,"median_price":137425,"ppsf":72,"dom":88,"pop":9243,"lat":31.89482,"lng":-92.66373},{"zip":"71485","name":"Woodworth","pending_pct":0.3571,"pending":5,"active":9,"total":14,"new":8,"median_price":413350,"ppsf":176,"dom":65,"pop":2890,"lat":31.17811,"lng":-92.53186},{"zip":"71486","name":"Zwolle","pending_pct":0.0541,"pending":2,"active":35,"total":37,"new":6,"median_price":324500,"ppsf":213,"dom":106,"pop":4748,"lat":31.62679,"lng":-93.65876}]}