{"202605":[{"zip":"04774","name":"Saint Francis","pending_pct":0.3333,"pending":2,"active":6,"total":6,"new":0,"median_price":151750,"ppsf":122,"dom":134,"pop":624,"lat":47.10285,"lng":-69.05048},{"zip":"04055","name":"Naples","pending_pct":0.1379,"pending":4,"active":25,"total":29,"new":24,"median_price":620000,"ppsf":359,"dom":28,"pop":3985,"lat":43.97065,"lng":-70.61444},{"zip":"04043","name":"Kennebunk","pending_pct":0.1389,"pending":10,"active":61,"total":72,"new":36,"median_price":837000,"ppsf":403,"dom":52,"pop":11820,"lat":43.39721,"lng":-70.57071},{"zip":"04040","name":"Harrison","pending_pct":0.125,"pending":3,"active":19,"total":24,"new":12,"median_price":497000,"ppsf":268,"dom":43,"pop":3050,"lat":44.10922,"lng":-70.71784},{"zip":"04864","name":"Warren","pending_pct":0.1667,"pending":2,"active":10,"total":12,"new":4,"median_price":449000,"ppsf":288,"dom":40,"pop":4932,"lat":44.12946,"lng":-69.24481},{"zip":"04087","name":"Waterboro","pending_pct":0.375,"pending":3,"active":5,"total":8,"new":4,"median_price":499000,"ppsf":454,"dom":19,"pop":2250,"lat":43.56234,"lng":-70.74529},{"zip":"04330","name":"Augusta","pending_pct":0.1744,"pending":15,"active":71,"total":86,"new":52,"median_price":374950,"ppsf":231,"dom":34,"pop":26690,"lat":44.36387,"lng":-69.73729},{"zip":"04856","name":"Rockport","pending_pct":0.16,"pending":4,"active":21,"total":25,"new":12,"median_price":850000,"ppsf":390,"dom":93,"pop":3675,"lat":44.17798,"lng":-69.12007},{"zip":"04901","name":"Waterville","pending_pct":0.3793,"pending":22,"active":34,"total":58,"new":32,"median_price":279000,"ppsf":180,"dom":32,"pop":27870,"lat":44.55449,"lng":-69.57037},{"zip":"04757","name":"Mapleton","pending_pct":0.2857,"pending":2,"active":6,"total":7,"new":4,"median_price":262400,"ppsf":164,"dom":35,"pop":2627,"lat":46.6141,"lng":-68.18278},{"zip":"04779","name":"Sinclair","pending_pct":0.2,"pending":2,"active":10,"total":10,"new":4,"median_price":294500,"ppsf":249,"dom":87,"pop":446,"lat":47.11615,"lng":-68.31162},{"zip":"04047","name":"Parsonsfield","pending_pct":0.1429,"pending":1,"active":6,"total":7,"new":8,"median_price":507450,"ppsf":235,"dom":19,"pop":1715,"lat":43.73552,"lng":-70.91152},{"zip":"04538","name":"Boothbay Harbor","pending_pct":0.2857,"pending":4,"active":11,"total":14,"new":4,"median_price":795000,"ppsf":356,"dom":88,"pop":1810,"lat":43.85632,"lng":-69.62807},{"zip":"03908","name":"South Berwick","pending_pct":0.4167,"pending":5,"active":7,"total":12,"new":12,"median_price":604950,"ppsf":263,"dom":14,"pop":7431,"lat":43.23838,"lng":-70.74795},{"zip":"04105","name":"Falmouth","pending_pct":0.0784,"pending":4,"active":47,"total":51,"new":20,"median_price":899000,"ppsf":451,"dom":61,"pop":12755,"lat":43.74753,"lng":-70.2825},{"zip":"04664","name":"Sullivan","pending_pct":0.1429,"pending":1,"active":6,"total":7,"new":4,"median_price":457000,"ppsf":419,"dom":48,"pop":1246,"lat":44.53906,"lng":-68.12797},{"zip":"04961","name":"New Portland","pending_pct":0.1818,"pending":2,"active":9,"total":11,"new":0,"median_price":625000,"ppsf":336,"dom":133,"pop":919,"lat":45.16024,"lng":-70.1665},{"zip":"04921","name":"Brooks","pending_pct":0.1,"pending":1,"active":9,"total":10,"new":4,"median_price":344900,"ppsf":171,"dom":38,"pop":1775,"lat":44.57256,"lng":-69.13326},{"zip":"04763","name":"Oakfield","pending_pct":0.25,"pending":1,"active":3,"total":4,"new":0,"median_price":154900,"ppsf":328,"dom":89,"pop":629,"lat":46.08068,"lng":-68.10371},{"zip":"04461","name":"Milford","pending_pct":0.2,"pending":1,"active":4,"total":5,"new":4,"median_price":240000,"ppsf":216,"dom":23,"pop":3095,"lat":44.98057,"lng":-68.57243},{"zip":"04937","name":"Fairfield","pending_pct":0.2143,"pending":3,"active":12,"total":14,"new":8,"median_price":229900,"ppsf":160,"dom":29,"pop":6358,"lat":44.63546,"lng":-69.67635},{"zip":"04859","name":"Spruce Head","pending_pct":0.1429,"pending":1,"active":7,"total":7,"new":0,"median_price":360000,"ppsf":328,"dom":40,"pop":753,"lat":44.00068,"lng":-69.16112},{"zip":"04642","name":"Harborside","pending_pct":0.3333,"pending":1,"active":3,"total":3,"new":4,"median_price":919000,"ppsf":681,"dom":25,"pop":202,"lat":44.33906,"lng":-68.79591},{"zip":"04547","name":"Friendship","pending_pct":0.1429,"pending":1,"active":6,"total":7,"new":0,"median_price":440000,"ppsf":227,"dom":103,"pop":1213,"lat":43.99388,"lng":-69.32779},{"zip":"04740","name":"Easton","pending_pct":0.4,"pending":2,"active":3,"total":5,"new":0,"median_price":155000,"ppsf":95,"dom":72,"pop":1433,"lat":46.64325,"lng":-67.85487},{"zip":"04667","name":"Perry","pending_pct":0.2,"pending":1,"active":4,"total":5,"new":4,"median_price":349900,"ppsf":251,"dom":22,"pop":1296,"lat":44.97853,"lng":-67.10413},{"zip":"04422","name":"Charleston","pending_pct":0.2222,"pending":2,"active":7,"total":9,"new":4,"median_price":344450,"ppsf":285,"dom":78,"pop":1117,"lat":45.07097,"lng":-69.03408},{"zip":"04479","name":"Sangerville","pending_pct":0.125,"pending":1,"active":7,"total":8,"new":8,"median_price":359000,"ppsf":195,"dom":246,"pop":1136,"lat":45.12755,"lng":-69.30688},{"zip":"04535","name":"Alna","pending_pct":null,"pending":null,"active":1,"total":1,"new":2,"median_price":75000,"ppsf":57,"dom":4,"pop":818,"lat":44.08778,"lng":-69.63436},{"zip":"04783","name":"Stockholm","pending_pct":null,"pending":null,"active":4,"total":4,"new":0,"median_price":259000,"ppsf":295,"dom":44,"pop":545,"lat":47.03586,"lng":-68.18907},{"zip":"04761","name":"New Limerick","pending_pct":null,"pending":null,"active":2,"total":2,"new":0,"median_price":289700,"ppsf":169,"dom":65,"pop":372,"lat":46.11857,"lng":-67.97183},{"zip":"04551","name":"Bremen","pending_pct":null,"pending":null,"active":10,"total":10,"new":4,"median_price":650000,"ppsf":533,"dom":79,"pop":917,"lat":44.00648,"lng":-69.42701},{"zip":"04010","name":"Brownfield","pending_pct":0.0909,"pending":1,"active":11,"total":11,"new":4,"median_price":549900,"ppsf":322,"dom":94,"pop":1830,"lat":43.93341,"lng":-70.91718},{"zip":"04240","name":"Lewiston","pending_pct":0.2157,"pending":11,"active":40,"total":51,"new":40,"median_price":378500,"ppsf":201,"dom":22,"pop":38324,"lat":44.09147,"lng":-70.16808},{"zip":"04736","name":"Caribou","pending_pct":0.0455,"pending":2,"active":41,"total":44,"new":16,"median_price":215000,"ppsf":135,"dom":57,"pop":9025,"lat":46.90661,"lng":-68.01998},{"zip":"04434","name":"Etna","pending_pct":0.5,"pending":1,"active":2,"total":2,"new":0,"median_price":242000,"ppsf":243,"dom":11,"pop":1252,"lat":44.78529,"lng":-69.13385},{"zip":"04093","name":"Buxton","pending_pct":0.1,"pending":1,"active":8,"total":10,"new":4,"median_price":637900,"ppsf":359,"dom":62,"pop":8512,"lat":43.64282,"lng":-70.53765},{"zip":"04628","name":"Dennysville","pending_pct":0.25,"pending":1,"active":3,"total":4,"new":0,"median_price":299000,"ppsf":374,"dom":139,"pop":582,"lat":44.87275,"lng":-67.28238},{"zip":"04239","name":"Jay","pending_pct":0.2222,"pending":2,"active":8,"total":9,"new":8,"median_price":267450,"ppsf":217,"dom":53,"pop":4657,"lat":44.53062,"lng":-70.20935},{"zip":"03904","name":"Kittery","pending_pct":0.1923,"pending":5,"active":21,"total":26,"new":16,"median_price":1099500,"ppsf":489,"dom":32,"pop":8389,"lat":43.11025,"lng":-70.73201},{"zip":"04354","name":"Palermo","pending_pct":0.2222,"pending":2,"active":7,"total":9,"new":4,"median_price":372500,"ppsf":380,"dom":58,"pop":1473,"lat":44.39602,"lng":-69.42709},{"zip":"04562","name":"Phippsburg","pending_pct":0.0,"pending":0,"active":6,"total":6,"new":0,"median_price":1585000,"ppsf":590,"dom":74,"pop":2238,"lat":43.78758,"lng":-69.82764},{"zip":"04360","name":"Vienna","pending_pct":1.0,"pending":1,"active":1,"total":1,"new":0,"median_price":216000,"ppsf":410,"dom":2,"pop":536,"lat":44.54741,"lng":-70.00299},{"zip":"04345","name":"Gardiner","pending_pct":0.2353,"pending":8,"active":25,"total":34,"new":20,"median_price":390000,"ppsf":270,"dom":40,"pop":12579,"lat":44.19816,"lng":-69.7841},{"zip":"04011","name":"Brunswick","pending_pct":0.25,"pending":12,"active":36,"total":48,"new":36,"median_price":689900,"ppsf":320,"dom":39,"pop":22336,"lat":43.90068,"lng":-69.97607},{"zip":"04640","name":"Hancock","pending_pct":0.1429,"pending":1,"active":6,"total":7,"new":4,"median_price":605000,"ppsf":281,"dom":166,"pop":2450,"lat":44.53803,"lng":-68.30573},{"zip":"04348","name":"Jefferson","pending_pct":0.2941,"pending":5,"active":12,"total":17,"new":4,"median_price":539500,"ppsf":261,"dom":63,"pop":3484,"lat":44.21521,"lng":-69.49922},{"zip":"04614","name":"Blue Hill","pending_pct":0.0909,"pending":1,"active":10,"total":11,"new":8,"median_price":1200000,"ppsf":232,"dom":69,"pop":2813,"lat":44.41819,"lng":-68.58223},{"zip":"04084","name":"Standish","pending_pct":0.1923,"pending":5,"active":21,"total":26,"new":16,"median_price":649900,"ppsf":318,"dom":28,"pop":7900,"lat":43.76637,"lng":-70.55893},{"zip":"04630","name":"East Machias","pending_pct":0.1667,"pending":1,"active":5,"total":6,"new":0,"median_price":279000,"ppsf":198,"dom":40,"pop":1230,"lat":44.8471,"lng":-67.47287},{"zip":"04554","name":"New Harbor","pending_pct":0.0714,"pending":1,"active":13,"total":14,"new":8,"median_price":699000,"ppsf":429,"dom":53,"pop":514,"lat":43.86348,"lng":-69.50481},{"zip":"04626","name":"Cutler","pending_pct":0.1,"pending":1,"active":9,"total":10,"new":4,"median_price":260000,"ppsf":210,"dom":68,"pop":492,"lat":44.68494,"lng":-67.22169},{"zip":"04634","name":"Franklin","pending_pct":0.0833,"pending":1,"active":11,"total":12,"new":4,"median_price":519000,"ppsf":195,"dom":43,"pop":2374,"lat":44.63457,"lng":-68.22253},{"zip":"03905","name":"Kittery Point","pending_pct":0.4,"pending":2,"active":2,"total":5,"new":0,"median_price":1362450,"ppsf":458,"dom":220,"pop":2084,"lat":43.08481,"lng":-70.68449},{"zip":"04649","name":"Jonesport","pending_pct":0.1429,"pending":2,"active":13,"total":14,"new":4,"median_price":585000,"ppsf":464,"dom":82,"pop":1166,"lat":44.56606,"lng":-67.5817},{"zip":"04006","name":"Biddeford Pool","pending_pct":null,"pending":null,"active":1,"total":1,"new":4,"median_price":3575000,"ppsf":870,"dom":1,"pop":39,"lat":43.44397,"lng":-70.34272},{"zip":"04635","name":"Frenchboro","pending_pct":null,"pending":null,"active":1,"total":1,"new":0,"median_price":495000,"ppsf":352,"dom":339,"pop":30,"lat":44.11376,"lng":-68.35479},{"zip":"04987","name":"Troy","pending_pct":null,"pending":null,"active":2,"total":2,"new":4,"median_price":387450,"ppsf":233,"dom":5,"pop":984,"lat":44.67915,"lng":-69.25361},{"zip":"04418","name":"Greenbush","pending_pct":null,"pending":null,"active":7,"total":7,"new":0,"median_price":178950,"ppsf":248,"dom":121,"pop":1649,"lat":45.07572,"lng":-68.50689},{"zip":"04936","name":"Eustis","pending_pct":0.0769,"pending":1,"active":13,"total":13,"new":4,"median_price":398000,"ppsf":309,"dom":137,"pop":232,"lat":45.32923,"lng":-70.62715},{"zip":"04015","name":"Casco","pending_pct":0.0952,"pending":2,"active":18,"total":21,"new":16,"median_price":537500,"ppsf":303,"dom":38,"pop":3696,"lat":43.96503,"lng":-70.5205},{"zip":"04950","name":"Madison","pending_pct":0.2353,"pending":4,"active":12,"total":17,"new":4,"median_price":229900,"ppsf":150,"dom":109,"pop":4782,"lat":44.83241,"lng":-69.80556},{"zip":"04653","name":"Bass Harbor","pending_pct":1.0,"pending":1,"active":1,"total":1,"new":0,"median_price":250000,"ppsf":365,"dom":7,"pop":719,"lat":44.23705,"lng":-68.3431},{"zip":"04974","name":"Searsport","pending_pct":0.0556,"pending":1,"active":16,"total":18,"new":4,"median_price":449000,"ppsf":226,"dom":56,"pop":2655,"lat":44.4893,"lng":-68.92996},{"zip":"04930","name":"Dexter","pending_pct":0.1429,"pending":2,"active":12,"total":14,"new":8,"median_price":234450,"ppsf":130,"dom":25,"pop":4258,"lat":45.02656,"lng":-69.32835},{"zip":"04261","name":"Newry","pending_pct":0.125,"pending":4,"active":28,"total":32,"new":0,"median_price":807000,"ppsf":518,"dom":84,"pop":268,"lat":44.5631,"lng":-70.91907},{"zip":"04450","name":"Kenduskeag","pending_pct":0.3333,"pending":1,"active":2,"total":3,"new":0,"median_price":242250,"ppsf":195,"dom":102,"pop":1333,"lat":44.91593,"lng":-68.92797},{"zip":"04920","name":"Bingham","pending_pct":0.0833,"pending":1,"active":11,"total":12,"new":4,"median_price":142450,"ppsf":142,"dom":178,"pop":1866,"lat":45.11323,"lng":-69.83863},{"zip":"04553","name":"Newcastle","pending_pct":0.25,"pending":2,"active":6,"total":8,"new":4,"median_price":560000,"ppsf":255,"dom":33,"pop":1913,"lat":44.04787,"lng":-69.57145},{"zip":"04780","name":"Smyrna Mills","pending_pct":0.1429,"pending":1,"active":6,"total":7,"new":0,"median_price":275000,"ppsf":251,"dom":64,"pop":783,"lat":46.1677,"lng":-68.26924},{"zip":"04932","name":"Dixmont","pending_pct":0.1429,"pending":1,"active":6,"total":7,"new":0,"median_price":337500,"ppsf":276,"dom":59,"pop":1207,"lat":44.6957,"lng":-69.13335},{"zip":"04005","name":"Biddeford","pending_pct":0.1071,"pending":6,"active":51,"total":56,"new":36,"median_price":671500,"ppsf":419,"dom":55,"pop":24772,"lat":43.49591,"lng":-70.49537},{"zip":"04102","name":"Portland","pending_pct":0.1875,"pending":9,"active":39,"total":48,"new":24,"median_price":506500,"ppsf":515,"dom":55,"pop":17267,"lat":43.65877,"lng":-70.30622},{"zip":"04448","name":"Howland","pending_pct":0.1176,"pending":2,"active":15,"total":17,"new":4,"median_price":215000,"ppsf":157,"dom":68,"pop":1540,"lat":45.31208,"lng":-68.71977},{"zip":"04963","name":"Oakland","pending_pct":0.1071,"pending":3,"active":27,"total":28,"new":24,"median_price":547500,"ppsf":318,"dom":33,"pop":7524,"lat":44.56621,"lng":-69.81463},{"zip":"04555","name":"Nobleboro","pending_pct":0.25,"pending":2,"active":7,"total":8,"new":4,"median_price":559000,"ppsf":405,"dom":75,"pop":1906,"lat":44.10597,"lng":-69.47687},{"zip":"04982","name":"Stratton","pending_pct":0.2,"pending":1,"active":4,"total":5,"new":0,"median_price":377000,"ppsf":306,"dom":199,"pop":269,"lat":45.11443,"lng":-70.40494},{"zip":"04410","name":"Bradford","pending_pct":0.2,"pending":1,"active":4,"total":5,"new":0,"median_price":300000,"ppsf":383,"dom":143,"pop":1254,"lat":45.08821,"lng":-68.90696},{"zip":"04760","name":"Monticello","pending_pct":0.3333,"pending":1,"active":3,"total":3,"new":0,"median_price":224900,"ppsf":156,"dom":80,"pop":674,"lat":46.32354,"lng":-67.90928},{"zip":"04573","name":"Walpole","pending_pct":null,"pending":null,"active":1,"total":1,"new":0,"median_price":289900,"ppsf":431,"dom":65,"pop":557,"lat":43.95063,"lng":-69.55025},{"zip":"04497","name":"Wytopitlock","pending_pct":null,"pending":null,"active":3,"total":3,"new":0,"median_price":155000,"ppsf":202,"dom":102,"pop":311,"lat":45.7249,"lng":-68.06619},{"zip":"04851","name":"Matinicus","pending_pct":null,"pending":null,"active":5,"total":5,"new":0,"median_price":490000,"ppsf":307,"dom":332,"pop":48,"lat":43.85227,"lng":-68.8916},{"zip":"04685","name":"Swans Island","pending_pct":null,"pending":null,"active":5,"total":5,"new":4,"median_price":542000,"ppsf":408,"dom":36,"pop":438,"lat":44.15869,"lng":-68.44015},{"zip":"04655","name":"Machiasport","pending_pct":0.2,"pending":2,"active":9,"total":10,"new":0,"median_price":299500,"ppsf":225,"dom":233,"pop":1016,"lat":44.66467,"lng":-67.39318},{"zip":"04928","name":"Corinna","pending_pct":0.3333,"pending":1,"active":2,"total":3,"new":4,"median_price":284000,"ppsf":218,"dom":19,"pop":2192,"lat":44.94973,"lng":-69.25695},{"zip":"04769","name":"Presque Isle","pending_pct":0.1429,"pending":4,"active":26,"total":28,"new":16,"median_price":199000,"ppsf":139,"dom":73,"pop":8736,"lat":46.68676,"lng":-67.98737},{"zip":"03907","name":"Ogunquit","pending_pct":0.0909,"pending":2,"active":18,"total":22,"new":8,"median_price":1357500,"ppsf":702,"dom":34,"pop":1379,"lat":43.25474,"lng":-70.611},{"zip":"04556","name":"Edgecomb","pending_pct":0.0,"pending":0,"active":10,"total":10,"new":4,"median_price":392000,"ppsf":368,"dom":69,"pop":1251,"lat":43.96867,"lng":-69.62311},{"zip":"04676","name":"Sedgwick","pending_pct":0.5,"pending":1,"active":1,"total":2,"new":4,"median_price":2120000,"ppsf":527,"dom":6,"pop":1130,"lat":44.34741,"lng":-68.64238},{"zip":"04107","name":"Cape Elizabeth","pending_pct":0.1071,"pending":3,"active":23,"total":28,"new":20,"median_price":1195000,"ppsf":511,"dom":44,"pop":9656,"lat":43.5891,"lng":-70.23801},{"zip":"04605","name":"Ellsworth","pending_pct":0.1475,"pending":9,"active":51,"total":61,"new":20,"median_price":559900,"ppsf":303,"dom":57,"pop":14529,"lat":44.66038,"lng":-68.41623},{"zip":"04989","name":"Vassalboro","pending_pct":0.0714,"pending":1,"active":12,"total":14,"new":4,"median_price":448000,"ppsf":242,"dom":48,"pop":4592,"lat":44.4299,"lng":-69.64784},{"zip":"04062","name":"Windham","pending_pct":0.2037,"pending":11,"active":41,"total":54,"new":40,"median_price":585000,"ppsf":340,"dom":33,"pop":19188,"lat":43.79798,"lng":-70.40547},{"zip":"04462","name":"Millinocket","pending_pct":0.1321,"pending":7,"active":45,"total":53,"new":16,"median_price":189888,"ppsf":120,"dom":125,"pop":4464,"lat":45.86541,"lng":-68.93072},{"zip":"04049","name":"Limington","pending_pct":0.1667,"pending":1,"active":5,"total":6,"new":4,"median_price":522500,"ppsf":319,"dom":20,"pop":4017,"lat":43.7356,"lng":-70.70263},{"zip":"04679","name":"Southwest Harbor","pending_pct":0.2308,"pending":3,"active":10,"total":13,"new":0,"median_price":1140000,"ppsf":486,"dom":204,"pop":1553,"lat":44.27843,"lng":-68.33247},{"zip":"04493","name":"West Enfield","pending_pct":0.1667,"pending":2,"active":10,"total":12,"new":4,"median_price":389000,"ppsf":256,"dom":28,"pop":1840,"lat":45.23853,"lng":-68.53301},{"zip":"04022","name":"Denmark","pending_pct":0.2857,"pending":4,"active":10,"total":14,"new":4,"median_price":549000,"ppsf":282,"dom":35,"pop":1054,"lat":43.98055,"lng":-70.80718},{"zip":"04627","name":"Deer Isle","pending_pct":0.125,"pending":1,"active":7,"total":8,"new":4,"median_price":775000,"ppsf":283,"dom":110,"pop":2137,"lat":44.22275,"lng":-68.66581},{"zip":"04074","name":"Scarborough","pending_pct":0.1475,"pending":9,"active":52,"total":61,"new":48,"median_price":795000,"ppsf":420,"dom":33,"pop":23076,"lat":43.59103,"lng":-70.3683},{"zip":"04408","name":"Aurora","pending_pct":0.5,"pending":1,"active":2,"total":2,"new":0,"median_price":90000,"ppsf":103,"dom":40,"pop":194,"lat":44.9877,"lng":-68.23246},{"zip":"04852","name":"Monhegan","pending_pct":null,"pending":null,"active":1,"total":1,"new":0,"median_price":695000,"ppsf":434,"dom":50,"pop":120,"lat":43.76561,"lng":-69.31235},{"zip":"04734","name":"Blaine","pending_pct":null,"pending":null,"active":1,"total":1,"new":4,"median_price":279000,"ppsf":138,"dom":7,"pop":804,"lat":46.48479,"lng":-67.91955},{"zip":"04285","name":"Weld","pending_pct":null,"pending":null,"active":3,"total":3,"new":0,"median_price":179900,"ppsf":132,"dom":77,"pop":459,"lat":44.70625,"lng":-70.4523},{"zip":"04110","name":"Cumberland Foreside","pending_pct":null,"pending":null,"active":3,"total":3,"new":4,"median_price":1375000,"ppsf":384,"dom":38,"pop":1657,"lat":43.75834,"lng":-70.19905},{"zip":"04623","name":"Columbia Falls","pending_pct":null,"pending":null,"active":5,"total":5,"new":4,"median_price":415000,"ppsf":165,"dom":15,"pop":1173,"lat":44.70786,"lng":-67.70824},{"zip":"04745","name":"Frenchville","pending_pct":null,"pending":null,"active":2,"total":2,"new":0,"median_price":166500,"ppsf":154,"dom":226,"pop":971,"lat":47.27371,"lng":-68.39936},{"zip":"04964","name":"Oquossoc","pending_pct":null,"pending":null,"active":1,"total":1,"new":0,"median_price":220000,"ppsf":346,"dom":71,"pop":108,"lat":44.9355,"lng":-70.83584},{"zip":"04843","name":"Camden","pending_pct":0.2,"pending":5,"active":20,"total":25,"new":12,"median_price":1350000,"ppsf":413,"dom":50,"pop":5242,"lat":44.22929,"lng":-69.08924},{"zip":"04358","name":"South China","pending_pct":0.1538,"pending":2,"active":11,"total":13,"new":8,"median_price":469000,"ppsf":255,"dom":61,"pop":4526,"lat":44.41821,"lng":-69.53286},{"zip":"04096","name":"Yarmouth","pending_pct":0.1304,"pending":3,"active":21,"total":23,"new":16,"median_price":1250000,"ppsf":425,"dom":29,"pop":9053,"lat":43.7978,"lng":-70.1719},{"zip":"04572","name":"Waldoboro","pending_pct":0.1667,"pending":3,"active":15,"total":18,"new":4,"median_price":460498,"ppsf":242,"dom":61,"pop":5253,"lat":44.10984,"lng":-69.36956},{"zip":"04863","name":"Vinalhaven","pending_pct":0.15,"pending":3,"active":17,"total":20,"new":8,"median_price":598500,"ppsf":301,"dom":39,"pop":1216,"lat":44.07898,"lng":-68.84384},{"zip":"04742","name":"Fort Fairfield","pending_pct":0.0667,"pending":1,"active":14,"total":15,"new":4,"median_price":144900,"ppsf":94,"dom":92,"pop":3309,"lat":46.77766,"lng":-67.85526},{"zip":"04224","name":"Dixfield","pending_pct":0.1538,"pending":2,"active":12,"total":13,"new":4,"median_price":224900,"ppsf":129,"dom":68,"pop":3110,"lat":44.58001,"lng":-70.40058},{"zip":"04417","name":"Burlington","pending_pct":0.2,"pending":1,"active":5,"total":5,"new":4,"median_price":149500,"ppsf":335,"dom":78,"pop":355,"lat":45.19923,"lng":-68.36728},{"zip":"04421","name":"Castine","pending_pct":0.4286,"pending":3,"active":4,"total":7,"new":0,"median_price":607000,"ppsf":329,"dom":224,"pop":1362,"lat":44.4111,"lng":-68.79524},{"zip":"04292","name":"Sumner","pending_pct":0.1667,"pending":1,"active":5,"total":6,"new":0,"median_price":149950,"ppsf":94,"dom":46,"pop":845,"lat":44.37461,"lng":-70.44674},{"zip":"04256","name":"Mechanic Falls","pending_pct":0.2,"pending":1,"active":5,"total":5,"new":4,"median_price":249900,"ppsf":217,"dom":132,"pop":3134,"lat":44.10294,"lng":-70.40733},{"zip":"04072","name":"Saco","pending_pct":0.1897,"pending":11,"active":47,"total":58,"new":32,"median_price":562500,"ppsf":337,"dom":34,"pop":20819,"lat":43.53898,"lng":-70.46236},{"zip":"04276","name":"Rumford","pending_pct":0.1111,"pending":3,"active":26,"total":27,"new":8,"median_price":220000,"ppsf":150,"dom":85,"pop":5942,"lat":44.53469,"lng":-70.61541},{"zip":"04955","name":"New Sharon","pending_pct":0.2857,"pending":2,"active":5,"total":7,"new":0,"median_price":299000,"ppsf":297,"dom":134,"pop":1550,"lat":44.63998,"lng":-70.00799},{"zip":"04677","name":"Sorrento","pending_pct":0.25,"pending":1,"active":3,"total":4,"new":0,"median_price":900000,"ppsf":265,"dom":248,"pop":345,"lat":44.49016,"lng":-68.17945},{"zip":"04971","name":"Saint Albans","pending_pct":0.0769,"pending":1,"active":12,"total":13,"new":4,"median_price":290000,"ppsf":263,"dom":47,"pop":1831,"lat":44.93191,"lng":-69.39225},{"zip":"04861","name":"Thomaston","pending_pct":0.0833,"pending":1,"active":11,"total":12,"new":4,"median_price":339500,"ppsf":235,"dom":54,"pop":2769,"lat":44.09302,"lng":-69.17483},{"zip":"04654","name":"Machias","pending_pct":0.1053,"pending":4,"active":34,"total":38,"new":12,"median_price":298000,"ppsf":185,"dom":68,"pop":3340,"lat":44.78128,"lng":-67.57716},{"zip":"04772","name":"Saint Agatha","pending_pct":0.2222,"pending":2,"active":7,"total":9,"new":0,"median_price":275000,"ppsf":207,"dom":124,"pop":842,"lat":47.23375,"lng":-68.32732},{"zip":"04346","name":"Randolph","pending_pct":0.25,"pending":2,"active":5,"total":8,"new":8,"median_price":329900,"ppsf":249,"dom":12,"pop":1610,"lat":44.23469,"lng":-69.75068},{"zip":"04777","name":"Stacyville","pending_pct":0.2,"pending":1,"active":4,"total":5,"new":0,"median_price":170000,"ppsf":101,"dom":68,"pop":478,"lat":45.83515,"lng":-68.48952},{"zip":"04290","name":"Peru","pending_pct":0.1667,"pending":1,"active":5,"total":6,"new":0,"median_price":489900,"ppsf":204,"dom":58,"pop":1501,"lat":44.47354,"lng":-70.45058},{"zip":"04481","name":"Sebec","pending_pct":0.5,"pending":2,"active":4,"total":4,"new":0,"median_price":325000,"ppsf":168,"dom":38,"pop":547,"lat":45.24298,"lng":-69.10423},{"zip":"04263","name":"Leeds","pending_pct":0.5,"pending":1,"active":2,"total":2,"new":4,"median_price":508250,"ppsf":262,"dom":7,"pop":2285,"lat":44.29476,"lng":-70.13061},{"zip":"04957","name":"Norridgewock","pending_pct":null,"pending":null,"active":15,"total":15,"new":4,"median_price":249000,"ppsf":164,"dom":52,"pop":4006,"lat":44.70419,"lng":-69.8471},{"zip":"04781","name":"Wallagrass","pending_pct":null,"pending":null,"active":2,"total":2,"new":0,"median_price":253000,"ppsf":106,"dom":106,"pop":528,"lat":47.14634,"lng":-68.61883},{"zip":"04435","name":"Exeter","pending_pct":null,"pending":null,"active":2,"total":2,"new":0,"median_price":299450,"ppsf":163,"dom":101,"pop":1093,"lat":44.96435,"lng":-69.13539},{"zip":"04643","name":"Harrington","pending_pct":null,"pending":null,"active":8,"total":8,"new":0,"median_price":347500,"ppsf":179,"dom":158,"pop":917,"lat":44.57876,"lng":-67.80562},{"zip":"04768","name":"Portage","pending_pct":null,"pending":null,"active":7,"total":7,"new":4,"median_price":299900,"ppsf":313,"dom":28,"pop":374,"lat":46.7878,"lng":-68.82875},{"zip":"04453","name":"Lagrange","pending_pct":null,"pending":null,"active":1,"total":1,"new":0,"median_price":265000,"ppsf":269,"dom":271,"pop":785,"lat":45.18229,"lng":-68.78244},{"zip":"04773","name":"Saint David","pending_pct":null,"pending":null,"active":3,"total":3,"new":0,"median_price":489000,"ppsf":169,"dom":144,"pop":550,"lat":47.27426,"lng":-68.22649},{"zip":"04619","name":"Calais","pending_pct":0.1,"pending":2,"active":19,"total":20,"new":8,"median_price":229000,"ppsf":119,"dom":63,"pop":3097,"lat":45.13397,"lng":-67.22401},{"zip":"04472","name":"Orland","pending_pct":0.1429,"pending":2,"active":10,"total":14,"new":4,"median_price":614500,"ppsf":340,"dom":41,"pop":1852,"lat":44.57334,"lng":-68.67736},{"zip":"04009","name":"Bridgton","pending_pct":0.1964,"pending":11,"active":45,"total":56,"new":24,"median_price":449000,"ppsf":308,"dom":43,"pop":5478,"lat":44.04791,"lng":-70.73632},{"zip":"04088","name":"Waterford","pending_pct":0.125,"pending":1,"active":8,"total":8,"new":4,"median_price":412400,"ppsf":295,"dom":111,"pop":1269,"lat":44.19352,"lng":-70.71906},{"zip":"04217","name":"Bethel","pending_pct":0.1489,"pending":7,"active":40,"total":47,"new":8,"median_price":580500,"ppsf":337,"dom":79,"pop":3387,"lat":44.36726,"lng":-70.83364},{"zip":"04091","name":"West Baldwin","pending_pct":0.3333,"pending":1,"active":2,"total":3,"new":0,"median_price":404500,"ppsf":245,"dom":168,"pop":801,"lat":43.83035,"lng":-70.74858},{"zip":"04750","name":"Limestone","pending_pct":0.0833,"pending":1,"active":11,"total":12,"new":4,"median_price":149500,"ppsf":122,"dom":40,"pop":1815,"lat":46.9582,"lng":-67.85718},{"zip":"04927","name":"Clinton","pending_pct":0.25,"pending":1,"active":3,"total":4,"new":0,"median_price":224900,"ppsf":188,"dom":35,"pop":3385,"lat":44.67021,"lng":-69.53589},{"zip":"04039","name":"Gray","pending_pct":0.1875,"pending":3,"active":13,"total":16,"new":8,"median_price":572000,"ppsf":333,"dom":27,"pop":8102,"lat":43.88744,"lng":-70.34532},{"zip":"04294","name":"Wilton","pending_pct":0.0714,"pending":1,"active":13,"total":14,"new":8,"median_price":325000,"ppsf":170,"dom":39,"pop":3982,"lat":44.62346,"lng":-70.27075},{"zip":"04576","name":"Southport","pending_pct":0.4,"pending":2,"active":4,"total":5,"new":4,"median_price":2250000,"ppsf":886,"dom":178,"pop":547,"lat":43.82244,"lng":-69.6671},{"zip":"04265","name":"North Monmouth","pending_pct":0.4,"pending":2,"active":4,"total":5,"new":4,"median_price":440000,"ppsf":179,"dom":93,"pop":552,"lat":44.27542,"lng":-70.04276},{"zip":"04066","name":"Orrs Island","pending_pct":0.25,"pending":1,"active":3,"total":4,"new":4,"median_price":729000,"ppsf":433,"dom":13,"pop":837,"lat":43.77332,"lng":-69.96808},{"zip":"04257","name":"Mexico","pending_pct":0.1538,"pending":2,"active":12,"total":13,"new":4,"median_price":209950,"ppsf":125,"dom":72,"pop":2782,"lat":44.57347,"lng":-70.51358},{"zip":"04221","name":"Canton","pending_pct":null,"pending":null,"active":2,"total":2,"new":0,"median_price":194500,"ppsf":440,"dom":191,"pop":1191,"lat":44.47242,"lng":-70.29857},{"zip":"04495","name":"Winn","pending_pct":null,"pending":null,"active":1,"total":1,"new":0,"median_price":99000,"ppsf":95,"dom":12,"pop":287,"lat":45.45464,"lng":-68.32985},{"zip":"04945","name":"Jackman","pending_pct":null,"pending":null,"active":9,"total":9,"new":0,"median_price":259000,"ppsf":203,"dom":228,"pop":1325,"lat":45.57669,"lng":-70.27974},{"zip":"04017","name":"Chebeague Island","pending_pct":null,"pending":null,"active":2,"total":2,"new":6,"median_price":992000,"ppsf":417,"dom":6,"pop":555,"lat":43.72974,"lng":-70.11317},{"zip":"04986","name":"Thorndike","pending_pct":null,"pending":null,"active":5,"total":5,"new":0,"median_price":349999,"ppsf":398,"dom":186,"pop":2228,"lat":44.55286,"lng":-69.22354},{"zip":"04042","name":"Hollis Center","pending_pct":0.2,"pending":2,"active":8,"total":10,"new":4,"median_price":602000,"ppsf":353,"dom":46,"pop":4872,"lat":43.62953,"lng":-70.62453},{"zip":"04860","name":"Tenants Harbor","pending_pct":0.2222,"pending":2,"active":7,"total":9,"new":4,"median_price":850000,"ppsf":549,"dom":41,"pop":1543,"lat":43.968,"lng":-69.22817},{"zip":"03906","name":"North Berwick","pending_pct":0.3333,"pending":5,"active":10,"total":15,"new":8,"median_price":574000,"ppsf":285,"dom":30,"pop":5368,"lat":43.3447,"lng":-70.77759},{"zip":"04029","name":"Sebago","pending_pct":0.1538,"pending":2,"active":11,"total":13,"new":8,"median_price":498000,"ppsf":335,"dom":24,"pop":2086,"lat":43.89479,"lng":-70.66007},{"zip":"04210","name":"Auburn","pending_pct":0.3056,"pending":11,"active":25,"total":36,"new":20,"median_price":327000,"ppsf":235,"dom":21,"pop":24602,"lat":44.08505,"lng":-70.24923},{"zip":"04254","name":"Livermore Falls","pending_pct":0.125,"pending":1,"active":8,"total":8,"new":4,"median_price":257000,"ppsf":168,"dom":27,"pop":3102,"lat":44.43249,"lng":-70.14265},{"zip":"04915","name":"Belfast","pending_pct":0.0851,"pending":4,"active":43,"total":47,"new":24,"median_price":542500,"ppsf":316,"dom":56,"pop":9107,"lat":44.46643,"lng":-69.04156},{"zip":"04622","name":"Cherryfield","pending_pct":0.1,"pending":1,"active":9,"total":10,"new":4,"median_price":299900,"ppsf":198,"dom":205,"pop":1050,"lat":44.75555,"lng":-67.95143},{"zip":"04976","name":"Skowhegan","pending_pct":0.1351,"pending":5,"active":30,"total":37,"new":12,"median_price":300000,"ppsf":162,"dom":54,"pop":10072,"lat":44.79873,"lng":-69.66951},{"zip":"04038","name":"Gorham","pending_pct":0.4091,"pending":18,"active":27,"total":44,"new":24,"median_price":649000,"ppsf":299,"dom":23,"pop":18300,"lat":43.70343,"lng":-70.4581},{"zip":"04938","name":"Farmington","pending_pct":0.1071,"pending":3,"active":24,"total":28,"new":16,"median_price":339500,"ppsf":204,"dom":39,"pop":10542,"lat":44.65881,"lng":-70.10329},{"zip":"04743","name":"Fort Kent","pending_pct":0.0385,"pending":1,"active":25,"total":26,"new":4,"median_price":246000,"ppsf":126,"dom":90,"pop":4770,"lat":47.15427,"lng":-68.72512},{"zip":"04617","name":"Brooksville","pending_pct":0.3333,"pending":1,"active":2,"total":3,"new":0,"median_price":742500,"ppsf":445,"dom":26,"pop":651,"lat":44.36929,"lng":-68.73081},{"zip":"04668","name":"Princeton","pending_pct":null,"pending":null,"active":8,"total":8,"new":8,"median_price":309000,"ppsf":258,"dom":118,"pop":2010,"lat":45.19846,"lng":-67.70543},{"zip":"04847","name":"Hope","pending_pct":null,"pending":null,"active":3,"total":3,"new":0,"median_price":510000,"ppsf":543,"dom":38,"pop":1748,"lat":44.25104,"lng":-69.18962},{"zip":"04019","name":"Cliff Island","pending_pct":null,"pending":null,"active":1,"total":1,"new":0,"median_price":599000,"ppsf":645,"dom":16,"pop":93,"lat":43.69149,"lng":-70.0999},{"zip":"04956","name":"New Vineyard","pending_pct":null,"pending":null,"active":3,"total":3,"new":0,"median_price":325000,"ppsf":163,"dom":24,"pop":607,"lat":44.80533,"lng":-70.11215},{"zip":"04571","name":"Trevett","pending_pct":null,"pending":null,"active":1,"total":1,"new":4,"median_price":829000,"ppsf":502,"dom":3,"pop":439,"lat":43.89949,"lng":-69.67516},{"zip":"04274","name":"Poland","pending_pct":null,"pending":null,"active":5,"total":5,"new":4,"median_price":495000,"ppsf":316,"dom":9,"pop":5954,"lat":44.04634,"lng":-70.38999},{"zip":"04426","name":"Dover Foxcroft","pending_pct":0.0286,"pending":1,"active":34,"total":35,"new":8,"median_price":289000,"ppsf":177,"dom":69,"pop":4999,"lat":45.1849,"lng":-69.15827},{"zip":"04970","name":"Rangeley","pending_pct":0.0556,"pending":3,"active":52,"total":54,"new":20,"median_price":599450,"ppsf":359,"dom":92,"pop":1105,"lat":45.00032,"lng":-70.63519},{"zip":"04473","name":"Orono","pending_pct":0.4444,"pending":8,"active":10,"total":18,"new":8,"median_price":289000,"ppsf":213,"dom":100,"pop":8371,"lat":44.88594,"lng":-68.71888},{"zip":"04917","name":"Belgrade","pending_pct":0.2,"pending":4,"active":15,"total":20,"new":8,"median_price":622450,"ppsf":318,"dom":54,"pop":3351,"lat":44.48959,"lng":-69.84167},{"zip":"04079","name":"Harpswell","pending_pct":0.0667,"pending":1,"active":14,"total":15,"new":16,"median_price":959000,"ppsf":582,"dom":21,"pop":4026,"lat":43.80343,"lng":-69.94972},{"zip":"04071","name":"Raymond","pending_pct":0.1333,"pending":4,"active":25,"total":30,"new":28,"median_price":990000,"ppsf":497,"dom":15,"pop":4971,"lat":43.89598,"lng":-70.48133},{"zip":"04020","name":"Cornish","pending_pct":0.1429,"pending":1,"active":5,"total":7,"new":4,"median_price":410000,"ppsf":183,"dom":34,"pop":1803,"lat":43.76811,"lng":-70.81028},{"zip":"04268","name":"Norway","pending_pct":0.2083,"pending":5,"active":17,"total":24,"new":16,"median_price":384450,"ppsf":228,"dom":52,"pop":5228,"lat":44.22842,"lng":-70.60651},{"zip":"04455","name":"Lee","pending_pct":0.1818,"pending":2,"active":10,"total":11,"new":8,"median_price":154000,"ppsf":166,"dom":68,"pop":925,"lat":45.3223,"lng":-68.27511},{"zip":"04911","name":"Anson","pending_pct":0.0833,"pending":1,"active":11,"total":12,"new":8,"median_price":270000,"ppsf":212,"dom":32,"pop":1880,"lat":44.78039,"lng":-69.96112},{"zip":"04457","name":"Lincoln","pending_pct":0.0732,"pending":3,"active":36,"total":41,"new":16,"median_price":259900,"ppsf":209,"dom":50,"pop":5823,"lat":45.43432,"lng":-68.52821},{"zip":"04539","name":"Bristol","pending_pct":0.3333,"pending":2,"active":4,"total":6,"new":0,"median_price":450000,"ppsf":354,"dom":41,"pop":1456,"lat":43.96429,"lng":-69.50513},{"zip":"03909","name":"York","pending_pct":0.2143,"pending":15,"active":55,"total":70,"new":40,"median_price":999000,"ppsf":486,"dom":36,"pop":10943,"lat":43.16786,"lng":-70.68105},{"zip":"04988","name":"Unity","pending_pct":0.3333,"pending":1,"active":3,"total":3,"new":0,"median_price":255000,"ppsf":240,"dom":28,"pop":1894,"lat":44.59588,"lng":-69.35959},{"zip":"04097","name":"North Yarmouth","pending_pct":0.2,"pending":2,"active":7,"total":10,"new":8,"median_price":825000,"ppsf":363,"dom":18,"pop":4240,"lat":43.85123,"lng":-70.23636},{"zip":"04424","name":"Danforth","pending_pct":0.0769,"pending":1,"active":13,"total":13,"new":4,"median_price":164500,"ppsf":118,"dom":105,"pop":983,"lat":45.67003,"lng":-67.86144},{"zip":"04451","name":"Kingman","pending_pct":0.5,"pending":1,"active":1,"total":2,"new":0,"median_price":182000,"ppsf":150,"dom":24,"pop":217,"lat":45.6035,"lng":-68.21915},{"zip":"04260","name":"New Gloucester","pending_pct":null,"pending":null,"active":3,"total":3,"new":8,"median_price":775000,"ppsf":398,"dom":7,"pop":5766,"lat":43.96409,"lng":-70.29589},{"zip":"04216","name":"Andover","pending_pct":null,"pending":null,"active":9,"total":9,"new":4,"median_price":295000,"ppsf":240,"dom":53,"pop":578,"lat":44.70046,"lng":-70.8142},{"zip":"04680","name":"Steuben","pending_pct":null,"pending":null,"active":15,"total":15,"new":4,"median_price":640000,"ppsf":295,"dom":73,"pop":1388,"lat":44.50699,"lng":-67.94485},{"zip":"04969","name":"Plymouth","pending_pct":null,"pending":null,"active":1,"total":1,"new":0,"median_price":169620,"ppsf":172,"dom":29,"pop":1319,"lat":44.77019,"lng":-69.22461},{"zip":"04949","name":"Liberty","pending_pct":0.1667,"pending":1,"active":5,"total":6,"new":4,"median_price":392000,"ppsf":410,"dom":43,"pop":969,"lat":44.36712,"lng":-69.34029},{"zip":"04220","name":"Buckfield","pending_pct":0.0,"pending":0,"active":11,"total":11,"new":4,"median_price":320000,"ppsf":231,"dom":49,"pop":3717,"lat":44.33511,"lng":-70.35286},{"zip":"04441","name":"Greenville","pending_pct":0.125,"pending":3,"active":21,"total":24,"new":12,"median_price":377500,"ppsf":442,"dom":56,"pop":1839,"lat":45.68984,"lng":-69.32252},{"zip":"04289","name":"West Paris","pending_pct":0.4286,"pending":3,"active":4,"total":7,"new":0,"median_price":239750,"ppsf":208,"dom":55,"pop":1808,"lat":44.32108,"lng":-70.53248},{"zip":"04730","name":"Houlton","pending_pct":0.1795,"pending":7,"active":32,"total":39,"new":8,"median_price":212450,"ppsf":144,"dom":72,"pop":10106,"lat":46.12574,"lng":-67.91471},{"zip":"04092","name":"Westbrook","pending_pct":0.2051,"pending":8,"active":31,"total":39,"new":36,"median_price":499500,"ppsf":351,"dom":29,"pop":20775,"lat":43.69542,"lng":-70.35389},{"zip":"04282","name":"Turner","pending_pct":0.2667,"pending":4,"active":12,"total":15,"new":12,"median_price":489000,"ppsf":209,"dom":39,"pop":5891,"lat":44.26709,"lng":-70.24291},{"zip":"04958","name":"North Anson","pending_pct":0.0714,"pending":1,"active":13,"total":14,"new":8,"median_price":425000,"ppsf":227,"dom":36,"pop":2002,"lat":44.90561,"lng":-69.92494},{"zip":"04357","name":"Richmond","pending_pct":0.2,"pending":1,"active":5,"total":5,"new":4,"median_price":575000,"ppsf":294,"dom":21,"pop":3566,"lat":44.12366,"lng":-69.82883},{"zip":"04764","name":"Oxbow","pending_pct":0.3333,"pending":1,"active":2,"total":3,"new":0,"median_price":196450,"ppsf":130,"dom":172,"pop":88,"lat":46.36843,"lng":-68.34229},{"zip":"04611","name":"Beals","pending_pct":null,"pending":null,"active":5,"total":5,"new":4,"median_price":787000,"ppsf":503,"dom":69,"pop":498,"lat":44.48771,"lng":-67.59633},{"zip":"04064","name":"Old Orchard Beach","pending_pct":0.1408,"pending":10,"active":62,"total":71,"new":32,"median_price":537450,"ppsf":498,"dom":40,"pop":8632,"lat":43.52635,"lng":-70.38985},{"zip":"04041","name":"Hiram","pending_pct":0.0,"pending":0,"active":6,"total":6,"new":4,"median_price":406500,"ppsf":240,"dom":32,"pop":1748,"lat":43.86416,"lng":-70.82631},{"zip":"04344","name":"Farmingdale","pending_pct":0.25,"pending":1,"active":4,"total":4,"new":4,"median_price":382400,"ppsf":256,"dom":22,"pop":3017,"lat":44.2588,"lng":-69.82125},{"zip":"04430","name":"East Millinocket","pending_pct":0.125,"pending":2,"active":14,"total":16,"new":4,"median_price":187950,"ppsf":124,"dom":131,"pop":1495,"lat":45.64662,"lng":-68.58646},{"zip":"04364","name":"Winthrop","pending_pct":0.2727,"pending":3,"active":8,"total":11,"new":8,"median_price":480000,"ppsf":207,"dom":36,"pop":6191,"lat":44.31158,"lng":-69.96153},{"zip":"04444","name":"Hampden","pending_pct":0.1961,"pending":10,"active":41,"total":51,"new":24,"median_price":469000,"ppsf":200,"dom":59,"pop":9371,"lat":44.72591,"lng":-68.94585},{"zip":"04612","name":"Bernard","pending_pct":0.1667,"pending":1,"active":6,"total":6,"new":0,"median_price":712000,"ppsf":472,"dom":170,"pop":505,"lat":44.25954,"lng":-68.37722},{"zip":"04046","name":"Kennebunkport","pending_pct":0.1304,"pending":6,"active":39,"total":46,"new":20,"median_price":1469000,"ppsf":567,"dom":54,"pop":8102,"lat":43.42027,"lng":-70.4921},{"zip":"04694","name":"Baileyville","pending_pct":0.0714,"pending":1,"active":13,"total":14,"new":4,"median_price":231950,"ppsf":141,"dom":113,"pop":2155,"lat":45.09987,"lng":-67.46518},{"zip":"04543","name":"Damariscotta","pending_pct":0.2857,"pending":2,"active":4,"total":7,"new":0,"median_price":497000,"ppsf":558,"dom":109,"pop":2192,"lat":44.03446,"lng":-69.49211},{"zip":"04658","name":"Milbridge","pending_pct":0.0714,"pending":1,"active":13,"total":14,"new":4,"median_price":464450,"ppsf":304,"dom":113,"pop":1222,"lat":44.53873,"lng":-67.87257},{"zip":"04941","name":"Freedom","pending_pct":0.1667,"pending":1,"active":6,"total":6,"new":4,"median_price":277000,"ppsf":222,"dom":38,"pop":1577,"lat":44.4654,"lng":-69.3017},{"zip":"04686","name":"Wesley","pending_pct":0.3333,"pending":1,"active":2,"total":3,"new":0,"median_price":184450,"ppsf":207,"dom":56,"pop":328,"lat":44.98619,"lng":-67.69015},{"zip":"04922","name":"Burnham","pending_pct":0.2,"pending":1,"active":5,"total":5,"new":8,"median_price":339000,"ppsf":340,"dom":18,"pop":953,"lat":44.68739,"lng":-69.38255},{"zip":"04657","name":"Meddybemps","pending_pct":null,"pending":null,"active":1,"total":1,"new":0,"median_price":89900,"ppsf":103,"dom":23,"pop":326,"lat":44.97624,"lng":-67.41965},{"zip":"04003","name":"Bailey Island","pending_pct":null,"pending":null,"active":4,"total":4,"new":0,"median_price":1200000,"ppsf":462,"dom":33,"pop":183,"lat":43.73362,"lng":-69.98724},{"zip":"04413","name":"Brookton","pending_pct":null,"pending":null,"active":2,"total":2,"new":0,"median_price":322250,"ppsf":326,"dom":218,"pop":162,"lat":45.55647,"lng":-67.8274},{"zip":"04537","name":"Boothbay","pending_pct":null,"pending":null,"active":15,"total":15,"new":4,"median_price":835000,"ppsf":344,"dom":42,"pop":1685,"lat":43.90241,"lng":-69.62498},{"zip":"04492","name":"Waite","pending_pct":null,"pending":null,"active":1,"total":1,"new":2,"median_price":300000,"ppsf":null,"dom":5,"pop":175,"lat":45.34738,"lng":-67.6658},{"zip":"04625","name":"Cranberry Isles","pending_pct":null,"pending":null,"active":0,"total":0,"new":0,"median_price":379000,"ppsf":217,"dom":null,"pop":62,"lat":44.25041,"lng":-68.25503},{"zip":"04981","name":"Stockton Springs","pending_pct":0.0833,"pending":2,"active":22,"total":24,"new":8,"median_price":435000,"ppsf":226,"dom":36,"pop":2575,"lat":44.53228,"lng":-68.85941},{"zip":"04548","name":"Georgetown","pending_pct":0.1111,"pending":1,"active":8,"total":9,"new":4,"median_price":625000,"ppsf":445,"dom":34,"pop":1012,"lat":43.81499,"lng":-69.74804},{"zip":"04607","name":"Gouldsboro","pending_pct":0.0667,"pending":1,"active":14,"total":15,"new":4,"median_price":485000,"ppsf":238,"dom":142,"pop":1142,"lat":44.47689,"lng":-68.05228},{"zip":"04756","name":"Madawaska","pending_pct":0.04,"pending":1,"active":24,"total":25,"new":8,"median_price":113800,"ppsf":85,"dom":52,"pop":3341,"lat":47.33054,"lng":-68.30176},{"zip":"04978","name":"Smithfield","pending_pct":0.0,"pending":0,"active":4,"total":4,"new":4,"median_price":502450,"ppsf":270,"dom":69,"pop":856,"lat":44.63466,"lng":-69.80789},{"zip":"04496","name":"Winterport","pending_pct":0.25,"pending":4,"active":12,"total":16,"new":8,"median_price":339000,"ppsf":214,"dom":41,"pop":3850,"lat":44.65839,"lng":-68.91189},{"zip":"04281","name":"South Paris","pending_pct":0.375,"pending":6,"active":10,"total":16,"new":12,"median_price":325000,"ppsf":229,"dom":63,"pop":5317,"lat":44.2445,"lng":-70.48832},{"zip":"04443","name":"Guilford","pending_pct":0.087,"pending":2,"active":20,"total":23,"new":12,"median_price":329450,"ppsf":194,"dom":118,"pop":2211,"lat":45.24412,"lng":-69.40572},{"zip":"04684","name":"Surry","pending_pct":0.1429,"pending":1,"active":7,"total":7,"new":8,"median_price":815500,"ppsf":303,"dom":24,"pop":1836,"lat":44.49335,"lng":-68.52796},{"zip":"04428","name":"Eddington","pending_pct":0.2857,"pending":2,"active":4,"total":7,"new":4,"median_price":319000,"ppsf":157,"dom":29,"pop":3334,"lat":44.80643,"lng":-68.55584},{"zip":"04848","name":"Islesboro","pending_pct":0.12,"pending":3,"active":23,"total":25,"new":4,"median_price":895000,"ppsf":649,"dom":71,"pop":636,"lat":44.31083,"lng":-68.90896},{"zip":"04412","name":"Brewer","pending_pct":0.2,"pending":4,"active":16,"total":20,"new":16,"median_price":379900,"ppsf":184,"dom":42,"pop":9652,"lat":44.78354,"lng":-68.73517},{"zip":"04967","name":"Pittsfield","pending_pct":0.0769,"pending":1,"active":12,"total":13,"new":4,"median_price":279900,"ppsf":156,"dom":54,"pop":3930,"lat":44.77138,"lng":-69.43866},{"zip":"04965","name":"Palmyra","pending_pct":0.2222,"pending":2,"active":7,"total":9,"new":0,"median_price":199900,"ppsf":193,"dom":69,"pop":2209,"lat":44.84563,"lng":-69.36272},{"zip":"04841","name":"Rockland","pending_pct":0.2647,"pending":9,"active":26,"total":34,"new":12,"median_price":397500,"ppsf":240,"dom":77,"pop":7035,"lat":44.12739,"lng":-69.13686},{"zip":"04487","name":"Springfield","pending_pct":0.375,"pending":3,"active":6,"total":8,"new":0,"median_price":197450,"ppsf":197,"dom":42,"pop":838,"lat":45.39371,"lng":-68.1006},{"zip":"04616","name":"Brooklin","pending_pct":1.0,"pending":1,"active":2,"total":1,"new":0,"median_price":934250,"ppsf":405,"dom":3,"pop":869,"lat":44.28346,"lng":-68.57069},{"zip":"04061","name":"North Waterboro","pending_pct":0.3333,"pending":5,"active":10,"total":15,"new":12,"median_price":399900,"ppsf":277,"dom":21,"pop":3074,"lat":43.63409,"lng":-70.74312},{"zip":"04691","name":"Whiting","pending_pct":0.4,"pending":2,"active":3,"total":5,"new":0,"median_price":232450,"ppsf":156,"dom":274,"pop":499,"lat":44.76178,"lng":-67.25217},{"zip":"04609","name":"Bar Harbor","pending_pct":0.0769,"pending":2,"active":24,"total":26,"new":4,"median_price":775000,"ppsf":478,"dom":110,"pop":5244,"lat":44.38518,"lng":-68.27108},{"zip":"04085","name":"Steep Falls","pending_pct":0.4,"pending":2,"active":2,"total":5,"new":4,"median_price":430000,"ppsf":388,"dom":58,"pop":2762,"lat":43.7809,"lng":-70.62553},{"zip":"04068","name":"Porter","pending_pct":0.125,"pending":1,"active":7,"total":8,"new":4,"median_price":309450,"ppsf":214,"dom":31,"pop":1746,"lat":43.84009,"lng":-70.9409},{"zip":"04231","name":"Stoneham","pending_pct":0.5,"pending":1,"active":1,"total":2,"new":0,"median_price":499500,"ppsf":213,"dom":44,"pop":271,"lat":44.26438,"lng":-70.88777},{"zip":"04544","name":"East Boothbay","pending_pct":0.1667,"pending":1,"active":5,"total":6,"new":4,"median_price":895000,"ppsf":414,"dom":229,"pop":978,"lat":43.83316,"lng":-69.58997},{"zip":"04419","name":"Carmel","pending_pct":null,"pending":null,"active":3,"total":3,"new":4,"median_price":410000,"ppsf":268,"dom":17,"pop":2941,"lat":44.7969,"lng":-69.03154},{"zip":"04624","name":"Corea","pending_pct":null,"pending":null,"active":2,"total":2,"new":0,"median_price":1987500,"ppsf":626,"dom":149,"pop":225,"lat":44.42438,"lng":-67.9877},{"zip":"04746","name":"Grand Isle","pending_pct":null,"pending":null,"active":3,"total":3,"new":0,"median_price":163500,"ppsf":115,"dom":50,"pop":407,"lat":47.24885,"lng":-68.12472},{"zip":"04984","name":"Temple","pending_pct":null,"pending":null,"active":3,"total":3,"new":0,"median_price":329000,"ppsf":228,"dom":55,"pop":824,"lat":44.69648,"lng":-70.28054},{"zip":"04442","name":"Greenville Junction","pending_pct":null,"pending":null,"active":3,"total":3,"new":0,"median_price":324900,"ppsf":258,"dom":201,"pop":208,"lat":45.47446,"lng":-69.69538},{"zip":"04109","name":"Portland","pending_pct":null,"pending":null,"active":2,"total":2,"new":0,"median_price":749950,"ppsf":471,"dom":46,"pop":213,"lat":43.66732,"lng":-70.19984},{"zip":"04574","name":"Washington","pending_pct":0.1667,"pending":1,"active":5,"total":6,"new":0,"median_price":306950,"ppsf":238,"dom":271,"pop":1624,"lat":44.2734,"lng":-69.39105},{"zip":"04747","name":"Island Falls","pending_pct":0.0833,"pending":1,"active":11,"total":12,"new":4,"median_price":209000,"ppsf":125,"dom":106,"pop":1316,"lat":45.94854,"lng":-68.19649},{"zip":"04258","name":"Minot","pending_pct":0.6667,"pending":2,"active":1,"total":3,"new":4,"median_price":461450,"ppsf":224,"dom":11,"pop":2794,"lat":44.14829,"lng":-70.33794},{"zip":"04350","name":"Litchfield","pending_pct":0.2222,"pending":2,"active":7,"total":9,"new":4,"median_price":460000,"ppsf":320,"dom":46,"pop":3680,"lat":44.16266,"lng":-69.93942},{"zip":"04578","name":"Wiscasset","pending_pct":0.1053,"pending":2,"active":17,"total":19,"new":4,"median_price":599000,"ppsf":384,"dom":47,"pop":4709,"lat":43.98136,"lng":-69.6926},{"zip":"04351","name":"Manchester","pending_pct":0.6,"pending":3,"active":4,"total":5,"new":4,"median_price":382450,"ppsf":217,"dom":120,"pop":2424,"lat":44.33174,"lng":-69.86082},{"zip":"04353","name":"Whitefield","pending_pct":0.25,"pending":1,"active":3,"total":4,"new":4,"median_price":449000,"ppsf":259,"dom":28,"pop":2115,"lat":44.2052,"lng":-69.6126},{"zip":"04474","name":"Orrington","pending_pct":0.1538,"pending":2,"active":13,"total":13,"new":4,"median_price":385000,"ppsf":210,"dom":59,"pop":3853,"lat":44.71501,"lng":-68.77901},{"zip":"03901","name":"Berwick","pending_pct":0.2778,"pending":5,"active":13,"total":18,"new":8,"median_price":637000,"ppsf":303,"dom":31,"pop":8175,"lat":43.30063,"lng":-70.84397},{"zip":"04083","name":"Springvale","pending_pct":0.2308,"pending":3,"active":10,"total":13,"new":12,"median_price":409450,"ppsf":201,"dom":21,"pop":4833,"lat":43.46728,"lng":-70.81359},{"zip":"04101","name":"Portland","pending_pct":0.0615,"pending":4,"active":61,"total":65,"new":20,"median_price":874000,"ppsf":691,"dom":50,"pop":18431,"lat":43.6624,"lng":-70.2586},{"zip":"04037","name":"Fryeburg","pending_pct":0.0714,"pending":1,"active":13,"total":14,"new":8,"median_price":508000,"ppsf":224,"dom":20,"pop":4024,"lat":44.09129,"lng":-70.94942},{"zip":"04953","name":"Newport","pending_pct":0.0833,"pending":1,"active":11,"total":12,"new":8,"median_price":470000,"ppsf":173,"dom":47,"pop":3143,"lat":44.86017,"lng":-69.23297},{"zip":"04073","name":"Sanford","pending_pct":0.3333,"pending":11,"active":21,"total":33,"new":20,"median_price":439900,"ppsf":303,"dom":44,"pop":17414,"lat":43.41301,"lng":-70.74237},{"zip":"04471","name":"Orient","pending_pct":0.25,"pending":1,"active":3,"total":4,"new":0,"median_price":99000,"ppsf":101,"dom":311,"pop":730,"lat":45.8912,"lng":-67.8471},{"zip":"04485","name":"Shirley Mills","pending_pct":0.3333,"pending":1,"active":2,"total":3,"new":0,"median_price":225000,"ppsf":518,"dom":92,"pop":234,"lat":45.362,"lng":-69.61562},{"zip":"04284","name":"Wayne","pending_pct":0.1429,"pending":1,"active":6,"total":7,"new":4,"median_price":850000,"ppsf":240,"dom":31,"pop":1101,"lat":44.34757,"lng":-70.0651},{"zip":"04250","name":"Lisbon","pending_pct":0.5,"pending":1,"active":2,"total":2,"new":4,"median_price":250000,"ppsf":270,"dom":13,"pop":4782,"lat":44.02582,"lng":-70.11706},{"zip":"04564","name":"Round Pond","pending_pct":null,"pending":null,"active":2,"total":2,"new":0,"median_price":1970000,"ppsf":511,"dom":78,"pop":520,"lat":43.93089,"lng":-69.46761},{"zip":"04253","name":"Livermore","pending_pct":null,"pending":null,"active":7,"total":7,"new":4,"median_price":325000,"ppsf":256,"dom":43,"pop":1868,"lat":44.4079,"lng":-70.21503},{"zip":"04776","name":"Sherman","pending_pct":null,"pending":null,"active":5,"total":5,"new":0,"median_price":128000,"ppsf":121,"dom":38,"pop":999,"lat":45.8105,"lng":-68.31818},{"zip":"04411","name":"Bradley","pending_pct":null,"pending":null,"active":4,"total":4,"new":0,"median_price":362500,"ppsf":233,"dom":27,"pop":1645,"lat":44.88634,"lng":-68.56672},{"zip":"04414","name":"Brownville","pending_pct":0.0714,"pending":1,"active":13,"total":14,"new":4,"median_price":174900,"ppsf":151,"dom":107,"pop":1766,"lat":45.40654,"lng":-69.08568},{"zip":"04476","name":"Penobscot","pending_pct":0.2,"pending":1,"active":4,"total":5,"new":0,"median_price":1060000,"ppsf":336,"dom":39,"pop":1154,"lat":44.47474,"lng":-68.70521},{"zip":"04952","name":"Morrill","pending_pct":0.2,"pending":1,"active":5,"total":5,"new":4,"median_price":365000,"ppsf":225,"dom":40,"pop":1790,"lat":44.40934,"lng":-69.14261},{"zip":"04966","name":"Phillips","pending_pct":0.0909,"pending":1,"active":10,"total":11,"new":4,"median_price":294950,"ppsf":211,"dom":74,"pop":1632,"lat":44.82476,"lng":-70.47877},{"zip":"04652","name":"Lubec","pending_pct":0.0417,"pending":1,"active":23,"total":24,"new":4,"median_price":474500,"ppsf":261,"dom":116,"pop":1525,"lat":44.82234,"lng":-67.07457},{"zip":"04219","name":"Bryant Pond","pending_pct":0.1667,"pending":1,"active":6,"total":6,"new":4,"median_price":684500,"ppsf":303,"dom":31,"pop":1399,"lat":44.40924,"lng":-70.59285},{"zip":"04270","name":"Oxford","pending_pct":0.1667,"pending":3,"active":15,"total":18,"new":16,"median_price":474033,"ppsf":306,"dom":46,"pop":6284,"lat":44.11241,"lng":-70.51559},{"zip":"04631","name":"Eastport","pending_pct":0.125,"pending":2,"active":13,"total":16,"new":8,"median_price":289000,"ppsf":160,"dom":96,"pop":1263,"lat":44.91373,"lng":-67.01834},{"zip":"04032","name":"Freeport","pending_pct":0.3529,"pending":6,"active":11,"total":17,"new":12,"median_price":762500,"ppsf":357,"dom":32,"pop":8802,"lat":43.85561,"lng":-70.10085},{"zip":"04103","name":"Portland","pending_pct":0.1463,"pending":6,"active":34,"total":41,"new":44,"median_price":589250,"ppsf":399,"dom":15,"pop":32024,"lat":43.69392,"lng":-70.2909},{"zip":"04095","name":"West Newfield","pending_pct":0.25,"pending":1,"active":4,"total":4,"new":4,"median_price":478000,"ppsf":300,"dom":13,"pop":1480,"lat":43.63925,"lng":-70.90749},{"zip":"04579","name":"Woolwich","pending_pct":0.1429,"pending":1,"active":7,"total":7,"new":4,"median_price":787000,"ppsf":333,"dom":18,"pop":3158,"lat":43.96216,"lng":-69.76872},{"zip":"03902","name":"Cape Neddick","pending_pct":0.1053,"pending":2,"active":17,"total":19,"new":8,"median_price":1125000,"ppsf":430,"dom":32,"pop":2665,"lat":43.22246,"lng":-70.63788},{"zip":"04001","name":"Acton","pending_pct":0.1429,"pending":3,"active":18,"total":21,"new":12,"median_price":597000,"ppsf":407,"dom":47,"pop":2721,"lat":43.52991,"lng":-70.92078},{"zip":"04785","name":"Van Buren","pending_pct":0.0714,"pending":1,"active":13,"total":14,"new":8,"median_price":179000,"ppsf":124,"dom":79,"pop":2073,"lat":47.12678,"lng":-68.00368},{"zip":"04280","name":"Sabattus","pending_pct":0.1667,"pending":1,"active":5,"total":6,"new":8,"median_price":385000,"ppsf":333,"dom":19,"pop":7040,"lat":44.1215,"lng":-70.06152},{"zip":"03903","name":"Eliot","pending_pct":0.2727,"pending":3,"active":9,"total":11,"new":4,"median_price":1149000,"ppsf":352,"dom":32,"pop":7146,"lat":43.14885,"lng":-70.786},{"zip":"04086","name":"Topsham","pending_pct":0.1765,"pending":3,"active":14,"total":17,"new":4,"median_price":749000,"ppsf":382,"dom":50,"pop":9706,"lat":43.96145,"lng":-69.95872},{"zip":"04464","name":"Monson","pending_pct":null,"pending":null,"active":9,"total":9,"new":4,"median_price":219000,"ppsf":199,"dom":45,"pop":596,"lat":45.29104,"lng":-69.50202},{"zip":"04766","name":"Perham","pending_pct":null,"pending":null,"active":2,"total":2,"new":0,"median_price":257700,"ppsf":214,"dom":212,"pop":326,"lat":46.88162,"lng":-68.23911},{"zip":"04541","name":"Chamberlain","pending_pct":null,"pending":null,"active":1,"total":1,"new":0,"median_price":595000,"ppsf":409,"dom":28,"pop":45,"lat":43.88671,"lng":-69.48411},{"zip":"04449","name":"Hudson","pending_pct":null,"pending":null,"active":4,"total":4,"new":4,"median_price":499000,"ppsf":273,"dom":41,"pop":1251,"lat":44.99761,"lng":-68.88357},{"zip":"04238","name":"Hebron","pending_pct":1.0,"pending":1,"active":1,"total":1,"new":0,"median_price":575000,"ppsf":266,"dom":25,"pop":1105,"lat":44.20785,"lng":-70.37937},{"zip":"04468","name":"Old Town","pending_pct":0.3182,"pending":7,"active":15,"total":22,"new":12,"median_price":325000,"ppsf":190,"dom":67,"pop":9291,"lat":45.0263,"lng":-68.72323},{"zip":"04862","name":"Union","pending_pct":0.1,"pending":1,"active":9,"total":10,"new":4,"median_price":427000,"ppsf":284,"dom":78,"pop":4023,"lat":44.26186,"lng":-69.27703},{"zip":"04693","name":"Winter Harbor","pending_pct":0.25,"pending":1,"active":4,"total":4,"new":4,"median_price":454500,"ppsf":415,"dom":16,"pop":493,"lat":44.38479,"lng":-68.07828},{"zip":"04069","name":"Pownal","pending_pct":0.5,"pending":1,"active":1,"total":2,"new":0,"median_price":949500,"ppsf":410,"dom":17,"pop":1696,"lat":43.89918,"lng":-70.18191},{"zip":"04459","name":"Mattawamkeag","pending_pct":0.0,"pending":0,"active":4,"total":4,"new":0,"median_price":89900,"ppsf":100,"dom":100,"pop":750,"lat":45.58898,"lng":-68.33948},{"zip":"04021","name":"Cumberland Center","pending_pct":0.1739,"pending":4,"active":19,"total":23,"new":12,"median_price":749000,"ppsf":397,"dom":20,"pop":6990,"lat":43.79756,"lng":-70.26519},{"zip":"04739","name":"Eagle Lake","pending_pct":0.0909,"pending":1,"active":10,"total":11,"new":0,"median_price":180000,"ppsf":140,"dom":126,"pop":825,"lat":46.97137,"lng":-68.61049},{"zip":"04488","name":"Stetson","pending_pct":0.2,"pending":1,"active":4,"total":5,"new":0,"median_price":385000,"ppsf":220,"dom":24,"pop":1151,"lat":44.87586,"lng":-69.11143},{"zip":"04671","name":"Robbinston","pending_pct":0.2,"pending":1,"active":4,"total":5,"new":0,"median_price":439500,"ppsf":398,"dom":212,"pop":621,"lat":45.06618,"lng":-67.16247},{"zip":"04951","name":"Monroe","pending_pct":0.5,"pending":1,"active":2,"total":2,"new":4,"median_price":330925,"ppsf":178,"dom":72,"pop":1001,"lat":44.60716,"lng":-69.04575},{"zip":"04681","name":"Stonington","pending_pct":0.2222,"pending":2,"active":7,"total":9,"new":0,"median_price":527000,"ppsf":420,"dom":51,"pop":840,"lat":44.16655,"lng":-68.65646},{"zip":"04849","name":"Lincolnville","pending_pct":0.2105,"pending":4,"active":15,"total":19,"new":8,"median_price":650000,"ppsf":376,"dom":142,"pop":4017,"lat":44.3179,"lng":-69.04753},{"zip":"04765","name":"Patten","pending_pct":0.1429,"pending":1,"active":7,"total":7,"new":4,"median_price":239000,"ppsf":161,"dom":47,"pop":1434,"lat":46.06884,"lng":-68.64477},{"zip":"04355","name":"Readfield","pending_pct":0.0714,"pending":1,"active":12,"total":14,"new":4,"median_price":760000,"ppsf":319,"dom":78,"pop":2651,"lat":44.38227,"lng":-69.94915},{"zip":"04106","name":"South Portland","pending_pct":0.186,"pending":8,"active":34,"total":43,"new":44,"median_price":575000,"ppsf":383,"dom":18,"pop":27019,"lat":43.63081,"lng":-70.28972},{"zip":"04108","name":"Peaks Island","pending_pct":0.1,"pending":1,"active":9,"total":10,"new":0,"median_price":920000,"ppsf":639,"dom":49,"pop":826,"lat":43.66057,"lng":-70.18901},{"zip":"04275","name":"Roxbury","pending_pct":0.1111,"pending":1,"active":8,"total":9,"new":0,"median_price":397000,"ppsf":252,"dom":98,"pop":526,"lat":44.68966,"lng":-70.63729},{"zip":"04030","name":"East Waterboro","pending_pct":0.4,"pending":2,"active":3,"total":5,"new":0,"median_price":630000,"ppsf":341,"dom":80,"pop":2731,"lat":43.59301,"lng":-70.69553},{"zip":"04762","name":"New Sweden","pending_pct":null,"pending":null,"active":3,"total":3,"new":0,"median_price":945000,"ppsf":332,"dom":203,"pop":494,"lat":46.97574,"lng":-68.12094},{"zip":"04646","name":"Islesford","pending_pct":null,"pending":null,"active":1,"total":1,"new":0,"median_price":749000,"ppsf":255,"dom":null,"pop":134,"lat":44.26007,"lng":-68.22812},{"zip":"04666","name":"Pembroke","pending_pct":null,"pending":null,"active":8,"total":8,"new":4,"median_price":374000,"ppsf":148,"dom":50,"pop":1178,"lat":44.97646,"lng":-67.22204},{"zip":"04008","name":"Bowdoinham","pending_pct":null,"pending":null,"active":6,"total":6,"new":0,"median_price":385000,"ppsf":325,"dom":36,"pop":3142,"lat":44.03664,"lng":-69.86337},{"zip":"04979","name":"Solon","pending_pct":null,"pending":null,"active":4,"total":4,"new":0,"median_price":375000,"ppsf":249,"dom":167,"pop":963,"lat":44.94105,"lng":-69.79731},{"zip":"04568","name":"South Bristol","pending_pct":0.25,"pending":1,"active":3,"total":4,"new":0,"median_price":3495000,"ppsf":1268,"dom":54,"pop":512,"lat":43.89652,"lng":-69.56153},{"zip":"04858","name":"South Thomaston","pending_pct":0.125,"pending":1,"active":7,"total":8,"new":4,"median_price":547000,"ppsf":299,"dom":81,"pop":1378,"lat":44.04638,"lng":-69.1452},{"zip":"04910","name":"Albion","pending_pct":0.1667,"pending":1,"active":5,"total":6,"new":0,"median_price":355000,"ppsf":230,"dom":33,"pop":2204,"lat":44.517,"lng":-69.44123},{"zip":"04222","name":"Durham","pending_pct":0.3333,"pending":1,"active":2,"total":3,"new":8,"median_price":535000,"ppsf":352,"dom":21,"pop":4262,"lat":43.9644,"lng":-70.12954},{"zip":"04530","name":"Bath","pending_pct":0.2667,"pending":8,"active":21,"total":30,"new":20,"median_price":599999,"ppsf":305,"dom":26,"pop":11275,"lat":43.89156,"lng":-69.8306},{"zip":"04853","name":"North Haven","pending_pct":0.2,"pending":1,"active":4,"total":5,"new":0,"median_price":2390000,"ppsf":498,"dom":287,"pop":480,"lat":44.15172,"lng":-68.86311},{"zip":"04027","name":"Lebanon","pending_pct":0.125,"pending":2,"active":13,"total":16,"new":4,"median_price":587000,"ppsf":318,"dom":42,"pop":6629,"lat":43.40333,"lng":-70.91155},{"zip":"04051","name":"Lovell","pending_pct":0.125,"pending":1,"active":7,"total":8,"new":4,"median_price":537450,"ppsf":255,"dom":41,"pop":1353,"lat":44.18945,"lng":-70.88477},{"zip":"04252","name":"Lisbon Falls","pending_pct":0.1667,"pending":1,"active":5,"total":6,"new":4,"median_price":364750,"ppsf":220,"dom":27,"pop":4968,"lat":44.02719,"lng":-70.06011},{"zip":"04352","name":"Mount Vernon","pending_pct":0.3,"pending":3,"active":8,"total":10,"new":4,"median_price":507450,"ppsf":214,"dom":21,"pop":1716,"lat":44.46478,"lng":-69.96225},{"zip":"04662","name":"Northeast Harbor","pending_pct":0.1,"pending":1,"active":9,"total":10,"new":0,"median_price":3995000,"ppsf":842,"dom":197,"pop":476,"lat":44.30766,"lng":-68.28735},{"zip":"04259","name":"Monmouth","pending_pct":0.1,"pending":1,"active":9,"total":10,"new":8,"median_price":647000,"ppsf":350,"dom":43,"pop":3610,"lat":44.22762,"lng":-70.00868},{"zip":"04983","name":"Strong","pending_pct":0.2222,"pending":2,"active":8,"total":9,"new":8,"median_price":315000,"ppsf":183,"dom":40,"pop":2005,"lat":44.92171,"lng":-70.30599},{"zip":"04002","name":"Alfred","pending_pct":0.1579,"pending":3,"active":16,"total":19,"new":20,"median_price":659000,"ppsf":414,"dom":15,"pop":7737,"lat":43.49572,"lng":-70.67922},{"zip":"04090","name":"Wells","pending_pct":0.1452,"pending":18,"active":108,"total":124,"new":64,"median_price":676400,"ppsf":406,"dom":32,"pop":11713,"lat":43.32669,"lng":-70.63356},{"zip":"04942","name":"Harmony","pending_pct":0.1,"pending":1,"active":9,"total":10,"new":4,"median_price":299000,"ppsf":184,"dom":36,"pop":1192,"lat":45.04148,"lng":-69.59241},{"zip":"04478","name":"Rockwood","pending_pct":0.1667,"pending":1,"active":5,"total":6,"new":4,"median_price":836250,"ppsf":605,"dom":51,"pop":316,"lat":45.7299,"lng":-69.76857},{"zip":"04854","name":"Owls Head","pending_pct":0.0,"pending":0,"active":5,"total":5,"new":4,"median_price":449000,"ppsf":357,"dom":65,"pop":1482,"lat":44.04344,"lng":-69.08504},{"zip":"04660","name":"Mount Desert","pending_pct":0.25,"pending":2,"active":8,"total":8,"new":4,"median_price":1375000,"ppsf":532,"dom":60,"pop":1072,"lat":44.34026,"lng":-68.33231},{"zip":"04427","name":"Corinth","pending_pct":0.2,"pending":1,"active":4,"total":5,"new":0,"median_price":200000,"ppsf":119,"dom":23,"pop":2990,"lat":44.9805,"lng":-69.01063},{"zip":"04237","name":"Hanover","pending_pct":0.2,"pending":1,"active":4,"total":5,"new":0,"median_price":524000,"ppsf":344,"dom":73,"pop":276,"lat":44.49665,"lng":-70.7256},{"zip":"04929","name":"Detroit","pending_pct":null,"pending":null,"active":3,"total":3,"new":0,"median_price":225000,"ppsf":280,"dom":34,"pop":650,"lat":44.76238,"lng":-69.31131},{"zip":"04758","name":"Mars Hill","pending_pct":null,"pending":null,"active":2,"total":2,"new":0,"median_price":249900,"ppsf":155,"dom":32,"pop":1405,"lat":46.55426,"lng":-67.84732},{"zip":"04438","name":"Frankfort","pending_pct":null,"pending":null,"active":1,"total":1,"new":4,"median_price":300000,"ppsf":229,"dom":2,"pop":1098,"lat":44.59856,"lng":-68.91904},{"zip":"04255","name":"Greenwood","pending_pct":null,"pending":null,"active":4,"total":4,"new":0,"median_price":865000,"ppsf":535,"dom":22,"pop":759,"lat":44.33505,"lng":-70.66863},{"zip":"04735","name":"Bridgewater","pending_pct":null,"pending":null,"active":4,"total":4,"new":4,"median_price":279500,"ppsf":126,"dom":16,"pop":492,"lat":46.38072,"lng":-68.02865},{"zip":"04923","name":"Cambridge","pending_pct":null,"pending":null,"active":7,"total":7,"new":0,"median_price":429900,"ppsf":192,"dom":104,"pop":532,"lat":45.03722,"lng":-69.44533},{"zip":"04943","name":"Hartland","pending_pct":null,"pending":null,"active":9,"total":9,"new":8,"median_price":190000,"ppsf":168,"dom":44,"pop":1602,"lat":44.87994,"lng":-69.52054},{"zip":"04475","name":"Passadumkeag","pending_pct":0.5,"pending":1,"active":2,"total":2,"new":0,"median_price":229500,"ppsf":259,"dom":261,"pop":384,"lat":45.1845,"lng":-68.58681},{"zip":"04406","name":"Abbot","pending_pct":0.3333,"pending":2,"active":4,"total":6,"new":0,"median_price":298000,"ppsf":274,"dom":63,"pop":675,"lat":45.2186,"lng":-69.57816},{"zip":"04349","name":"Kents Hill","pending_pct":0.1667,"pending":1,"active":4,"total":6,"new":4,"median_price":512000,"ppsf":365,"dom":85,"pop":1383,"lat":44.43734,"lng":-70.07014},{"zip":"04048","name":"Limerick","pending_pct":0.1111,"pending":2,"active":13,"total":18,"new":12,"median_price":549000,"ppsf":373,"dom":26,"pop":3400,"lat":43.68862,"lng":-70.78642},{"zip":"04939","name":"Garland","pending_pct":0.4,"pending":2,"active":5,"total":5,"new":0,"median_price":259900,"ppsf":161,"dom":203,"pop":823,"lat":45.05436,"lng":-69.15859},{"zip":"04347","name":"Hallowell","pending_pct":0.1111,"pending":1,"active":9,"total":9,"new":4,"median_price":479000,"ppsf":244,"dom":61,"pop":2592,"lat":44.29047,"lng":-69.81399},{"zip":"04363","name":"Windsor","pending_pct":0.1818,"pending":2,"active":8,"total":11,"new":4,"median_price":479900,"ppsf":250,"dom":60,"pop":2690,"lat":44.31101,"lng":-69.57807},{"zip":"04429","name":"Holden","pending_pct":0.2,"pending":4,"active":17,"total":20,"new":8,"median_price":539000,"ppsf":205,"dom":54,"pop":5008,"lat":44.72039,"lng":-68.6171},{"zip":"04912","name":"Athens","pending_pct":0.1429,"pending":1,"active":6,"total":7,"new":4,"median_price":175000,"ppsf":175,"dom":113,"pop":858,"lat":44.97286,"lng":-69.68045},{"zip":"04463","name":"Milo","pending_pct":0.0476,"pending":1,"active":21,"total":21,"new":8,"median_price":149900,"ppsf":157,"dom":45,"pop":2582,"lat":45.28117,"lng":-68.90569},{"zip":"04236","name":"Greene","pending_pct":0.25,"pending":3,"active":10,"total":12,"new":12,"median_price":500000,"ppsf":347,"dom":12,"pop":4417,"lat":44.19036,"lng":-70.14461},{"zip":"04947","name":"Kingfield","pending_pct":0.0714,"pending":3,"active":39,"total":42,"new":12,"median_price":639000,"ppsf":450,"dom":93,"pop":1596,"lat":45.03319,"lng":-70.2391},{"zip":"04076","name":"Shapleigh","pending_pct":0.2353,"pending":4,"active":13,"total":17,"new":8,"median_price":504000,"ppsf":403,"dom":58,"pop":2976,"lat":43.55248,"lng":-70.83793},{"zip":"04973","name":"Searsmont","pending_pct":0.1667,"pending":1,"active":6,"total":6,"new":0,"median_price":430000,"ppsf":205,"dom":76,"pop":1646,"lat":44.36229,"lng":-69.19303},{"zip":"04563","name":"Cushing","pending_pct":0.2857,"pending":4,"active":12,"total":14,"new":4,"median_price":668500,"ppsf":335,"dom":222,"pop":1460,"lat":44.0151,"lng":-69.25655},{"zip":"04460","name":"Medway","pending_pct":0.2,"pending":1,"active":4,"total":5,"new":0,"median_price":124500,"ppsf":112,"dom":67,"pop":1111,"lat":45.64134,"lng":-68.52638},{"zip":"04416","name":"Bucksport","pending_pct":0.2188,"pending":7,"active":25,"total":32,"new":8,"median_price":387500,"ppsf":221,"dom":67,"pop":5497,"lat":44.62725,"lng":-68.75286},{"zip":"04786","name":"Washburn","pending_pct":0.25,"pending":2,"active":7,"total":8,"new":4,"median_price":160000,"ppsf":127,"dom":45,"pop":1599,"lat":46.79207,"lng":-68.17878},{"zip":"04401","name":"Bangor","pending_pct":0.188,"pending":25,"active":108,"total":133,"new":60,"median_price":360000,"ppsf":210,"dom":39,"pop":44854,"lat":44.84711,"lng":-68.84654},{"zip":"04606","name":"Addison","pending_pct":0.1,"pending":1,"active":9,"total":10,"new":4,"median_price":349000,"ppsf":249,"dom":58,"pop":1045,"lat":44.57697,"lng":-67.70281},{"zip":"04648","name":"Jonesboro","pending_pct":0.1429,"pending":1,"active":6,"total":7,"new":0,"median_price":442500,"ppsf":238,"dom":85,"pop":570,"lat":44.65899,"lng":-67.59585},{"zip":"04456","name":"Levant","pending_pct":null,"pending":null,"active":7,"total":7,"new":4,"median_price":359900,"ppsf":212,"dom":64,"pop":3069,"lat":44.88645,"lng":-68.9977},{"zip":"04342","name":"Dresden","pending_pct":null,"pending":null,"active":7,"total":7,"new":0,"median_price":770000,"ppsf":398,"dom":51,"pop":1645,"lat":44.07942,"lng":-69.73939},{"zip":"04924","name":"Canaan","pending_pct":null,"pending":null,"active":4,"total":4,"new":0,"median_price":349450,"ppsf":192,"dom":84,"pop":2063,"lat":44.77922,"lng":-69.54967},{"zip":"04732","name":"Ashland","pending_pct":null,"pending":null,"active":8,"total":8,"new":4,"median_price":235000,"ppsf":202,"dom":99,"pop":1427,"lat":46.56679,"lng":-68.49326},{"zip":"04024","name":"East Baldwin","pending_pct":null,"pending":null,"active":1,"total":1,"new":0,"median_price":475000,"ppsf":386,"dom":161,"pop":356,"lat":43.83556,"lng":-70.67701},{"zip":"04733","name":"Benedicta","pending_pct":null,"pending":null,"active":2,"total":2,"new":0,"median_price":264500,"ppsf":104,"dom":68,"pop":465,"lat":45.74275,"lng":-68.40311}]}