{"202606":[{"zip":"03031","name":"Amherst","pending_pct":0.541,"pending":33,"active":29,"total":61,"new":28,"median_price":890725,"ppsf":330,"dom":30,"pop":11849,"lat":42.87056,"lng":-71.60683},{"zip":"03032","name":"Auburn","pending_pct":0.5455,"pending":12,"active":10,"total":22,"new":14,"median_price":820900,"ppsf":357,"dom":22,"pop":6119,"lat":42.99063,"lng":-71.34383},{"zip":"03033","name":"Brookline","pending_pct":0.5909,"pending":13,"active":9,"total":22,"new":6,"median_price":784000,"ppsf":261,"dom":33,"pop":5736,"lat":42.74643,"lng":-71.67054},{"zip":"03034","name":"Candia","pending_pct":0.5,"pending":10,"active":9,"total":20,"new":4,"median_price":640000,"ppsf":336,"dom":18,"pop":4352,"lat":43.06269,"lng":-71.31106},{"zip":"03036","name":"Chester","pending_pct":0.7742,"pending":24,"active":8,"total":31,"new":14,"median_price":837000,"ppsf":337,"dom":24,"pop":5300,"lat":42.96719,"lng":-71.25083},{"zip":"03037","name":"Deerfield","pending_pct":0.4333,"pending":13,"active":17,"total":30,"new":12,"median_price":770000,"ppsf":329,"dom":27,"pop":4714,"lat":43.1395,"lng":-71.2535},{"zip":"03038","name":"Derry","pending_pct":0.5948,"pending":69,"active":48,"total":116,"new":56,"median_price":612225,"ppsf":313,"dom":27,"pop":34474,"lat":42.88867,"lng":-71.27932},{"zip":"03042","name":"Epping","pending_pct":0.5128,"pending":20,"active":20,"total":39,"new":14,"median_price":635429,"ppsf":345,"dom":54,"pop":7430,"lat":43.05009,"lng":-71.07467},{"zip":"03043","name":"Francestown","pending_pct":0.5,"pending":4,"active":4,"total":8,"new":4,"median_price":799000,"ppsf":255,"dom":34,"pop":1398,"lat":42.99581,"lng":-71.81514},{"zip":"03044","name":"Fremont","pending_pct":0.6875,"pending":11,"active":5,"total":16,"new":2,"median_price":598300,"ppsf":314,"dom":14,"pop":4831,"lat":42.98899,"lng":-71.12494},{"zip":"03045","name":"Goffstown","pending_pct":0.6731,"pending":35,"active":19,"total":52,"new":28,"median_price":579925,"ppsf":284,"dom":21,"pop":14080,"lat":43.01994,"lng":-71.57035},{"zip":"03046","name":"Dunbarton","pending_pct":0.3333,"pending":3,"active":7,"total":9,"new":4,"median_price":731000,"ppsf":257,"dom":19,"pop":3097,"lat":43.10178,"lng":-71.60548},{"zip":"03047","name":"Greenfield","pending_pct":0.4444,"pending":4,"active":5,"total":9,"new":4,"median_price":509925,"ppsf":395,"dom":32,"pop":1730,"lat":42.94029,"lng":-71.87053},{"zip":"03048","name":"Greenville","pending_pct":0.3077,"pending":4,"active":10,"total":13,"new":6,"median_price":584900,"ppsf":257,"dom":19,"pop":3237,"lat":42.74668,"lng":-71.76268},{"zip":"03049","name":"Hollis","pending_pct":0.5143,"pending":18,"active":18,"total":35,"new":16,"median_price":946225,"ppsf":325,"dom":34,"pop":8603,"lat":42.7494,"lng":-71.58338},{"zip":"03051","name":"Hudson","pending_pct":0.6628,"pending":57,"active":26,"total":86,"new":26,"median_price":634675,"ppsf":309,"dom":14,"pop":25557,"lat":42.76394,"lng":-71.40716},{"zip":"03052","name":"Litchfield","pending_pct":0.5714,"pending":20,"active":15,"total":35,"new":4,"median_price":624925,"ppsf":328,"dom":54,"pop":8499,"lat":42.84302,"lng":-71.455},{"zip":"03053","name":"Londonderry","pending_pct":0.6667,"pending":64,"active":33,"total":96,"new":56,"median_price":712450,"ppsf":335,"dom":25,"pop":26327,"lat":42.87927,"lng":-71.38702},{"zip":"03054","name":"Merrimack","pending_pct":0.6737,"pending":64,"active":32,"total":95,"new":54,"median_price":597500,"ppsf":265,"dom":21,"pop":28176,"lat":42.85471,"lng":-71.51878},{"zip":"03055","name":"Milford","pending_pct":0.6744,"pending":29,"active":14,"total":43,"new":16,"median_price":591950,"ppsf":259,"dom":41,"pop":16337,"lat":42.81783,"lng":-71.67361},{"zip":"03057","name":"Mont Vernon","pending_pct":0.6,"pending":6,"active":4,"total":10,"new":2,"median_price":799675,"ppsf":302,"dom":60,"pop":2709,"lat":42.90265,"lng":-71.6861},{"zip":"03060","name":"Nashua","pending_pct":0.5,"pending":18,"active":17,"total":36,"new":20,"median_price":447925,"ppsf":302,"dom":19,"pop":31657,"lat":42.74135,"lng":-71.45936},{"zip":"03062","name":"Nashua","pending_pct":0.6413,"pending":59,"active":30,"total":92,"new":46,"median_price":584900,"ppsf":303,"dom":28,"pop":29441,"lat":42.72212,"lng":-71.49556},{"zip":"03063","name":"Nashua","pending_pct":0.5882,"pending":20,"active":13,"total":34,"new":24,"median_price":486175,"ppsf":282,"dom":13,"pop":15805,"lat":42.7795,"lng":-71.51939},{"zip":"03064","name":"Nashua","pending_pct":0.6154,"pending":24,"active":15,"total":39,"new":16,"median_price":662500,"ppsf":312,"dom":38,"pop":14391,"lat":42.77886,"lng":-71.47466},{"zip":"03070","name":"New Boston","pending_pct":0.6087,"pending":14,"active":9,"total":23,"new":8,"median_price":704750,"ppsf":277,"dom":22,"pop":6177,"lat":42.97702,"lng":-71.68664},{"zip":"03071","name":"New Ipswich","pending_pct":0.4783,"pending":11,"active":12,"total":23,"new":10,"median_price":555000,"ppsf":298,"dom":42,"pop":5310,"lat":42.74892,"lng":-71.8747},{"zip":"03076","name":"Pelham","pending_pct":0.5476,"pending":23,"active":20,"total":42,"new":24,"median_price":871188,"ppsf":323,"dom":22,"pop":14449,"lat":42.73354,"lng":-71.324},{"zip":"03077","name":"Raymond","pending_pct":0.6379,"pending":37,"active":21,"total":58,"new":20,"median_price":552225,"ppsf":327,"dom":42,"pop":10900,"lat":43.03219,"lng":-71.19945},{"zip":"03079","name":"Salem","pending_pct":0.5104,"pending":49,"active":45,"total":96,"new":32,"median_price":679000,"ppsf":343,"dom":32,"pop":30964,"lat":42.79023,"lng":-71.22024},{"zip":"03082","name":"Lyndeborough","pending_pct":0.2,"pending":1,"active":4,"total":5,"new":2,"median_price":768200,"ppsf":327,"dom":21,"pop":1531,"lat":42.90197,"lng":-71.77545},{"zip":"03084","name":"Temple","pending_pct":1.0,"pending":2,"active":1,"total":2,"new":0,"median_price":814950,"ppsf":289,"dom":34,"pop":1363,"lat":42.82856,"lng":-71.85495},{"zip":"03086","name":"Wilton","pending_pct":0.5625,"pending":9,"active":8,"total":16,"new":4,"median_price":649435,"ppsf":270,"dom":26,"pop":4258,"lat":42.82741,"lng":-71.76967},{"zip":"03087","name":"Windham","pending_pct":0.5732,"pending":47,"active":36,"total":82,"new":36,"median_price":859900,"ppsf":333,"dom":38,"pop":16038,"lat":42.80758,"lng":-71.29945},{"zip":"03101","name":"Manchester","pending_pct":0.2857,"pending":2,"active":4,"total":7,"new":2,"median_price":394500,"ppsf":254,"dom":59,"pop":3201,"lat":42.98881,"lng":-71.4659},{"zip":"03102","name":"Manchester","pending_pct":0.5556,"pending":30,"active":26,"total":54,"new":42,"median_price":433500,"ppsf":306,"dom":15,"pop":33959,"lat":43.00797,"lng":-71.49134},{"zip":"03103","name":"Manchester","pending_pct":0.6267,"pending":47,"active":30,"total":75,"new":46,"median_price":426200,"ppsf":315,"dom":16,"pop":37775,"lat":42.95536,"lng":-71.44463},{"zip":"03104","name":"Manchester","pending_pct":0.618,"pending":55,"active":35,"total":89,"new":44,"median_price":534450,"ppsf":275,"dom":28,"pop":35237,"lat":43.00926,"lng":-71.4411},{"zip":"03106","name":"Hooksett","pending_pct":0.6585,"pending":27,"active":16,"total":41,"new":28,"median_price":558725,"ppsf":300,"dom":16,"pop":15032,"lat":43.07097,"lng":-71.43651},{"zip":"03109","name":"Manchester","pending_pct":0.7742,"pending":24,"active":8,"total":31,"new":14,"median_price":512400,"ppsf":295,"dom":19,"pop":9929,"lat":42.96594,"lng":-71.40167},{"zip":"03110","name":"Bedford","pending_pct":0.5059,"pending":43,"active":44,"total":85,"new":44,"median_price":1049850,"ppsf":331,"dom":28,"pop":23746,"lat":42.94065,"lng":-71.53023},{"zip":"03215","name":"Waterville Valley","pending_pct":0.25,"pending":7,"active":21,"total":28,"new":4,"median_price":58375,"ppsf":34,"dom":143,"pop":290,"lat":44.03605,"lng":-71.48109},{"zip":"03216","name":"Andover","pending_pct":0.2222,"pending":2,"active":7,"total":9,"new":8,"median_price":633225,"ppsf":233,"dom":21,"pop":2046,"lat":43.44656,"lng":-71.79374},{"zip":"03217","name":"Ashland","pending_pct":0.5625,"pending":9,"active":7,"total":16,"new":4,"median_price":622500,"ppsf":301,"dom":36,"pop":2183,"lat":43.71492,"lng":-71.63033},{"zip":"03218","name":"Barnstead","pending_pct":0.4286,"pending":3,"active":4,"total":7,"new":2,"median_price":575000,"ppsf":337,"dom":38,"pop":1160,"lat":43.33465,"lng":-71.28803},{"zip":"03220","name":"Belmont","pending_pct":0.3333,"pending":14,"active":30,"total":42,"new":16,"median_price":599900,"ppsf":323,"dom":41,"pop":7393,"lat":43.46793,"lng":-71.4758},{"zip":"03221","name":"Bradford","pending_pct":0.2353,"pending":4,"active":13,"total":17,"new":2,"median_price":694250,"ppsf":297,"dom":44,"pop":2200,"lat":43.25482,"lng":-71.96122},{"zip":"03222","name":"Bristol","pending_pct":0.4595,"pending":17,"active":20,"total":37,"new":16,"median_price":494725,"ppsf":342,"dom":30,"pop":6097,"lat":43.62895,"lng":-71.78234},{"zip":"03223","name":"Campton","pending_pct":0.2941,"pending":15,"active":36,"total":51,"new":14,"median_price":464500,"ppsf":270,"dom":59,"pop":3441,"lat":43.84784,"lng":-71.67597},{"zip":"03224","name":"Canterbury","pending_pct":0.5,"pending":5,"active":6,"total":10,"new":4,"median_price":459225,"ppsf":356,"dom":28,"pop":2392,"lat":43.35171,"lng":-71.54691},{"zip":"03225","name":"Center Barnstead","pending_pct":0.4667,"pending":14,"active":16,"total":30,"new":12,"median_price":474950,"ppsf":330,"dom":42,"pop":3834,"lat":43.36001,"lng":-71.23828},{"zip":"03226","name":"Center Harbor","pending_pct":0.4167,"pending":5,"active":7,"total":12,"new":2,"median_price":662000,"ppsf":274,"dom":42,"pop":1005,"lat":43.70259,"lng":-71.51086},{"zip":"03227","name":"Center Sandwich","pending_pct":0.1667,"pending":1,"active":4,"total":6,"new":0,"median_price":667500,"ppsf":396,"dom":53,"pop":1388,"lat":43.81419,"lng":-71.45712},{"zip":"03229","name":"Contoocook","pending_pct":0.4333,"pending":13,"active":17,"total":30,"new":10,"median_price":931250,"ppsf":296,"dom":31,"pop":6046,"lat":43.19792,"lng":-71.69677},{"zip":"03230","name":"Danbury","pending_pct":0.5,"pending":1,"active":2,"total":2,"new":2,"median_price":374074,"ppsf":234,"dom":2,"pop":1451,"lat":43.52685,"lng":-71.8622},{"zip":"03234","name":"Epsom","pending_pct":0.5238,"pending":11,"active":9,"total":21,"new":4,"median_price":719450,"ppsf":269,"dom":44,"pop":4939,"lat":43.21484,"lng":-71.33914},{"zip":"03235","name":"Franklin","pending_pct":0.5385,"pending":21,"active":18,"total":39,"new":8,"median_price":466500,"ppsf":297,"dom":50,"pop":8903,"lat":43.44831,"lng":-71.67208},{"zip":"03237","name":"Gilmanton","pending_pct":0.0952,"pending":2,"active":18,"total":21,"new":10,"median_price":601950,"ppsf":341,"dom":31,"pop":2575,"lat":43.42997,"lng":-71.38233},{"zip":"03240","name":"Grafton","pending_pct":0.3636,"pending":4,"active":7,"total":11,"new":2,"median_price":290999,"ppsf":271,"dom":49,"pop":1354,"lat":43.57599,"lng":-71.97221},{"zip":"03241","name":"Hebron","pending_pct":0.2727,"pending":3,"active":8,"total":11,"new":4,"median_price":638500,"ppsf":320,"dom":35,"pop":1150,"lat":43.71149,"lng":-71.81915},{"zip":"03242","name":"Henniker","pending_pct":0.3,"pending":3,"active":7,"total":10,"new":6,"median_price":558700,"ppsf":248,"dom":32,"pop":6197,"lat":43.17365,"lng":-71.8224},{"zip":"03243","name":"Hill","pending_pct":0.5,"pending":1,"active":2,"total":2,"new":2,"median_price":434450,"ppsf":234,"dom":15,"pop":952,"lat":43.5276,"lng":-71.7644},{"zip":"03244","name":"Hillsborough","pending_pct":0.449,"pending":22,"active":27,"total":49,"new":20,"median_price":417450,"ppsf":300,"dom":36,"pop":8156,"lat":43.11822,"lng":-71.9192},{"zip":"03245","name":"Holderness","pending_pct":0.2857,"pending":8,"active":19,"total":28,"new":10,"median_price":433500,"ppsf":399,"dom":44,"pop":1917,"lat":43.75026,"lng":-71.58852},{"zip":"03246","name":"Laconia","pending_pct":0.35,"pending":63,"active":116,"total":180,"new":40,"median_price":624975,"ppsf":373,"dom":58,"pop":17103,"lat":43.57239,"lng":-71.4775},{"zip":"03249","name":"Gilford","pending_pct":0.3125,"pending":20,"active":46,"total":64,"new":22,"median_price":711500,"ppsf":361,"dom":41,"pop":7830,"lat":43.55806,"lng":-71.38505},{"zip":"03251","name":"Lincoln","pending_pct":0.2549,"pending":26,"active":78,"total":102,"new":20,"median_price":315000,"ppsf":375,"dom":87,"pop":1461,"lat":44.0796,"lng":-71.65276},{"zip":"03253","name":"Meredith","pending_pct":0.3235,"pending":22,"active":46,"total":68,"new":22,"median_price":742000,"ppsf":369,"dom":46,"pop":6707,"lat":43.63193,"lng":-71.49749},{"zip":"03254","name":"Moultonborough","pending_pct":0.3654,"pending":19,"active":33,"total":52,"new":10,"median_price":1111250,"ppsf":528,"dom":49,"pop":5172,"lat":43.72505,"lng":-71.37782},{"zip":"03255","name":"Newbury","pending_pct":0.4483,"pending":13,"active":16,"total":29,"new":6,"median_price":791250,"ppsf":637,"dom":42,"pop":2015,"lat":43.3149,"lng":-72.02795},{"zip":"03256","name":"New Hampton","pending_pct":0.1667,"pending":2,"active":11,"total":12,"new":6,"median_price":799000,"ppsf":331,"dom":32,"pop":2497,"lat":43.62425,"lng":-71.63514},{"zip":"03257","name":"New London","pending_pct":0.3333,"pending":9,"active":18,"total":27,"new":10,"median_price":1336250,"ppsf":377,"dom":29,"pop":4484,"lat":43.41768,"lng":-71.99101},{"zip":"03258","name":"Chichester","pending_pct":0.5,"pending":4,"active":4,"total":8,"new":0,"median_price":607000,"ppsf":256,"dom":46,"pop":2721,"lat":43.25744,"lng":-71.39956},{"zip":"03259","name":"North Sandwich","pending_pct":null,"pending":null,"active":1,"total":1,"new":0,"median_price":729000,"ppsf":206,"dom":8,"pop":252,"lat":43.87921,"lng":-71.44527},{"zip":"03260","name":"North Sutton","pending_pct":0.6,"pending":3,"active":2,"total":5,"new":2,"median_price":883100,"ppsf":428,"dom":16,"pop":976,"lat":43.36016,"lng":-71.92457},{"zip":"03261","name":"Northwood","pending_pct":0.6389,"pending":23,"active":13,"total":36,"new":8,"median_price":577450,"ppsf":322,"dom":71,"pop":4688,"lat":43.21322,"lng":-71.20966},{"zip":"03262","name":"North Woodstock","pending_pct":0.2105,"pending":4,"active":15,"total":19,"new":8,"median_price":416000,"ppsf":274,"dom":78,"pop":1142,"lat":43.99885,"lng":-71.73813},{"zip":"03263","name":"Pittsfield","pending_pct":0.4444,"pending":8,"active":10,"total":18,"new":4,"median_price":692450,"ppsf":275,"dom":36,"pop":4105,"lat":43.29483,"lng":-71.31133},{"zip":"03264","name":"Plymouth","pending_pct":0.3235,"pending":11,"active":23,"total":34,"new":8,"median_price":424250,"ppsf":238,"dom":51,"pop":6885,"lat":43.72967,"lng":-71.71159},{"zip":"03266","name":"Rumney","pending_pct":0.1667,"pending":1,"active":5,"total":6,"new":4,"median_price":486950,"ppsf":221,"dom":35,"pop":2130,"lat":43.79407,"lng":-71.89035},{"zip":"03268","name":"Salisbury","pending_pct":0.2222,"pending":2,"active":7,"total":9,"new":4,"median_price":598475,"ppsf":297,"dom":45,"pop":1468,"lat":43.38505,"lng":-71.7574},{"zip":"03269","name":"Sanbornton","pending_pct":0.375,"pending":9,"active":16,"total":24,"new":8,"median_price":760500,"ppsf":360,"dom":73,"pop":3066,"lat":43.53,"lng":-71.60219},{"zip":"03273","name":"South Sutton","pending_pct":0.5,"pending":1,"active":1,"total":2,"new":0,"median_price":769000,"ppsf":320,"dom":81,"pop":361,"lat":43.30337,"lng":-71.92413},{"zip":"03275","name":"Suncook","pending_pct":0.5208,"pending":25,"active":24,"total":48,"new":20,"median_price":572000,"ppsf":288,"dom":36,"pop":12205,"lat":43.15999,"lng":-71.41794},{"zip":"03276","name":"Tilton","pending_pct":0.5476,"pending":23,"active":18,"total":42,"new":14,"median_price":448200,"ppsf":315,"dom":59,"pop":9015,"lat":43.42783,"lng":-71.57514},{"zip":"03278","name":"Warner","pending_pct":0.375,"pending":3,"active":5,"total":8,"new":4,"median_price":630000,"ppsf":269,"dom":56,"pop":3079,"lat":43.29313,"lng":-71.82934},{"zip":"03279","name":"Warren","pending_pct":0.5,"pending":2,"active":2,"total":4,"new":0,"median_price":377175,"ppsf":306,"dom":51,"pop":878,"lat":43.94468,"lng":-71.88231},{"zip":"03280","name":"Washington","pending_pct":0.2667,"pending":4,"active":12,"total":15,"new":6,"median_price":572000,"ppsf":290,"dom":42,"pop":1224,"lat":43.18339,"lng":-72.08979},{"zip":"03281","name":"Weare","pending_pct":0.6,"pending":24,"active":17,"total":40,"new":16,"median_price":542450,"ppsf":261,"dom":28,"pop":9170,"lat":43.08126,"lng":-71.72189},{"zip":"03282","name":"Wentworth","pending_pct":0.5714,"pending":4,"active":2,"total":7,"new":0,"median_price":427000,"ppsf":270,"dom":25,"pop":1052,"lat":43.86006,"lng":-71.9295},{"zip":"03284","name":"Springfield","pending_pct":0.3333,"pending":1,"active":2,"total":3,"new":4,"median_price":637000,"ppsf":337,"dom":8,"pop":890,"lat":43.49361,"lng":-72.03057},{"zip":"03285","name":"Thornton","pending_pct":0.1795,"pending":7,"active":32,"total":39,"new":8,"median_price":796500,"ppsf":336,"dom":58,"pop":2799,"lat":43.92408,"lng":-71.64359},{"zip":"03287","name":"Wilmot","pending_pct":null,"pending":null,"active":4,"total":4,"new":2,"median_price":699000,"ppsf":360,"dom":27,"pop":1487,"lat":43.45168,"lng":-71.91795},{"zip":"03290","name":"Nottingham","pending_pct":0.5152,"pending":17,"active":16,"total":33,"new":8,"median_price":788750,"ppsf":397,"dom":44,"pop":5357,"lat":43.12391,"lng":-71.12089},{"zip":"03301","name":"Concord","pending_pct":0.6447,"pending":49,"active":28,"total":76,"new":38,"median_price":469900,"ppsf":267,"dom":28,"pop":33995,"lat":43.22423,"lng":-71.54342},{"zip":"03303","name":"Concord","pending_pct":0.5091,"pending":28,"active":28,"total":55,"new":16,"median_price":449500,"ppsf":290,"dom":38,"pop":16571,"lat":43.29819,"lng":-71.67186},{"zip":"03304","name":"Bow","pending_pct":0.6111,"pending":22,"active":15,"total":36,"new":16,"median_price":803725,"ppsf":254,"dom":22,"pop":8335,"lat":43.13078,"lng":-71.53066},{"zip":"03307","name":"Loudon","pending_pct":0.5455,"pending":6,"active":6,"total":11,"new":2,"median_price":699000,"ppsf":280,"dom":97,"pop":5724,"lat":43.32257,"lng":-71.44265},{"zip":"03431","name":"Keene","pending_pct":0.566,"pending":30,"active":24,"total":53,"new":22,"median_price":424999,"ppsf":245,"dom":29,"pop":25065,"lat":42.96785,"lng":-72.29862},{"zip":"03440","name":"Antrim","pending_pct":0.375,"pending":3,"active":5,"total":8,"new":2,"median_price":520000,"ppsf":300,"dom":36,"pop":2661,"lat":43.06023,"lng":-71.97446},{"zip":"03441","name":"Ashuelot","pending_pct":null,"pending":null,"active":1,"total":1,"new":0,"median_price":319000,"ppsf":177,"dom":56,"pop":593,"lat":42.77737,"lng":-72.44263},{"zip":"03442","name":"Bennington","pending_pct":0.5,"pending":6,"active":6,"total":12,"new":2,"median_price":439000,"ppsf":340,"dom":49,"pop":1588,"lat":43.01268,"lng":-71.90781},{"zip":"03443","name":"Chesterfield","pending_pct":0.75,"pending":3,"active":1,"total":4,"new":2,"median_price":750000,"ppsf":339,"dom":8,"pop":581,"lat":42.8767,"lng":-72.46148},{"zip":"03444","name":"Dublin","pending_pct":0.4286,"pending":3,"active":4,"total":7,"new":4,"median_price":595500,"ppsf":245,"dom":33,"pop":1666,"lat":42.89403,"lng":-72.07178},{"zip":"03445","name":"Sullivan","pending_pct":null,"pending":null,"active":1,"total":1,"new":0,"median_price":1399950,"ppsf":249,"dom":35,"pop":687,"lat":43.01555,"lng":-72.2137},{"zip":"03446","name":"Swanzey","pending_pct":0.45,"pending":9,"active":11,"total":20,"new":6,"median_price":437475,"ppsf":252,"dom":36,"pop":6588,"lat":42.86163,"lng":-72.29639},{"zip":"03447","name":"Fitzwilliam","pending_pct":0.3333,"pending":4,"active":7,"total":12,"new":2,"median_price":302250,"ppsf":225,"dom":38,"pop":2278,"lat":42.7592,"lng":-72.14794},{"zip":"03448","name":"Gilsum","pending_pct":0.3333,"pending":1,"active":2,"total":3,"new":0,"median_price":591250,"ppsf":183,"dom":32,"pop":716,"lat":43.03996,"lng":-72.26448},{"zip":"03449","name":"Hancock","pending_pct":0.4444,"pending":4,"active":4,"total":9,"new":2,"median_price":544700,"ppsf":295,"dom":28,"pop":1838,"lat":42.98222,"lng":-72.00037},{"zip":"03450","name":"Harrisville","pending_pct":null,"pending":null,"active":4,"total":4,"new":0,"median_price":734000,"ppsf":457,"dom":44,"pop":885,"lat":42.94157,"lng":-72.09107},{"zip":"03451","name":"Hinsdale","pending_pct":0.5882,"pending":10,"active":7,"total":17,"new":4,"median_price":423450,"ppsf":221,"dom":40,"pop":3997,"lat":42.80907,"lng":-72.50029},{"zip":"03452","name":"Jaffrey","pending_pct":0.3333,"pending":9,"active":18,"total":27,"new":2,"median_price":697250,"ppsf":272,"dom":49,"pop":5448,"lat":42.82922,"lng":-72.05962},{"zip":"03455","name":"Marlborough","pending_pct":0.4286,"pending":3,"active":6,"total":7,"new":4,"median_price":399250,"ppsf":183,"dom":33,"pop":2242,"lat":42.89816,"lng":-72.18308},{"zip":"03456","name":"Marlow","pending_pct":0.5,"pending":2,"active":2,"total":4,"new":2,"median_price":458700,"ppsf":206,"dom":25,"pop":855,"lat":43.13092,"lng":-72.21505},{"zip":"03457","name":"Nelson","pending_pct":0.2,"pending":1,"active":3,"total":5,"new":0,"median_price":738500,"ppsf":483,"dom":27,"pop":802,"lat":43.00282,"lng":-72.12933},{"zip":"03458","name":"Peterborough","pending_pct":0.4545,"pending":30,"active":37,"total":66,"new":10,"median_price":689500,"ppsf":303,"dom":59,"pop":6872,"lat":42.86906,"lng":-71.93797},{"zip":"03461","name":"Rindge","pending_pct":0.4839,"pending":15,"active":17,"total":31,"new":14,"median_price":794450,"ppsf":334,"dom":41,"pop":6497,"lat":42.75234,"lng":-72.01071},{"zip":"03462","name":"Spofford","pending_pct":0.5,"pending":5,"active":5,"total":10,"new":0,"median_price":888000,"ppsf":279,"dom":46,"pop":1726,"lat":42.8949,"lng":-72.40507},{"zip":"03464","name":"Stoddard","pending_pct":0.2667,"pending":4,"active":11,"total":15,"new":8,"median_price":502500,"ppsf":309,"dom":30,"pop":902,"lat":43.08256,"lng":-72.11085},{"zip":"03465","name":"Troy","pending_pct":0.5,"pending":4,"active":4,"total":8,"new":2,"median_price":394500,"ppsf":211,"dom":46,"pop":2005,"lat":42.82677,"lng":-72.18988},{"zip":"03466","name":"West Chesterfield","pending_pct":0.3333,"pending":2,"active":4,"total":6,"new":4,"median_price":457000,"ppsf":259,"dom":129,"pop":1315,"lat":42.89525,"lng":-72.50964},{"zip":"03467","name":"Westmoreland","pending_pct":0.5,"pending":4,"active":4,"total":8,"new":4,"median_price":599450,"ppsf":203,"dom":35,"pop":2237,"lat":42.96894,"lng":-72.43203},{"zip":"03470","name":"Winchester","pending_pct":0.5238,"pending":11,"active":12,"total":21,"new":6,"median_price":487425,"ppsf":295,"dom":33,"pop":4933,"lat":42.77869,"lng":-72.34413},{"zip":"03561","name":"Littleton","pending_pct":0.3214,"pending":9,"active":19,"total":28,"new":8,"median_price":371225,"ppsf":230,"dom":42,"pop":6040,"lat":44.33222,"lng":-71.80973},{"zip":"03570","name":"Berlin","pending_pct":0.2877,"pending":21,"active":52,"total":73,"new":24,"median_price":185725,"ppsf":133,"dom":71,"pop":9383,"lat":44.49953,"lng":-71.20396},{"zip":"03574","name":"Bethlehem","pending_pct":0.3,"pending":6,"active":13,"total":20,"new":10,"median_price":577500,"ppsf":195,"dom":46,"pop":2573,"lat":44.25386,"lng":-71.59924},{"zip":"03575","name":"Bretton Woods","pending_pct":0.75,"pending":3,"active":1,"total":4,"new":2,"median_price":859000,"ppsf":336,"dom":268,"pop":11,"lat":44.28946,"lng":-71.41722},{"zip":"03576","name":"Colebrook","pending_pct":0.2083,"pending":10,"active":39,"total":48,"new":14,"median_price":328675,"ppsf":174,"dom":33,"pop":2764,"lat":44.89839,"lng":-71.37178},{"zip":"03579","name":"Errol","pending_pct":0.2,"pending":3,"active":12,"total":15,"new":4,"median_price":506000,"ppsf":374,"dom":57,"pop":431,"lat":44.95234,"lng":-71.04182},{"zip":"03580","name":"Franconia","pending_pct":0.3,"pending":3,"active":8,"total":10,"new":2,"median_price":695000,"ppsf":332,"dom":39,"pop":1402,"lat":44.17347,"lng":-71.69519},{"zip":"03581","name":"Gorham","pending_pct":0.1786,"pending":5,"active":23,"total":28,"new":14,"median_price":369750,"ppsf":226,"dom":29,"pop":3246,"lat":44.34227,"lng":-71.13413},{"zip":"03582","name":"Groveton","pending_pct":0.5556,"pending":10,"active":8,"total":18,"new":8,"median_price":379725,"ppsf":198,"dom":19,"pop":1949,"lat":44.59777,"lng":-71.43703},{"zip":"03583","name":"Jefferson","pending_pct":0.1818,"pending":2,"active":10,"total":11,"new":4,"median_price":668500,"ppsf":236,"dom":65,"pop":1013,"lat":44.40148,"lng":-71.4583},{"zip":"03584","name":"Lancaster","pending_pct":0.3684,"pending":7,"active":14,"total":19,"new":6,"median_price":341000,"ppsf":150,"dom":30,"pop":3501,"lat":44.48696,"lng":-71.54278},{"zip":"03585","name":"Lisbon","pending_pct":0.3571,"pending":5,"active":9,"total":14,"new":4,"median_price":337500,"ppsf":199,"dom":36,"pop":2456,"lat":44.22538,"lng":-71.89703},{"zip":"03586","name":"Sugar Hill","pending_pct":null,"pending":null,"active":7,"total":7,"new":2,"median_price":865000,"ppsf":286,"dom":45,"pop":658,"lat":44.22058,"lng":-71.7963},{"zip":"03588","name":"Milan","pending_pct":0.375,"pending":6,"active":10,"total":16,"new":4,"median_price":399000,"ppsf":236,"dom":75,"pop":1633,"lat":44.60545,"lng":-71.23204},{"zip":"03590","name":"North Stratford","pending_pct":0.1,"pending":1,"active":8,"total":10,"new":0,"median_price":256063,"ppsf":217,"dom":54,"pop":1297,"lat":44.74195,"lng":-71.51485},{"zip":"03592","name":"Pittsburg","pending_pct":0.25,"pending":6,"active":19,"total":24,"new":6,"median_price":394950,"ppsf":262,"dom":51,"pop":1054,"lat":45.1128,"lng":-71.25493},{"zip":"03593","name":"Randolph","pending_pct":0.5,"pending":1,"active":1,"total":2,"new":0,"median_price":375000,"ppsf":177,"dom":207,"pop":465,"lat":44.29816,"lng":-71.31774},{"zip":"03595","name":"Twin Mountain","pending_pct":0.5,"pending":1,"active":2,"total":2,"new":0,"median_price":910300,"ppsf":301,"dom":61,"pop":648,"lat":44.30616,"lng":-71.527},{"zip":"03597","name":"West Stewartstown","pending_pct":null,"pending":null,"active":5,"total":5,"new":0,"median_price":255000,"ppsf":137,"dom":29,"pop":527,"lat":44.73439,"lng":-71.38243},{"zip":"03598","name":"Whitefield","pending_pct":0.4167,"pending":5,"active":8,"total":12,"new":4,"median_price":353725,"ppsf":308,"dom":24,"pop":3396,"lat":44.37998,"lng":-71.63179},{"zip":"03601","name":"Acworth","pending_pct":0.5,"pending":2,"active":3,"total":4,"new":2,"median_price":429500,"ppsf":334,"dom":65,"pop":382,"lat":43.23933,"lng":-72.29855},{"zip":"03602","name":"Alstead","pending_pct":0.3333,"pending":5,"active":10,"total":15,"new":2,"median_price":569500,"ppsf":257,"dom":58,"pop":2381,"lat":43.13751,"lng":-72.32938},{"zip":"03603","name":"Charlestown","pending_pct":0.25,"pending":5,"active":14,"total":20,"new":4,"median_price":478250,"ppsf":193,"dom":46,"pop":5238,"lat":43.25339,"lng":-72.38059},{"zip":"03605","name":"Lempster","pending_pct":0.5714,"pending":4,"active":4,"total":7,"new":0,"median_price":459675,"ppsf":314,"dom":37,"pop":907,"lat":43.22815,"lng":-72.18032},{"zip":"03607","name":"South Acworth","pending_pct":1.0,"pending":1,"active":1,"total":1,"new":0,"median_price":387500,"ppsf":328,"dom":27,"pop":368,"lat":43.19698,"lng":-72.26084},{"zip":"03608","name":"Walpole","pending_pct":0.1111,"pending":1,"active":8,"total":9,"new":2,"median_price":850000,"ppsf":258,"dom":154,"pop":3167,"lat":43.07128,"lng":-72.40604},{"zip":"03609","name":"North Walpole","pending_pct":1.0,"pending":1,"active":1,"total":1,"new":0,"median_price":250000,"ppsf":99,"dom":3,"pop":523,"lat":43.1441,"lng":-72.44512},{"zip":"03740","name":"Bath","pending_pct":null,"pending":null,"active":4,"total":4,"new":2,"median_price":595500,"ppsf":339,"dom":46,"pop":1097,"lat":44.18025,"lng":-71.98626},{"zip":"03741","name":"Canaan","pending_pct":0.2857,"pending":6,"active":14,"total":21,"new":6,"median_price":518725,"ppsf":297,"dom":56,"pop":4131,"lat":43.67134,"lng":-72.01559},{"zip":"03743","name":"Claremont","pending_pct":0.4054,"pending":15,"active":22,"total":37,"new":18,"median_price":331250,"ppsf":170,"dom":25,"pop":13704,"lat":43.36026,"lng":-72.32489},{"zip":"03745","name":"Cornish","pending_pct":0.4,"pending":2,"active":3,"total":5,"new":4,"median_price":856250,"ppsf":283,"dom":17,"pop":1816,"lat":43.47407,"lng":-72.32001},{"zip":"03748","name":"Enfield","pending_pct":0.381,"pending":8,"active":14,"total":21,"new":6,"median_price":707000,"ppsf":347,"dom":32,"pop":4563,"lat":43.60207,"lng":-72.11713},{"zip":"03750","name":"Etna","pending_pct":0.5,"pending":3,"active":4,"total":6,"new":4,"median_price":1332500,"ppsf":526,"dom":17,"pop":1116,"lat":43.70681,"lng":-72.19308},{"zip":"03751","name":"Georges Mills","pending_pct":1.0,"pending":1,"active":0,"total":1,"new":0,"median_price":485000,"ppsf":225,"dom":75,"pop":397,"lat":43.44363,"lng":-72.08394},{"zip":"03752","name":"Goshen","pending_pct":0.5,"pending":3,"active":2,"total":6,"new":2,"median_price":501600,"ppsf":324,"dom":50,"pop":1042,"lat":43.28909,"lng":-72.11489},{"zip":"03753","name":"Grantham","pending_pct":0.4595,"pending":17,"active":21,"total":37,"new":10,"median_price":532270,"ppsf":278,"dom":36,"pop":3509,"lat":43.51534,"lng":-72.14798},{"zip":"03755","name":"Hanover","pending_pct":0.3235,"pending":11,"active":23,"total":34,"new":16,"median_price":1262250,"ppsf":451,"dom":42,"pop":10569,"lat":43.72377,"lng":-72.19563},{"zip":"03765","name":"Haverhill","pending_pct":0.2,"pending":1,"active":4,"total":5,"new":0,"median_price":462000,"ppsf":150,"dom":69,"pop":513,"lat":44.03452,"lng":-72.05231},{"zip":"03766","name":"Lebanon","pending_pct":0.5385,"pending":21,"active":17,"total":39,"new":10,"median_price":475500,"ppsf":265,"dom":25,"pop":11195,"lat":43.63491,"lng":-72.23819},{"zip":"03768","name":"Lyme","pending_pct":0.3333,"pending":3,"active":6,"total":9,"new":0,"median_price":995000,"ppsf":289,"dom":117,"pop":1710,"lat":43.80529,"lng":-72.11573},{"zip":"03770","name":"Meriden","pending_pct":null,"pending":null,"active":1,"total":1,"new":0,"median_price":399999,"ppsf":228,"dom":50,"pop":604,"lat":43.5336,"lng":-72.26469},{"zip":"03771","name":"Monroe","pending_pct":0.6,"pending":3,"active":3,"total":5,"new":2,"median_price":375000,"ppsf":293,"dom":17,"pop":786,"lat":44.28443,"lng":-72.0098},{"zip":"03773","name":"Newport","pending_pct":0.5,"pending":19,"active":20,"total":38,"new":20,"median_price":396000,"ppsf":229,"dom":30,"pop":7681,"lat":43.38484,"lng":-72.19898},{"zip":"03774","name":"North Haverhill","pending_pct":0.25,"pending":3,"active":10,"total":12,"new":0,"median_price":370000,"ppsf":208,"dom":49,"pop":1420,"lat":44.09097,"lng":-71.9947},{"zip":"03777","name":"Orford","pending_pct":0.625,"pending":5,"active":3,"total":8,"new":0,"median_price":449000,"ppsf":404,"dom":77,"pop":1295,"lat":43.89548,"lng":-72.06672},{"zip":"03779","name":"Piermont","pending_pct":0.3333,"pending":2,"active":5,"total":6,"new":0,"median_price":495000,"ppsf":205,"dom":54,"pop":868,"lat":43.97477,"lng":-72.03089},{"zip":"03780","name":"Pike","pending_pct":0.5,"pending":1,"active":1,"total":2,"new":0,"median_price":225000,"ppsf":134,"dom":209,"pop":1071,"lat":44.03169,"lng":-71.97142},{"zip":"03781","name":"Plainfield","pending_pct":1.0,"pending":5,"active":1,"total":5,"new":0,"median_price":457450,"ppsf":238,"dom":45,"pop":1918,"lat":43.5526,"lng":-72.28399},{"zip":"03782","name":"Sunapee","pending_pct":0.3667,"pending":11,"active":18,"total":30,"new":12,"median_price":1175000,"ppsf":680,"dom":30,"pop":3122,"lat":43.38962,"lng":-72.09149},{"zip":"03784","name":"West Lebanon","pending_pct":0.5263,"pending":10,"active":9,"total":19,"new":8,"median_price":600500,"ppsf":241,"dom":41,"pop":3804,"lat":43.63675,"lng":-72.30608},{"zip":"03785","name":"Woodsville","pending_pct":0.3333,"pending":7,"active":14,"total":21,"new":4,"median_price":327500,"ppsf":199,"dom":53,"pop":2018,"lat":44.06525,"lng":-71.87017},{"zip":"03801","name":"Portsmouth","pending_pct":0.331,"pending":48,"active":97,"total":145,"new":66,"median_price":847225,"ppsf":646,"dom":46,"pop":23484,"lat":43.07293,"lng":-70.8052},{"zip":"03809","name":"Alton","pending_pct":0.2963,"pending":8,"active":20,"total":27,"new":10,"median_price":829000,"ppsf":352,"dom":37,"pop":3680,"lat":43.45321,"lng":-71.21184},{"zip":"03810","name":"Alton Bay","pending_pct":0.32,"pending":8,"active":17,"total":25,"new":10,"median_price":1299000,"ppsf":586,"dom":42,"pop":2314,"lat":43.52692,"lng":-71.27941},{"zip":"03811","name":"Atkinson","pending_pct":0.4634,"pending":19,"active":23,"total":41,"new":12,"median_price":707566,"ppsf":378,"dom":33,"pop":7267,"lat":42.83693,"lng":-71.16042},{"zip":"03812","name":"Bartlett","pending_pct":0.3043,"pending":14,"active":33,"total":46,"new":16,"median_price":434500,"ppsf":299,"dom":37,"pop":1116,"lat":44.08148,"lng":-71.29643},{"zip":"03813","name":"Center Conway","pending_pct":0.4,"pending":8,"active":13,"total":20,"new":8,"median_price":442450,"ppsf":269,"dom":30,"pop":4273,"lat":44.09408,"lng":-71.04573},{"zip":"03814","name":"Center Ossipee","pending_pct":0.3043,"pending":7,"active":16,"total":23,"new":4,"median_price":639975,"ppsf":363,"dom":40,"pop":2324,"lat":43.77341,"lng":-71.18717},{"zip":"03816","name":"Center Tuftonboro","pending_pct":0.3077,"pending":8,"active":18,"total":26,"new":6,"median_price":758750,"ppsf":418,"dom":65,"pop":1538,"lat":43.69753,"lng":-71.24218},{"zip":"03817","name":"Chocorua","pending_pct":0.5,"pending":3,"active":4,"total":6,"new":2,"median_price":975000,"ppsf":331,"dom":40,"pop":1066,"lat":43.8885,"lng":-71.23358},{"zip":"03818","name":"Conway","pending_pct":0.3667,"pending":11,"active":19,"total":30,"new":8,"median_price":458500,"ppsf":301,"dom":38,"pop":3805,"lat":43.97302,"lng":-71.25261},{"zip":"03819","name":"Danville","pending_pct":0.5556,"pending":5,"active":5,"total":9,"new":4,"median_price":864900,"ppsf":306,"dom":42,"pop":4471,"lat":42.93012,"lng":-71.12197},{"zip":"03820","name":"Dover","pending_pct":0.402,"pending":41,"active":61,"total":102,"new":46,"median_price":737250,"ppsf":374,"dom":36,"pop":33440,"lat":43.18933,"lng":-70.88428},{"zip":"03823","name":"Madbury","pending_pct":0.5556,"pending":5,"active":3,"total":9,"new":4,"median_price":699900,"ppsf":272,"dom":23,"pop":2203,"lat":43.17488,"lng":-70.94089},{"zip":"03824","name":"Durham","pending_pct":0.5357,"pending":15,"active":13,"total":28,"new":12,"median_price":775000,"ppsf":382,"dom":18,"pop":15080,"lat":43.11744,"lng":-70.91937},{"zip":"03825","name":"Barrington","pending_pct":0.4098,"pending":25,"active":37,"total":61,"new":16,"median_price":737400,"ppsf":340,"dom":46,"pop":9489,"lat":43.21366,"lng":-71.04227},{"zip":"03826","name":"East Hampstead","pending_pct":0.6,"pending":6,"active":3,"total":10,"new":2,"median_price":686225,"ppsf":262,"dom":29,"pop":2654,"lat":42.88878,"lng":-71.12881},{"zip":"03827","name":"East Kingston","pending_pct":0.5,"pending":4,"active":5,"total":8,"new":6,"median_price":624475,"ppsf":278,"dom":35,"pop":3279,"lat":42.90691,"lng":-70.98774},{"zip":"03830","name":"East Wakefield","pending_pct":0.2667,"pending":8,"active":21,"total":30,"new":12,"median_price":585500,"ppsf":373,"dom":32,"pop":1381,"lat":43.63549,"lng":-70.99568},{"zip":"03832","name":"","pending_pct":1.0,"pending":1,"active":1,"total":1,"new":0,"median_price":509000,"ppsf":336,"dom":3,"pop":501,"lat":43.90249,"lng":-71.04859},{"zip":"03833","name":"Exeter","pending_pct":0.534,"pending":55,"active":50,"total":103,"new":36,"median_price":884675,"ppsf":386,"dom":42,"pop":22817,"lat":42.97464,"lng":-70.98885},{"zip":"03835","name":"Farmington","pending_pct":0.5185,"pending":14,"active":12,"total":27,"new":6,"median_price":479450,"ppsf":284,"dom":22,"pop":6804,"lat":43.36319,"lng":-71.07605},{"zip":"03836","name":"Freedom","pending_pct":0.3333,"pending":5,"active":10,"total":15,"new":6,"median_price":497250,"ppsf":338,"dom":39,"pop":1494,"lat":43.82608,"lng":-71.07118},{"zip":"03837","name":"Gilmanton Iron Works","pending_pct":0.5,"pending":4,"active":4,"total":8,"new":2,"median_price":580725,"ppsf":282,"dom":48,"pop":1451,"lat":43.42271,"lng":-71.32766},{"zip":"03838","name":"Glen","pending_pct":0.3,"pending":3,"active":8,"total":10,"new":6,"median_price":403700,"ppsf":314,"dom":44,"pop":983,"lat":44.11257,"lng":-71.24036},{"zip":"03839","name":"Rochester","pending_pct":0.55,"pending":11,"active":8,"total":20,"new":8,"median_price":450421,"ppsf":268,"dom":21,"pop":4279,"lat":43.26256,"lng":-70.98254},{"zip":"03840","name":"Greenland","pending_pct":0.55,"pending":22,"active":18,"total":40,"new":10,"median_price":1103731,"ppsf":522,"dom":55,"pop":4106,"lat":43.03853,"lng":-70.84803},{"zip":"03841","name":"Hampstead","pending_pct":0.3684,"pending":7,"active":13,"total":19,"new":10,"median_price":597063,"ppsf":314,"dom":25,"pop":6508,"lat":42.88148,"lng":-71.17856},{"zip":"03842","name":"Hampton","pending_pct":0.3663,"pending":37,"active":65,"total":101,"new":46,"median_price":647250,"ppsf":477,"dom":36,"pop":16324,"lat":42.93941,"lng":-70.83697},{"zip":"03844","name":"Hampton Falls","pending_pct":0.4167,"pending":5,"active":8,"total":12,"new":2,"median_price":1250000,"ppsf":329,"dom":40,"pop":2370,"lat":42.92693,"lng":-70.88603},{"zip":"03845","name":"Intervale","pending_pct":0.3,"pending":3,"active":8,"total":10,"new":4,"median_price":1075000,"ppsf":370,"dom":26,"pop":1173,"lat":44.10317,"lng":-71.1271},{"zip":"03846","name":"Jackson","pending_pct":0.1667,"pending":2,"active":10,"total":12,"new":0,"median_price":974925,"ppsf":395,"dom":44,"pop":897,"lat":44.18445,"lng":-71.18899},{"zip":"03848","name":"Kingston","pending_pct":0.6,"pending":15,"active":9,"total":25,"new":6,"median_price":612000,"ppsf":303,"dom":42,"pop":6275,"lat":42.91562,"lng":-71.06647},{"zip":"03849","name":"Madison","pending_pct":0.2857,"pending":6,"active":15,"total":21,"new":4,"median_price":583500,"ppsf":310,"dom":39,"pop":1465,"lat":43.89454,"lng":-71.13101},{"zip":"03850","name":"","pending_pct":1.0,"pending":3,"active":2,"total":3,"new":0,"median_price":684450,"ppsf":407,"dom":32,"pop":324,"lat":43.69739,"lng":-71.29983},{"zip":"03851","name":"Milton","pending_pct":0.4737,"pending":9,"active":10,"total":19,"new":6,"median_price":663500,"ppsf":360,"dom":36,"pop":4333,"lat":43.43606,"lng":-71.01633},{"zip":"03852","name":"Milton Mills","pending_pct":1.0,"pending":1,"active":1,"total":1,"new":2,"median_price":421200,"ppsf":240,"dom":18,"pop":205,"lat":43.4982,"lng":-70.97547},{"zip":"03853","name":"Mirror Lake","pending_pct":0.25,"pending":1,"active":3,"total":4,"new":0,"median_price":1900000,"ppsf":756,"dom":88,"pop":656,"lat":43.63818,"lng":-71.29371},{"zip":"03854","name":"New Castle","pending_pct":0.2857,"pending":2,"active":5,"total":7,"new":4,"median_price":2900000,"ppsf":819,"dom":27,"pop":827,"lat":43.06558,"lng":-70.72003},{"zip":"03855","name":"New Durham","pending_pct":0.4138,"pending":12,"active":17,"total":29,"new":6,"median_price":807000,"ppsf":578,"dom":55,"pop":2748,"lat":43.46343,"lng":-71.14172},{"zip":"03856","name":"Newfields","pending_pct":0.5556,"pending":5,"active":4,"total":9,"new":0,"median_price":1393725,"ppsf":345,"dom":38,"pop":2023,"lat":43.03916,"lng":-70.96627},{"zip":"03857","name":"Newmarket","pending_pct":0.3793,"pending":11,"active":17,"total":29,"new":14,"median_price":692400,"ppsf":320,"dom":38,"pop":9463,"lat":43.0691,"lng":-70.95164},{"zip":"03858","name":"Newton","pending_pct":0.5556,"pending":5,"active":4,"total":9,"new":6,"median_price":648700,"ppsf":355,"dom":38,"pop":4836,"lat":42.86839,"lng":-71.04357},{"zip":"03860","name":"North Conway","pending_pct":0.2308,"pending":12,"active":40,"total":52,"new":10,"median_price":739500,"ppsf":312,"dom":63,"pop":3693,"lat":44.0427,"lng":-71.12422},{"zip":"03861","name":"Lee","pending_pct":0.6364,"pending":7,"active":3,"total":11,"new":8,"median_price":759700,"ppsf":288,"dom":19,"pop":4576,"lat":43.11931,"lng":-71.0068},{"zip":"03862","name":"North Hampton","pending_pct":0.4211,"pending":8,"active":11,"total":19,"new":8,"median_price":1299900,"ppsf":458,"dom":18,"pop":4610,"lat":42.97914,"lng":-70.83025},{"zip":"03864","name":"Ossipee","pending_pct":0.2,"pending":3,"active":12,"total":15,"new":6,"median_price":437500,"ppsf":246,"dom":22,"pop":2131,"lat":43.69044,"lng":-71.10631},{"zip":"03865","name":"Plaistow","pending_pct":0.6897,"pending":20,"active":9,"total":29,"new":12,"median_price":662225,"ppsf":304,"dom":18,"pop":7861,"lat":42.84032,"lng":-71.09603},{"zip":"03867","name":"Rochester","pending_pct":0.6618,"pending":45,"active":22,"total":68,"new":26,"median_price":387175,"ppsf":259,"dom":35,"pop":22732,"lat":43.3031,"lng":-70.98891},{"zip":"03868","name":"Rochester","pending_pct":0.6,"pending":15,"active":10,"total":25,"new":16,"median_price":614675,"ppsf":265,"dom":64,"pop":6133,"lat":43.31879,"lng":-70.9415},{"zip":"03869","name":"Rollinsford","pending_pct":0.6667,"pending":4,"active":3,"total":6,"new":6,"median_price":687450,"ppsf":338,"dom":6,"pop":2456,"lat":43.22092,"lng":-70.83995},{"zip":"03870","name":"Rye","pending_pct":0.4792,"pending":23,"active":25,"total":48,"new":18,"median_price":1724000,"ppsf":838,"dom":53,"pop":5188,"lat":43.0157,"lng":-70.76052},{"zip":"03872","name":"Sanbornville","pending_pct":0.4516,"pending":14,"active":18,"total":31,"new":8,"median_price":641000,"ppsf":292,"dom":38,"pop":4438,"lat":43.57225,"lng":-71.04249},{"zip":"03873","name":"Sandown","pending_pct":0.4524,"pending":19,"active":24,"total":42,"new":12,"median_price":699900,"ppsf":337,"dom":31,"pop":6628,"lat":42.93321,"lng":-71.1833},{"zip":"03874","name":"Seabrook","pending_pct":0.4444,"pending":8,"active":11,"total":18,"new":4,"median_price":819950,"ppsf":407,"dom":42,"pop":8487,"lat":42.88689,"lng":-70.8607},{"zip":"03875","name":"Silver Lake","pending_pct":0.1429,"pending":1,"active":6,"total":7,"new":4,"median_price":612725,"ppsf":379,"dom":17,"pop":1005,"lat":43.89944,"lng":-71.18636},{"zip":"03878","name":"Somersworth","pending_pct":0.5,"pending":14,"active":14,"total":28,"new":18,"median_price":557500,"ppsf":265,"dom":18,"pop":12205,"lat":43.25335,"lng":-70.88555},{"zip":"03882","name":"Effingham","pending_pct":0.2143,"pending":3,"active":11,"total":14,"new":4,"median_price":511725,"ppsf":347,"dom":31,"pop":1912,"lat":43.74727,"lng":-71.04254},{"zip":"03883","name":"South Tamworth","pending_pct":0.1429,"pending":1,"active":7,"total":7,"new":0,"median_price":813725,"ppsf":431,"dom":41,"pop":233,"lat":43.81252,"lng":-71.30789},{"zip":"03884","name":"Strafford","pending_pct":0.6,"pending":6,"active":5,"total":10,"new":6,"median_price":564900,"ppsf":305,"dom":14,"pop":4306,"lat":43.28018,"lng":-71.14885},{"zip":"03885","name":"Stratham","pending_pct":0.7021,"pending":33,"active":13,"total":47,"new":14,"median_price":1140000,"ppsf":338,"dom":23,"pop":7754,"lat":43.01579,"lng":-70.90051},{"zip":"03886","name":"Tamworth","pending_pct":0.1538,"pending":2,"active":11,"total":13,"new":2,"median_price":532675,"ppsf":308,"dom":35,"pop":1618,"lat":43.86399,"lng":-71.28783},{"zip":"03887","name":"Union","pending_pct":0.5385,"pending":7,"active":8,"total":13,"new":8,"median_price":557400,"ppsf":342,"dom":75,"pop":1739,"lat":43.48485,"lng":-71.0662},{"zip":"03894","name":"Wolfeboro","pending_pct":0.2742,"pending":17,"active":45,"total":62,"new":12,"median_price":969999,"ppsf":396,"dom":40,"pop":6554,"lat":43.61109,"lng":-71.17788}]}