{"202605":[{"zip":"03301","name":"Concord","pending_pct":0.5921,"pending":45,"active":30,"total":76,"new":28,"median_price":475000,"ppsf":266,"dom":37,"pop":33995,"lat":43.22423,"lng":-71.54342},{"zip":"03574","name":"Bethlehem","pending_pct":0.0833,"pending":1,"active":11,"total":12,"new":4,"median_price":490000,"ppsf":194,"dom":47,"pop":2573,"lat":44.25386,"lng":-71.59924},{"zip":"03809","name":"Alton","pending_pct":0.25,"pending":5,"active":16,"total":20,"new":12,"median_price":699000,"ppsf":376,"dom":28,"pop":3680,"lat":43.45321,"lng":-71.21184},{"zip":"03036","name":"Chester","pending_pct":0.5667,"pending":17,"active":10,"total":30,"new":8,"median_price":755000,"ppsf":320,"dom":18,"pop":5300,"lat":42.96719,"lng":-71.25083},{"zip":"03743","name":"Claremont","pending_pct":0.5517,"pending":16,"active":14,"total":29,"new":20,"median_price":345000,"ppsf":177,"dom":19,"pop":13704,"lat":43.36026,"lng":-72.32489},{"zip":"03109","name":"Manchester","pending_pct":0.619,"pending":13,"active":8,"total":21,"new":20,"median_price":484900,"ppsf":333,"dom":10,"pop":9929,"lat":42.96594,"lng":-71.40167},{"zip":"03244","name":"Hillsborough","pending_pct":0.5,"pending":18,"active":18,"total":36,"new":20,"median_price":464450,"ppsf":328,"dom":29,"pop":8156,"lat":43.11822,"lng":-71.9192},{"zip":"03037","name":"Deerfield","pending_pct":0.2778,"pending":5,"active":12,"total":18,"new":8,"median_price":825000,"ppsf":324,"dom":30,"pop":4714,"lat":43.1395,"lng":-71.2535},{"zip":"03745","name":"Cornish","pending_pct":0.3333,"pending":1,"active":2,"total":3,"new":0,"median_price":659000,"ppsf":310,"dom":16,"pop":1816,"lat":43.47407,"lng":-72.32001},{"zip":"03887","name":"Union","pending_pct":0.5833,"pending":7,"active":6,"total":12,"new":4,"median_price":579900,"ppsf":359,"dom":59,"pop":1739,"lat":43.48485,"lng":-71.0662},{"zip":"03856","name":"Newfields","pending_pct":0.5,"pending":5,"active":5,"total":10,"new":4,"median_price":1424900,"ppsf":348,"dom":33,"pop":2023,"lat":43.03916,"lng":-70.96627},{"zip":"03264","name":"Plymouth","pending_pct":0.2333,"pending":7,"active":23,"total":30,"new":12,"median_price":427600,"ppsf":238,"dom":42,"pop":6885,"lat":43.72967,"lng":-71.71159},{"zip":"03464","name":"Stoddard","pending_pct":0.5,"pending":6,"active":8,"total":12,"new":8,"median_price":514450,"ppsf":409,"dom":20,"pop":902,"lat":43.08256,"lng":-72.11085},{"zip":"03269","name":"Sanbornton","pending_pct":0.381,"pending":8,"active":12,"total":21,"new":4,"median_price":950000,"ppsf":370,"dom":99,"pop":3066,"lat":43.53,"lng":-71.60219},{"zip":"03884","name":"Strafford","pending_pct":0.6667,"pending":4,"active":1,"total":6,"new":4,"median_price":719900,"ppsf":343,"dom":12,"pop":4306,"lat":43.28018,"lng":-71.14885},{"zip":"03570","name":"Berlin","pending_pct":0.1935,"pending":12,"active":49,"total":62,"new":16,"median_price":189000,"ppsf":136,"dom":104,"pop":9383,"lat":44.49953,"lng":-71.20396},{"zip":"03446","name":"Swanzey","pending_pct":0.4667,"pending":7,"active":9,"total":15,"new":4,"median_price":524900,"ppsf":263,"dom":37,"pop":6588,"lat":42.86163,"lng":-72.29639},{"zip":"03221","name":"Bradford","pending_pct":0.2667,"pending":4,"active":11,"total":15,"new":4,"median_price":694700,"ppsf":294,"dom":37,"pop":2200,"lat":43.25482,"lng":-71.96122},{"zip":"03874","name":"Seabrook","pending_pct":0.4211,"pending":8,"active":10,"total":19,"new":8,"median_price":1014950,"ppsf":511,"dom":23,"pop":8487,"lat":42.88689,"lng":-70.8607},{"zip":"03771","name":"Monroe","pending_pct":0.5,"pending":1,"active":2,"total":2,"new":0,"median_price":382000,"ppsf":293,"dom":64,"pop":786,"lat":44.28443,"lng":-72.0098},{"zip":"03854","name":"New Castle","pending_pct":0.3333,"pending":1,"active":2,"total":3,"new":0,"median_price":3200000,"ppsf":820,"dom":55,"pop":827,"lat":43.06558,"lng":-70.72003},{"zip":"03779","name":"Piermont","pending_pct":0.1667,"pending":1,"active":5,"total":6,"new":4,"median_price":405000,"ppsf":202,"dom":23,"pop":868,"lat":43.97477,"lng":-72.03089},{"zip":"03590","name":"North Stratford","pending_pct":0.2727,"pending":3,"active":8,"total":11,"new":4,"median_price":257900,"ppsf":217,"dom":32,"pop":1297,"lat":44.74195,"lng":-71.51485},{"zip":"03440","name":"Antrim","pending_pct":0.4286,"pending":3,"active":4,"total":7,"new":4,"median_price":550000,"ppsf":325,"dom":24,"pop":2661,"lat":43.06023,"lng":-71.97446},{"zip":"03431","name":"Keene","pending_pct":0.5238,"pending":22,"active":20,"total":42,"new":20,"median_price":422000,"ppsf":251,"dom":37,"pop":25065,"lat":42.96785,"lng":-72.29862},{"zip":"03819","name":"Danville","pending_pct":0.375,"pending":3,"active":5,"total":8,"new":4,"median_price":742450,"ppsf":305,"dom":15,"pop":4471,"lat":42.93012,"lng":-71.12197},{"zip":"03871","name":"Rye Beach","pending_pct":1.0,"pending":2,"active":0,"total":2,"new":0,"median_price":2697000,"ppsf":1001,"dom":147,"pop":356,"lat":42.9807,"lng":-70.77358},{"zip":"03259","name":"North Sandwich","pending_pct":null,"pending":null,"active":1,"total":1,"new":4,"median_price":750000,"ppsf":372,"dom":4,"pop":252,"lat":43.87921,"lng":-71.44527},{"zip":"03243","name":"Hill","pending_pct":null,"pending":null,"active":1,"total":1,"new":2,"median_price":539000,"ppsf":227,"dom":6,"pop":952,"lat":43.5276,"lng":-71.7644},{"zip":"03048","name":"Greenville","pending_pct":0.7143,"pending":5,"active":4,"total":7,"new":8,"median_price":664975,"ppsf":260,"dom":9,"pop":3237,"lat":42.74668,"lng":-71.76268},{"zip":"03279","name":"Warren","pending_pct":0.6667,"pending":2,"active":1,"total":3,"new":0,"median_price":425000,"ppsf":407,"dom":61,"pop":878,"lat":43.94468,"lng":-71.88231},{"zip":"03043","name":"Francestown","pending_pct":0.5,"pending":3,"active":3,"total":6,"new":4,"median_price":724000,"ppsf":248,"dom":29,"pop":1398,"lat":42.99581,"lng":-71.81514},{"zip":"03249","name":"Gilford","pending_pct":0.2963,"pending":16,"active":38,"total":54,"new":24,"median_price":819950,"ppsf":400,"dom":25,"pop":7830,"lat":43.55806,"lng":-71.38505},{"zip":"03253","name":"Meredith","pending_pct":0.2857,"pending":16,"active":43,"total":56,"new":24,"median_price":744000,"ppsf":364,"dom":46,"pop":6707,"lat":43.63193,"lng":-71.49749},{"zip":"03449","name":"Hancock","pending_pct":0.6667,"pending":6,"active":3,"total":9,"new":4,"median_price":669000,"ppsf":339,"dom":16,"pop":1838,"lat":42.98222,"lng":-72.00037},{"zip":"03031","name":"Amherst","pending_pct":0.5,"pending":25,"active":24,"total":50,"new":36,"median_price":749900,"ppsf":363,"dom":26,"pop":11849,"lat":42.87056,"lng":-71.60683},{"zip":"03278","name":"Warner","pending_pct":0.625,"pending":5,"active":3,"total":8,"new":0,"median_price":555000,"ppsf":266,"dom":47,"pop":3079,"lat":43.29313,"lng":-71.82934},{"zip":"03284","name":"Springfield","pending_pct":0.5,"pending":1,"active":1,"total":2,"new":0,"median_price":699000,"ppsf":277,"dom":12,"pop":890,"lat":43.49361,"lng":-72.03057},{"zip":"03223","name":"Campton","pending_pct":0.3111,"pending":14,"active":31,"total":45,"new":16,"median_price":431950,"ppsf":273,"dom":44,"pop":3441,"lat":43.84784,"lng":-71.67597},{"zip":"03227","name":"Center Sandwich","pending_pct":0.4,"pending":2,"active":3,"total":5,"new":0,"median_price":667500,"ppsf":396,"dom":43,"pop":1388,"lat":43.81419,"lng":-71.45712},{"zip":"03812","name":"Bartlett","pending_pct":0.3953,"pending":17,"active":24,"total":43,"new":16,"median_price":425000,"ppsf":319,"dom":42,"pop":1116,"lat":44.08148,"lng":-71.29643},{"zip":"03285","name":"Thornton","pending_pct":0.2564,"pending":10,"active":28,"total":39,"new":12,"median_price":799000,"ppsf":350,"dom":51,"pop":2799,"lat":43.92408,"lng":-71.64359},{"zip":"03038","name":"Derry","pending_pct":0.6531,"pending":64,"active":30,"total":98,"new":44,"median_price":592500,"ppsf":314,"dom":30,"pop":34474,"lat":42.88867,"lng":-71.27932},{"zip":"03254","name":"Moultonborough","pending_pct":0.1818,"pending":8,"active":35,"total":44,"new":16,"median_price":1475000,"ppsf":613,"dom":30,"pop":5172,"lat":43.72505,"lng":-71.37782},{"zip":"03883","name":"South Tamworth","pending_pct":null,"pending":null,"active":6,"total":6,"new":0,"median_price":729000,"ppsf":384,"dom":16,"pop":233,"lat":43.81252,"lng":-71.30789},{"zip":"03602","name":"Alstead","pending_pct":0.3333,"pending":4,"active":8,"total":12,"new":0,"median_price":750000,"ppsf":255,"dom":64,"pop":2381,"lat":43.13751,"lng":-72.32938},{"zip":"03046","name":"Dunbarton","pending_pct":0.4286,"pending":3,"active":3,"total":7,"new":4,"median_price":699500,"ppsf":225,"dom":51,"pop":3097,"lat":43.10178,"lng":-71.60548},{"zip":"03442","name":"Bennington","pending_pct":0.2857,"pending":2,"active":5,"total":7,"new":4,"median_price":439000,"ppsf":338,"dom":20,"pop":1588,"lat":43.01268,"lng":-71.90781},{"zip":"03603","name":"Charlestown","pending_pct":0.3333,"pending":5,"active":11,"total":15,"new":8,"median_price":429000,"ppsf":196,"dom":39,"pop":5238,"lat":43.25339,"lng":-72.38059},{"zip":"03224","name":"Canterbury","pending_pct":0.5556,"pending":5,"active":4,"total":9,"new":4,"median_price":626950,"ppsf":324,"dom":4,"pop":2392,"lat":43.35171,"lng":-71.54691},{"zip":"03582","name":"Groveton","pending_pct":0.5,"pending":4,"active":5,"total":8,"new":4,"median_price":307450,"ppsf":183,"dom":51,"pop":1949,"lat":44.59777,"lng":-71.43703},{"zip":"03448","name":"Gilsum","pending_pct":1.0,"pending":2,"active":2,"total":2,"new":0,"median_price":549998,"ppsf":188,"dom":205,"pop":716,"lat":43.03996,"lng":-72.26448},{"zip":"03576","name":"Colebrook","pending_pct":0.1875,"pending":6,"active":26,"total":32,"new":16,"median_price":299000,"ppsf":168,"dom":60,"pop":2764,"lat":44.89839,"lng":-71.37178},{"zip":"03842","name":"Hampton","pending_pct":0.4505,"pending":41,"active":49,"total":91,"new":44,"median_price":589000,"ppsf":470,"dom":36,"pop":16324,"lat":42.93941,"lng":-70.83697},{"zip":"03447","name":"Fitzwilliam","pending_pct":0.4286,"pending":6,"active":6,"total":14,"new":4,"median_price":268250,"ppsf":168,"dom":18,"pop":2278,"lat":42.7592,"lng":-72.14794},{"zip":"03258","name":"Chichester","pending_pct":0.625,"pending":5,"active":3,"total":8,"new":4,"median_price":602500,"ppsf":275,"dom":24,"pop":2721,"lat":43.25744,"lng":-71.39956},{"zip":"03307","name":"Loudon","pending_pct":0.4286,"pending":6,"active":7,"total":14,"new":4,"median_price":686500,"ppsf":280,"dom":94,"pop":5724,"lat":43.32257,"lng":-71.44265},{"zip":"03752","name":"Goshen","pending_pct":0.6667,"pending":2,"active":2,"total":3,"new":0,"median_price":582000,"ppsf":431,"dom":21,"pop":1042,"lat":43.28909,"lng":-72.11489},{"zip":"03585","name":"Lisbon","pending_pct":0.2727,"pending":3,"active":7,"total":11,"new":4,"median_price":337500,"ppsf":205,"dom":123,"pop":2456,"lat":44.22538,"lng":-71.89703},{"zip":"03276","name":"Tilton","pending_pct":0.4103,"pending":16,"active":22,"total":39,"new":12,"median_price":442450,"ppsf":315,"dom":38,"pop":9015,"lat":43.42783,"lng":-71.57514},{"zip":"03443","name":"Chesterfield","pending_pct":0.5,"pending":1,"active":1,"total":2,"new":4,"median_price":499500,"ppsf":292,"dom":5,"pop":581,"lat":42.8767,"lng":-72.46148},{"zip":"03852","name":"Milton Mills","pending_pct":1.0,"pending":1,"active":1,"total":1,"new":0,"median_price":385000,"ppsf":219,"dom":26,"pop":205,"lat":43.4982,"lng":-70.97547},{"zip":"03441","name":"Ashuelot","pending_pct":null,"pending":null,"active":1,"total":1,"new":0,"median_price":319000,"ppsf":177,"dom":24,"pop":593,"lat":42.77737,"lng":-72.44263},{"zip":"03848","name":"Kingston","pending_pct":0.5,"pending":11,"active":7,"total":22,"new":12,"median_price":649900,"ppsf":283,"dom":30,"pop":6275,"lat":42.91562,"lng":-71.06647},{"zip":"03451","name":"Hinsdale","pending_pct":0.4667,"pending":7,"active":8,"total":15,"new":4,"median_price":406250,"ppsf":242,"dom":21,"pop":3997,"lat":42.80907,"lng":-72.50029},{"zip":"03580","name":"Franconia","pending_pct":0.5,"pending":4,"active":6,"total":8,"new":4,"median_price":747000,"ppsf":301,"dom":36,"pop":1402,"lat":44.17347,"lng":-71.69519},{"zip":"03858","name":"Newton","pending_pct":0.6429,"pending":9,"active":4,"total":14,"new":4,"median_price":629900,"ppsf":342,"dom":15,"pop":4836,"lat":42.86839,"lng":-71.04357},{"zip":"03087","name":"Windham","pending_pct":0.5211,"pending":37,"active":29,"total":71,"new":28,"median_price":862500,"ppsf":355,"dom":23,"pop":16038,"lat":42.80758,"lng":-71.29945},{"zip":"03872","name":"Sanbornville","pending_pct":0.1818,"pending":4,"active":18,"total":22,"new":12,"median_price":599000,"ppsf":288,"dom":24,"pop":4438,"lat":43.57225,"lng":-71.04249},{"zip":"03263","name":"Pittsfield","pending_pct":0.5,"pending":8,"active":7,"total":16,"new":8,"median_price":722000,"ppsf":252,"dom":22,"pop":4105,"lat":43.29483,"lng":-71.31133},{"zip":"03216","name":"Andover","pending_pct":0.5,"pending":3,"active":3,"total":6,"new":4,"median_price":799900,"ppsf":247,"dom":176,"pop":2046,"lat":43.44656,"lng":-71.79374},{"zip":"03255","name":"Newbury","pending_pct":0.3333,"pending":7,"active":14,"total":21,"new":16,"median_price":774900,"ppsf":518,"dom":17,"pop":2015,"lat":43.3149,"lng":-72.02795},{"zip":"03826","name":"East Hampstead","pending_pct":0.5,"pending":6,"active":5,"total":12,"new":8,"median_price":625000,"ppsf":249,"dom":10,"pop":2654,"lat":42.88878,"lng":-71.12881},{"zip":"03110","name":"Bedford","pending_pct":0.5694,"pending":41,"active":31,"total":72,"new":40,"median_price":1044850,"ppsf":341,"dom":25,"pop":23746,"lat":42.94065,"lng":-71.53023},{"zip":"03862","name":"North Hampton","pending_pct":0.4286,"pending":6,"active":7,"total":14,"new":8,"median_price":1150000,"ppsf":372,"dom":22,"pop":4610,"lat":42.97914,"lng":-70.83025},{"zip":"03765","name":"Haverhill","pending_pct":null,"pending":null,"active":5,"total":5,"new":0,"median_price":425000,"ppsf":138,"dom":31,"pop":513,"lat":44.03452,"lng":-72.05231},{"zip":"03051","name":"Hudson","pending_pct":0.6875,"pending":44,"active":20,"total":64,"new":44,"median_price":599900,"ppsf":306,"dom":25,"pop":25557,"lat":42.76394,"lng":-71.40716},{"zip":"03741","name":"Canaan","pending_pct":0.2632,"pending":5,"active":13,"total":19,"new":8,"median_price":489900,"ppsf":318,"dom":47,"pop":4131,"lat":43.67134,"lng":-72.01559},{"zip":"03273","name":"South Sutton","pending_pct":0.5,"pending":1,"active":1,"total":2,"new":0,"median_price":769000,"ppsf":320,"dom":49,"pop":361,"lat":43.30337,"lng":-71.92413},{"zip":"03467","name":"Westmoreland","pending_pct":0.4,"pending":2,"active":3,"total":5,"new":0,"median_price":624450,"ppsf":184,"dom":36,"pop":2237,"lat":42.96894,"lng":-72.43203},{"zip":"03077","name":"Raymond","pending_pct":0.58,"pending":29,"active":19,"total":50,"new":12,"median_price":605000,"ppsf":322,"dom":37,"pop":10900,"lat":43.03219,"lng":-71.19945},{"zip":"03875","name":"Silver Lake","pending_pct":0.3333,"pending":1,"active":2,"total":3,"new":0,"median_price":1060000,"ppsf":529,"dom":47,"pop":1005,"lat":43.89944,"lng":-71.18636},{"zip":"03246","name":"Laconia","pending_pct":0.2577,"pending":42,"active":120,"total":163,"new":64,"median_price":639475,"ppsf":357,"dom":47,"pop":17103,"lat":43.57239,"lng":-71.4775},{"zip":"03878","name":"Somersworth","pending_pct":0.6,"pending":15,"active":10,"total":25,"new":12,"median_price":512000,"ppsf":260,"dom":26,"pop":12205,"lat":43.25335,"lng":-70.88555},{"zip":"03044","name":"Fremont","pending_pct":0.875,"pending":14,"active":2,"total":16,"new":8,"median_price":667000,"ppsf":323,"dom":37,"pop":4831,"lat":42.98899,"lng":-71.12494},{"zip":"03063","name":"Nashua","pending_pct":0.7037,"pending":19,"active":9,"total":27,"new":16,"median_price":509900,"ppsf":309,"dom":24,"pop":15805,"lat":42.7795,"lng":-71.51939},{"zip":"03748","name":"Enfield","pending_pct":0.4211,"pending":8,"active":11,"total":19,"new":8,"median_price":670000,"ppsf":306,"dom":46,"pop":4563,"lat":43.60207,"lng":-72.11713},{"zip":"03281","name":"Weare","pending_pct":0.4516,"pending":14,"active":16,"total":31,"new":20,"median_price":499900,"ppsf":241,"dom":19,"pop":9170,"lat":43.08126,"lng":-71.72189},{"zip":"03833","name":"Exeter","pending_pct":0.5263,"pending":50,"active":45,"total":95,"new":40,"median_price":844700,"ppsf":409,"dom":38,"pop":22817,"lat":42.97464,"lng":-70.98885},{"zip":"03060","name":"Nashua","pending_pct":0.7037,"pending":19,"active":8,"total":27,"new":12,"median_price":449900,"ppsf":308,"dom":32,"pop":31657,"lat":42.74135,"lng":-71.45936},{"zip":"03593","name":"Randolph","pending_pct":0.5,"pending":1,"active":1,"total":2,"new":0,"median_price":299000,"ppsf":210,"dom":199,"pop":465,"lat":44.29816,"lng":-71.31774},{"zip":"03462","name":"Spofford","pending_pct":0.6667,"pending":4,"active":4,"total":6,"new":4,"median_price":785000,"ppsf":474,"dom":13,"pop":1726,"lat":42.8949,"lng":-72.40507},{"zip":"03450","name":"Harrisville","pending_pct":0.1667,"pending":1,"active":4,"total":6,"new":4,"median_price":599000,"ppsf":498,"dom":25,"pop":885,"lat":42.94157,"lng":-72.09107},{"zip":"03102","name":"Manchester","pending_pct":0.6512,"pending":28,"active":15,"total":43,"new":28,"median_price":441950,"ppsf":299,"dom":19,"pop":33959,"lat":43.00797,"lng":-71.49134},{"zip":"03076","name":"Pelham","pending_pct":0.5556,"pending":20,"active":16,"total":36,"new":20,"median_price":869500,"ppsf":322,"dom":15,"pop":14449,"lat":42.73354,"lng":-71.324},{"zip":"03857","name":"Newmarket","pending_pct":0.44,"pending":11,"active":14,"total":25,"new":8,"median_price":614900,"ppsf":331,"dom":38,"pop":9463,"lat":43.0691,"lng":-70.95164},{"zip":"03042","name":"Epping","pending_pct":0.4595,"pending":17,"active":19,"total":37,"new":12,"median_price":624227,"ppsf":358,"dom":50,"pop":7430,"lat":43.05009,"lng":-71.07467},{"zip":"03853","name":"Mirror Lake","pending_pct":0.2,"pending":1,"active":5,"total":5,"new":0,"median_price":1900000,"ppsf":756,"dom":44,"pop":656,"lat":43.63818,"lng":-71.29371},{"zip":"03235","name":"Franklin","pending_pct":0.4706,"pending":16,"active":21,"total":34,"new":20,"median_price":439450,"ppsf":314,"dom":44,"pop":8903,"lat":43.44831,"lng":-71.67208},{"zip":"03873","name":"Sandown","pending_pct":0.4857,"pending":17,"active":20,"total":35,"new":16,"median_price":689000,"ppsf":337,"dom":31,"pop":6628,"lat":42.93321,"lng":-71.1833},{"zip":"03592","name":"Pittsburg","pending_pct":0.1667,"pending":3,"active":15,"total":18,"new":4,"median_price":395000,"ppsf":246,"dom":55,"pop":1054,"lat":45.1128,"lng":-71.25493},{"zip":"03280","name":"Washington","pending_pct":0.3333,"pending":4,"active":8,"total":12,"new":4,"median_price":587000,"ppsf":298,"dom":25,"pop":1224,"lat":43.18339,"lng":-72.08979},{"zip":"03261","name":"Northwood","pending_pct":0.5,"pending":16,"active":14,"total":32,"new":8,"median_price":594900,"ppsf":337,"dom":39,"pop":4688,"lat":43.21322,"lng":-71.20966},{"zip":"03458","name":"Peterborough","pending_pct":0.5072,"pending":35,"active":34,"total":69,"new":16,"median_price":612000,"ppsf":296,"dom":51,"pop":6872,"lat":42.86906,"lng":-71.93797},{"zip":"03782","name":"Sunapee","pending_pct":0.4545,"pending":10,"active":12,"total":22,"new":8,"median_price":899000,"ppsf":425,"dom":37,"pop":3122,"lat":43.38962,"lng":-72.09149},{"zip":"03766","name":"Lebanon","pending_pct":0.4286,"pending":12,"active":16,"total":28,"new":12,"median_price":599000,"ppsf":283,"dom":30,"pop":11195,"lat":43.63491,"lng":-72.23819},{"zip":"03106","name":"Hooksett","pending_pct":0.5897,"pending":23,"active":17,"total":39,"new":16,"median_price":595000,"ppsf":292,"dom":26,"pop":15032,"lat":43.07097,"lng":-71.43651},{"zip":"03860","name":"North Conway","pending_pct":0.3,"pending":15,"active":35,"total":50,"new":20,"median_price":750000,"ppsf":318,"dom":56,"pop":3693,"lat":44.0427,"lng":-71.12422},{"zip":"03598","name":"Whitefield","pending_pct":0.5556,"pending":5,"active":5,"total":9,"new":8,"median_price":395000,"ppsf":200,"dom":50,"pop":3396,"lat":44.37998,"lng":-71.63179},{"zip":"03583","name":"Jefferson","pending_pct":0.1667,"pending":1,"active":6,"total":6,"new":0,"median_price":1092450,"ppsf":272,"dom":264,"pop":1013,"lat":44.40148,"lng":-71.4583},{"zip":"03034","name":"Candia","pending_pct":0.625,"pending":10,"active":6,"total":16,"new":8,"median_price":604999,"ppsf":335,"dom":45,"pop":4352,"lat":43.06269,"lng":-71.31106},{"zip":"03070","name":"New Boston","pending_pct":0.6,"pending":12,"active":7,"total":20,"new":8,"median_price":789000,"ppsf":277,"dom":29,"pop":6177,"lat":42.97702,"lng":-71.68664},{"zip":"03844","name":"Hampton Falls","pending_pct":0.4545,"pending":5,"active":7,"total":11,"new":4,"median_price":1299000,"ppsf":384,"dom":19,"pop":2370,"lat":42.92693,"lng":-70.88603},{"zip":"03086","name":"Wilton","pending_pct":0.5833,"pending":7,"active":4,"total":12,"new":4,"median_price":598900,"ppsf":298,"dom":28,"pop":4258,"lat":42.82741,"lng":-71.76967},{"zip":"03810","name":"Alton Bay","pending_pct":0.3333,"pending":9,"active":17,"total":27,"new":8,"median_price":870000,"ppsf":480,"dom":22,"pop":2314,"lat":43.52692,"lng":-71.27941},{"zip":"03275","name":"Suncook","pending_pct":0.5,"pending":22,"active":21,"total":44,"new":8,"median_price":575000,"ppsf":304,"dom":40,"pop":12205,"lat":43.15999,"lng":-71.41794},{"zip":"03230","name":"Danbury","pending_pct":0.6667,"pending":2,"active":1,"total":3,"new":0,"median_price":626725,"ppsf":310,"dom":46,"pop":1451,"lat":43.52685,"lng":-71.8622},{"zip":"03785","name":"Woodsville","pending_pct":0.3889,"pending":7,"active":12,"total":18,"new":4,"median_price":357500,"ppsf":203,"dom":31,"pop":2018,"lat":44.06525,"lng":-71.87017},{"zip":"03287","name":"Wilmot","pending_pct":0.6667,"pending":2,"active":2,"total":3,"new":4,"median_price":699000,"ppsf":393,"dom":9,"pop":1487,"lat":43.45168,"lng":-71.91795},{"zip":"03894","name":"Wolfeboro","pending_pct":0.2979,"pending":14,"active":34,"total":47,"new":16,"median_price":799900,"ppsf":396,"dom":29,"pop":6554,"lat":43.61109,"lng":-71.17788},{"zip":"03465","name":"Troy","pending_pct":0.3333,"pending":2,"active":5,"total":6,"new":0,"median_price":399900,"ppsf":253,"dom":45,"pop":2005,"lat":42.82677,"lng":-72.18988},{"zip":"03303","name":"Concord","pending_pct":0.55,"pending":33,"active":26,"total":60,"new":24,"median_price":472500,"ppsf":274,"dom":35,"pop":16571,"lat":43.29819,"lng":-71.67186},{"zip":"03818","name":"Conway","pending_pct":0.3043,"pending":7,"active":16,"total":23,"new":12,"median_price":429900,"ppsf":285,"dom":20,"pop":3805,"lat":43.97302,"lng":-71.25261},{"zip":"03215","name":"Waterville Valley","pending_pct":0.2258,"pending":7,"active":22,"total":31,"new":0,"median_price":59900,"ppsf":36,"dom":156,"pop":290,"lat":44.03605,"lng":-71.48109},{"zip":"03817","name":"Chocorua","pending_pct":0.2,"pending":1,"active":4,"total":5,"new":4,"median_price":975000,"ppsf":331,"dom":19,"pop":1066,"lat":43.8885,"lng":-71.23358},{"zip":"03813","name":"Center Conway","pending_pct":0.2308,"pending":3,"active":9,"total":13,"new":4,"median_price":472000,"ppsf":269,"dom":26,"pop":4273,"lat":44.09408,"lng":-71.04573},{"zip":"03740","name":"Bath","pending_pct":0.3333,"pending":1,"active":2,"total":3,"new":0,"median_price":372000,"ppsf":260,"dom":75,"pop":1097,"lat":44.18025,"lng":-71.98626},{"zip":"03053","name":"Londonderry","pending_pct":0.6977,"pending":60,"active":27,"total":86,"new":40,"median_price":692450,"ppsf":316,"dom":23,"pop":26327,"lat":42.87927,"lng":-71.38702},{"zip":"03222","name":"Bristol","pending_pct":0.4138,"pending":12,"active":16,"total":29,"new":12,"median_price":479900,"ppsf":292,"dom":44,"pop":6097,"lat":43.62895,"lng":-71.78234},{"zip":"03601","name":"Acworth","pending_pct":0.5,"pending":1,"active":1,"total":2,"new":0,"median_price":449000,"ppsf":322,"dom":200,"pop":382,"lat":43.23933,"lng":-72.29855},{"zip":"03750","name":"Etna","pending_pct":0.75,"pending":3,"active":1,"total":4,"new":0,"median_price":1175000,"ppsf":428,"dom":7,"pop":1116,"lat":43.70681,"lng":-72.19308},{"zip":"03032","name":"Auburn","pending_pct":0.7619,"pending":16,"active":5,"total":21,"new":8,"median_price":827900,"ppsf":369,"dom":79,"pop":6119,"lat":42.99063,"lng":-71.34383},{"zip":"03047","name":"Greenfield","pending_pct":0.5,"pending":3,"active":3,"total":6,"new":0,"median_price":574900,"ppsf":382,"dom":39,"pop":1730,"lat":42.94029,"lng":-71.87053},{"zip":"03229","name":"Contoocook","pending_pct":0.5652,"pending":13,"active":11,"total":23,"new":16,"median_price":975000,"ppsf":311,"dom":23,"pop":6046,"lat":43.19792,"lng":-71.69677},{"zip":"03304","name":"Bow","pending_pct":0.6071,"pending":17,"active":11,"total":28,"new":12,"median_price":699000,"ppsf":262,"dom":32,"pop":8335,"lat":43.13078,"lng":-71.53066},{"zip":"03827","name":"East Kingston","pending_pct":0.5,"pending":4,"active":4,"total":8,"new":0,"median_price":792000,"ppsf":283,"dom":52,"pop":3279,"lat":42.90691,"lng":-70.98774},{"zip":"03584","name":"Lancaster","pending_pct":0.4286,"pending":6,"active":8,"total":14,"new":8,"median_price":347000,"ppsf":168,"dom":28,"pop":3501,"lat":44.48696,"lng":-71.54278},{"zip":"03256","name":"New Hampton","pending_pct":0.125,"pending":1,"active":7,"total":8,"new":4,"median_price":799000,"ppsf":296,"dom":43,"pop":2497,"lat":43.62425,"lng":-71.63514},{"zip":"03071","name":"New Ipswich","pending_pct":0.35,"pending":7,"active":12,"total":20,"new":8,"median_price":517000,"ppsf":289,"dom":22,"pop":5310,"lat":42.74892,"lng":-71.8747},{"zip":"03755","name":"Hanover","pending_pct":0.3793,"pending":11,"active":17,"total":29,"new":8,"median_price":982000,"ppsf":442,"dom":40,"pop":10569,"lat":43.72377,"lng":-72.19563},{"zip":"03575","name":"Bretton Woods","pending_pct":0.5,"pending":2,"active":2,"total":4,"new":0,"median_price":859000,"ppsf":343,"dom":194,"pop":11,"lat":44.28946,"lng":-71.41722},{"zip":"03262","name":"North Woodstock","pending_pct":0.25,"pending":4,"active":14,"total":16,"new":4,"median_price":410000,"ppsf":301,"dom":67,"pop":1142,"lat":43.99885,"lng":-71.73813},{"zip":"03867","name":"Rochester","pending_pct":0.6613,"pending":41,"active":21,"total":62,"new":40,"median_price":395000,"ppsf":264,"dom":27,"pop":22732,"lat":43.3031,"lng":-70.98891},{"zip":"03886","name":"Tamworth","pending_pct":0.2,"pending":2,"active":8,"total":10,"new":8,"median_price":547900,"ppsf":308,"dom":29,"pop":1618,"lat":43.86399,"lng":-71.28783},{"zip":"03811","name":"Atkinson","pending_pct":0.5,"pending":17,"active":18,"total":34,"new":16,"median_price":715092,"ppsf":424,"dom":20,"pop":7267,"lat":42.83693,"lng":-71.16042},{"zip":"03841","name":"Hampstead","pending_pct":0.5,"pending":9,"active":10,"total":18,"new":8,"median_price":599000,"ppsf":322,"dom":26,"pop":6508,"lat":42.88148,"lng":-71.17856},{"zip":"03104","name":"Manchester","pending_pct":0.5714,"pending":44,"active":34,"total":77,"new":40,"median_price":540000,"ppsf":282,"dom":26,"pop":35237,"lat":43.00926,"lng":-71.4411},{"zip":"03773","name":"Newport","pending_pct":0.5,"pending":16,"active":15,"total":32,"new":12,"median_price":450000,"ppsf":235,"dom":30,"pop":7681,"lat":43.38484,"lng":-72.19898},{"zip":"03801","name":"Portsmouth","pending_pct":0.3197,"pending":39,"active":85,"total":122,"new":40,"median_price":799450,"ppsf":648,"dom":38,"pop":23484,"lat":43.07293,"lng":-70.8052},{"zip":"03245","name":"Holderness","pending_pct":0.2,"pending":4,"active":16,"total":20,"new":12,"median_price":352500,"ppsf":397,"dom":29,"pop":1917,"lat":43.75026,"lng":-71.58852},{"zip":"03885","name":"Stratham","pending_pct":0.6,"pending":24,"active":14,"total":40,"new":16,"median_price":837450,"ppsf":379,"dom":17,"pop":7754,"lat":43.01579,"lng":-70.90051},{"zip":"03268","name":"Salisbury","pending_pct":0.5,"pending":3,"active":3,"total":6,"new":0,"median_price":769000,"ppsf":314,"dom":72,"pop":1468,"lat":43.38505,"lng":-71.7574},{"zip":"03838","name":"Glen","pending_pct":0.2,"pending":1,"active":5,"total":5,"new":0,"median_price":289000,"ppsf":274,"dom":55,"pop":983,"lat":44.11257,"lng":-71.24036},{"zip":"03777","name":"Orford","pending_pct":0.5714,"pending":4,"active":4,"total":7,"new":0,"median_price":449000,"ppsf":362,"dom":59,"pop":1295,"lat":43.89548,"lng":-72.06672},{"zip":"03282","name":"Wentworth","pending_pct":0.2857,"pending":2,"active":4,"total":7,"new":4,"median_price":449000,"ppsf":229,"dom":21,"pop":1052,"lat":43.86006,"lng":-71.9295},{"zip":"03851","name":"Milton","pending_pct":0.4545,"pending":5,"active":7,"total":11,"new":12,"median_price":669000,"ppsf":328,"dom":28,"pop":4333,"lat":43.43606,"lng":-71.01633},{"zip":"03062","name":"Nashua","pending_pct":0.6667,"pending":54,"active":29,"total":81,"new":36,"median_price":599450,"ppsf":311,"dom":33,"pop":29441,"lat":42.72212,"lng":-71.49556},{"zip":"03466","name":"West Chesterfield","pending_pct":0.6667,"pending":2,"active":3,"total":3,"new":0,"median_price":529000,"ppsf":343,"dom":182,"pop":1315,"lat":42.89525,"lng":-72.50964},{"zip":"03588","name":"Milan","pending_pct":0.2667,"pending":4,"active":12,"total":15,"new":0,"median_price":425000,"ppsf":246,"dom":59,"pop":1633,"lat":44.60545,"lng":-71.23204},{"zip":"03586","name":"Sugar Hill","pending_pct":0.1429,"pending":1,"active":6,"total":7,"new":0,"median_price":856500,"ppsf":290,"dom":28,"pop":658,"lat":44.22058,"lng":-71.7963},{"zip":"03101","name":"Manchester","pending_pct":0.4,"pending":2,"active":4,"total":5,"new":0,"median_price":410000,"ppsf":269,"dom":51,"pop":3201,"lat":42.98881,"lng":-71.4659},{"zip":"03064","name":"Nashua","pending_pct":0.5854,"pending":24,"active":18,"total":41,"new":20,"median_price":683000,"ppsf":317,"dom":41,"pop":14391,"lat":42.77886,"lng":-71.47466},{"zip":"03225","name":"Center Barnstead","pending_pct":0.5312,"pending":17,"active":16,"total":32,"new":16,"median_price":549900,"ppsf":325,"dom":43,"pop":3834,"lat":43.36001,"lng":-71.23828},{"zip":"03882","name":"Effingham","pending_pct":0.2727,"pending":3,"active":8,"total":11,"new":8,"median_price":499000,"ppsf":347,"dom":24,"pop":1912,"lat":43.74727,"lng":-71.04254},{"zip":"03839","name":"Rochester","pending_pct":0.6875,"pending":11,"active":5,"total":16,"new":8,"median_price":427400,"ppsf":251,"dom":15,"pop":4279,"lat":43.26256,"lng":-70.98254},{"zip":"03045","name":"Goffstown","pending_pct":0.4865,"pending":18,"active":18,"total":37,"new":28,"median_price":540750,"ppsf":294,"dom":14,"pop":14080,"lat":43.01994,"lng":-71.57035},{"zip":"03455","name":"Marlborough","pending_pct":0.4444,"pending":4,"active":5,"total":9,"new":0,"median_price":375000,"ppsf":169,"dom":56,"pop":2242,"lat":42.89816,"lng":-72.18308},{"zip":"03864","name":"Ossipee","pending_pct":0.5,"pending":4,"active":4,"total":8,"new":4,"median_price":549900,"ppsf":279,"dom":17,"pop":2131,"lat":43.69044,"lng":-71.10631},{"zip":"03452","name":"Jaffrey","pending_pct":0.4074,"pending":11,"active":16,"total":27,"new":12,"median_price":672500,"ppsf":302,"dom":43,"pop":5448,"lat":42.82922,"lng":-72.05962},{"zip":"03595","name":"Twin Mountain","pending_pct":0.5,"pending":1,"active":1,"total":2,"new":0,"median_price":1095600,"ppsf":233,"dom":82,"pop":648,"lat":44.30616,"lng":-71.527},{"zip":"03242","name":"Henniker","pending_pct":0.4286,"pending":3,"active":4,"total":7,"new":4,"median_price":572450,"ppsf":253,"dom":45,"pop":6197,"lat":43.17365,"lng":-71.8224},{"zip":"03103","name":"Manchester","pending_pct":0.6719,"pending":43,"active":19,"total":64,"new":32,"median_price":420000,"ppsf":328,"dom":36,"pop":37775,"lat":42.95536,"lng":-71.44463},{"zip":"03825","name":"Barrington","pending_pct":0.4565,"pending":21,"active":27,"total":46,"new":16,"median_price":699450,"ppsf":346,"dom":44,"pop":9489,"lat":43.21366,"lng":-71.04227},{"zip":"03057","name":"Mont Vernon","pending_pct":0.7778,"pending":7,"active":3,"total":9,"new":4,"median_price":767000,"ppsf":273,"dom":53,"pop":2709,"lat":42.90265,"lng":-71.6861},{"zip":"03608","name":"Walpole","pending_pct":0.3333,"pending":3,"active":6,"total":9,"new":4,"median_price":899900,"ppsf":243,"dom":178,"pop":3167,"lat":43.07128,"lng":-72.40604},{"zip":"03837","name":"Gilmanton Iron Works","pending_pct":0.2857,"pending":2,"active":6,"total":7,"new":4,"median_price":599500,"ppsf":253,"dom":34,"pop":1451,"lat":43.42271,"lng":-71.32766},{"zip":"03816","name":"Center Tuftonboro","pending_pct":0.2222,"pending":4,"active":14,"total":18,"new":8,"median_price":712000,"ppsf":410,"dom":43,"pop":1538,"lat":43.69753,"lng":-71.24218},{"zip":"03241","name":"Hebron","pending_pct":0.3333,"pending":3,"active":6,"total":9,"new":4,"median_price":612500,"ppsf":304,"dom":32,"pop":1150,"lat":43.71149,"lng":-71.81915},{"zip":"03581","name":"Gorham","pending_pct":0.2105,"pending":4,"active":15,"total":19,"new":4,"median_price":340000,"ppsf":202,"dom":36,"pop":3246,"lat":44.34227,"lng":-71.13413},{"zip":"03840","name":"Greenland","pending_pct":0.5278,"pending":19,"active":17,"total":36,"new":8,"median_price":1159000,"ppsf":548,"dom":37,"pop":4106,"lat":43.03853,"lng":-70.84803},{"zip":"03780","name":"Pike","pending_pct":0.5,"pending":1,"active":2,"total":2,"new":0,"median_price":247500,"ppsf":134,"dom":114,"pop":1071,"lat":44.03169,"lng":-71.97142},{"zip":"03218","name":"Barnstead","pending_pct":0.7143,"pending":5,"active":3,"total":7,"new":4,"median_price":659900,"ppsf":355,"dom":20,"pop":1160,"lat":43.33465,"lng":-71.28803},{"zip":"03470","name":"Winchester","pending_pct":0.2941,"pending":5,"active":11,"total":17,"new":8,"median_price":459900,"ppsf":267,"dom":22,"pop":4933,"lat":42.77869,"lng":-72.34413},{"zip":"03052","name":"Litchfield","pending_pct":0.5278,"pending":19,"active":16,"total":36,"new":12,"median_price":529000,"ppsf":352,"dom":23,"pop":8499,"lat":42.84302,"lng":-71.455},{"zip":"03770","name":"Meriden","pending_pct":1.0,"pending":1,"active":1,"total":1,"new":0,"median_price":417500,"ppsf":238,"dom":11,"pop":604,"lat":43.5336,"lng":-72.26469},{"zip":"03456","name":"Marlow","pending_pct":0.4,"pending":2,"active":2,"total":5,"new":0,"median_price":399900,"ppsf":273,"dom":29,"pop":855,"lat":43.13092,"lng":-72.21505},{"zip":"03774","name":"North Haverhill","pending_pct":0.1111,"pending":1,"active":8,"total":9,"new":4,"median_price":407000,"ppsf":216,"dom":31,"pop":1420,"lat":44.09097,"lng":-71.9947},{"zip":"03607","name":"South Acworth","pending_pct":1.0,"pending":1,"active":1,"total":1,"new":0,"median_price":350000,"ppsf":251,"dom":35,"pop":368,"lat":43.19698,"lng":-72.26084},{"zip":"03561","name":"Littleton","pending_pct":0.3333,"pending":7,"active":15,"total":21,"new":12,"median_price":387000,"ppsf":200,"dom":46,"pop":6040,"lat":44.33222,"lng":-71.80973},{"zip":"03266","name":"Rumney","pending_pct":0.625,"pending":5,"active":3,"total":8,"new":0,"median_price":619450,"ppsf":233,"dom":69,"pop":2130,"lat":43.79407,"lng":-71.89035},{"zip":"03846","name":"Jackson","pending_pct":0.4167,"pending":5,"active":8,"total":12,"new":0,"median_price":967450,"ppsf":396,"dom":35,"pop":897,"lat":44.18445,"lng":-71.18899},{"zip":"03217","name":"Ashland","pending_pct":0.4167,"pending":5,"active":7,"total":12,"new":8,"median_price":447000,"ppsf":275,"dom":13,"pop":2183,"lat":43.71492,"lng":-71.63033},{"zip":"03768","name":"Lyme","pending_pct":0.2727,"pending":3,"active":8,"total":11,"new":0,"median_price":1199000,"ppsf":341,"dom":107,"pop":1710,"lat":43.80529,"lng":-72.11573},{"zip":"03605","name":"Lempster","pending_pct":0.5,"pending":2,"active":2,"total":4,"new":4,"median_price":372450,"ppsf":447,"dom":17,"pop":907,"lat":43.22815,"lng":-72.18032},{"zip":"03869","name":"Rollinsford","pending_pct":0.6667,"pending":2,"active":1,"total":3,"new":0,"median_price":464900,"ppsf":363,"dom":20,"pop":2456,"lat":43.22092,"lng":-70.83995},{"zip":"03868","name":"Rochester","pending_pct":0.6316,"pending":12,"active":7,"total":19,"new":0,"median_price":632400,"ppsf":265,"dom":51,"pop":6133,"lat":43.31879,"lng":-70.9415},{"zip":"03084","name":"Temple","pending_pct":0.5,"pending":1,"active":1,"total":2,"new":0,"median_price":517400,"ppsf":259,"dom":21,"pop":1363,"lat":42.82856,"lng":-71.85495},{"zip":"03461","name":"Rindge","pending_pct":0.3913,"pending":9,"active":15,"total":23,"new":12,"median_price":699900,"ppsf":335,"dom":50,"pop":6497,"lat":42.75234,"lng":-72.01071},{"zip":"03579","name":"Errol","pending_pct":0.1818,"pending":2,"active":8,"total":11,"new":4,"median_price":460450,"ppsf":346,"dom":181,"pop":431,"lat":44.95234,"lng":-71.04182},{"zip":"03814","name":"Center Ossipee","pending_pct":0.1579,"pending":3,"active":15,"total":19,"new":8,"median_price":585000,"ppsf":342,"dom":31,"pop":2324,"lat":43.77341,"lng":-71.18717},{"zip":"03865","name":"Plaistow","pending_pct":0.6364,"pending":14,"active":8,"total":22,"new":8,"median_price":699900,"ppsf":371,"dom":29,"pop":7861,"lat":42.84032,"lng":-71.09603},{"zip":"03240","name":"Grafton","pending_pct":0.2727,"pending":3,"active":8,"total":11,"new":4,"median_price":299500,"ppsf":217,"dom":21,"pop":1354,"lat":43.57599,"lng":-71.97221},{"zip":"03784","name":"West Lebanon","pending_pct":0.5263,"pending":10,"active":9,"total":19,"new":4,"median_price":612450,"ppsf":289,"dom":50,"pop":3804,"lat":43.63675,"lng":-72.30608},{"zip":"03257","name":"New London","pending_pct":0.3529,"pending":6,"active":11,"total":17,"new":12,"median_price":819000,"ppsf":369,"dom":17,"pop":4484,"lat":43.41768,"lng":-71.99101},{"zip":"03870","name":"Rye","pending_pct":0.5217,"pending":24,"active":24,"total":46,"new":8,"median_price":1624500,"ppsf":799,"dom":39,"pop":5188,"lat":43.0157,"lng":-70.76052},{"zip":"03835","name":"Farmington","pending_pct":0.4444,"pending":8,"active":10,"total":18,"new":8,"median_price":449900,"ppsf":272,"dom":11,"pop":6804,"lat":43.36319,"lng":-71.07605},{"zip":"03033","name":"Brookline","pending_pct":0.55,"pending":11,"active":7,"total":20,"new":16,"median_price":799999,"ppsf":241,"dom":24,"pop":5736,"lat":42.74643,"lng":-71.67054},{"zip":"03251","name":"Lincoln","pending_pct":0.2308,"pending":24,"active":81,"total":104,"new":20,"median_price":389000,"ppsf":377,"dom":86,"pop":1461,"lat":44.0796,"lng":-71.65276},{"zip":"03855","name":"New Durham","pending_pct":0.3333,"pending":8,"active":17,"total":24,"new":12,"median_price":805000,"ppsf":558,"dom":30,"pop":2748,"lat":43.46343,"lng":-71.14172},{"zip":"03781","name":"Plainfield","pending_pct":0.3333,"pending":1,"active":2,"total":3,"new":0,"median_price":910750,"ppsf":287,"dom":29,"pop":1918,"lat":43.5526,"lng":-72.28399},{"zip":"03849","name":"Madison","pending_pct":0.2353,"pending":4,"active":13,"total":17,"new":8,"median_price":549900,"ppsf":331,"dom":35,"pop":1465,"lat":43.89454,"lng":-71.13101},{"zip":"03845","name":"Intervale","pending_pct":0.5,"pending":3,"active":4,"total":6,"new":4,"median_price":1200000,"ppsf":401,"dom":118,"pop":1173,"lat":44.10317,"lng":-71.1271},{"zip":"03830","name":"East Wakefield","pending_pct":0.375,"pending":9,"active":14,"total":24,"new":12,"median_price":650000,"ppsf":393,"dom":19,"pop":1381,"lat":43.63549,"lng":-70.99568},{"zip":"03444","name":"Dublin","pending_pct":0.7143,"pending":5,"active":2,"total":7,"new":4,"median_price":3897450,"ppsf":373,"dom":133,"pop":1666,"lat":42.89403,"lng":-72.07178},{"zip":"03055","name":"Milford","pending_pct":0.619,"pending":26,"active":18,"total":42,"new":24,"median_price":577450,"ppsf":267,"dom":34,"pop":16337,"lat":42.81783,"lng":-71.67361},{"zip":"03597","name":"West Stewartstown","pending_pct":0.5,"pending":1,"active":1,"total":2,"new":4,"median_price":60000,"ppsf":139,"dom":10,"pop":527,"lat":44.73439,"lng":-71.38243},{"zip":"03823","name":"Madbury","pending_pct":0.6667,"pending":4,"active":2,"total":6,"new":4,"median_price":749900,"ppsf":293,"dom":12,"pop":2203,"lat":43.17488,"lng":-70.94089},{"zip":"03457","name":"Nelson","pending_pct":0.25,"pending":1,"active":3,"total":4,"new":0,"median_price":1864500,"ppsf":516,"dom":185,"pop":802,"lat":43.00282,"lng":-72.12933},{"zip":"03234","name":"Epsom","pending_pct":0.4211,"pending":8,"active":9,"total":19,"new":12,"median_price":719900,"ppsf":271,"dom":24,"pop":4939,"lat":43.21484,"lng":-71.33914},{"zip":"03861","name":"Lee","pending_pct":0.6667,"pending":6,"active":3,"total":9,"new":4,"median_price":694500,"ppsf":297,"dom":31,"pop":4576,"lat":43.11931,"lng":-71.0068},{"zip":"03049","name":"Hollis","pending_pct":0.4444,"pending":12,"active":14,"total":27,"new":8,"median_price":962500,"ppsf":314,"dom":40,"pop":8603,"lat":42.7494,"lng":-71.58338},{"zip":"03082","name":"Lyndeborough","pending_pct":0.5,"pending":1,"active":2,"total":2,"new":0,"median_price":789450,"ppsf":400,"dom":11,"pop":1531,"lat":42.90197,"lng":-71.77545},{"zip":"03054","name":"Merrimack","pending_pct":0.6265,"pending":52,"active":30,"total":83,"new":40,"median_price":567498,"ppsf":267,"dom":23,"pop":28176,"lat":42.85471,"lng":-71.51878},{"zip":"03220","name":"Belmont","pending_pct":0.3902,"pending":16,"active":25,"total":41,"new":12,"median_price":685000,"ppsf":338,"dom":41,"pop":7393,"lat":43.46793,"lng":-71.4758},{"zip":"03753","name":"Grantham","pending_pct":0.4828,"pending":14,"active":15,"total":29,"new":16,"median_price":650000,"ppsf":290,"dom":40,"pop":3509,"lat":43.51534,"lng":-72.14798},{"zip":"03820","name":"Dover","pending_pct":0.5155,"pending":50,"active":46,"total":97,"new":32,"median_price":712000,"ppsf":381,"dom":34,"pop":33440,"lat":43.18933,"lng":-70.88428},{"zip":"03824","name":"Durham","pending_pct":0.3889,"pending":7,"active":11,"total":18,"new":12,"median_price":845000,"ppsf":333,"dom":18,"pop":15080,"lat":43.11744,"lng":-70.91937},{"zip":"03290","name":"Nottingham","pending_pct":0.5667,"pending":17,"active":12,"total":30,"new":8,"median_price":805000,"ppsf":406,"dom":23,"pop":5357,"lat":43.12391,"lng":-71.12089},{"zip":"03079","name":"Salem","pending_pct":0.5385,"pending":42,"active":37,"total":78,"new":44,"median_price":687000,"ppsf":364,"dom":23,"pop":30964,"lat":42.79023,"lng":-71.22024},{"zip":"03836","name":"Freedom","pending_pct":0.4444,"pending":4,"active":6,"total":9,"new":4,"median_price":473500,"ppsf":344,"dom":29,"pop":1494,"lat":43.82608,"lng":-71.07118},{"zip":"03260","name":"North Sutton","pending_pct":0.5,"pending":1,"active":1,"total":2,"new":4,"median_price":949500,"ppsf":443,"dom":3,"pop":976,"lat":43.36016,"lng":-71.92457},{"zip":"03226","name":"Center Harbor","pending_pct":0.3333,"pending":4,"active":8,"total":12,"new":4,"median_price":799000,"ppsf":290,"dom":33,"pop":1005,"lat":43.70259,"lng":-71.51086},{"zip":"03237","name":"Gilmanton","pending_pct":0.1667,"pending":2,"active":11,"total":12,"new":8,"median_price":603900,"ppsf":340,"dom":20,"pop":2575,"lat":43.42997,"lng":-71.38233},{"zip":"03890","name":"West Ossipee","pending_pct":null,"pending":null,"active":1,"total":1,"new":0,"median_price":104900,"ppsf":105,"dom":8,"pop":164,"lat":43.81528,"lng":-71.20581}]}