{"202605":[{"zip":"75757","name":"Bullard","pending_pct":0.2,"pending":45,"active":181,"total":225,"new":36,"median_price":495000,"ppsf":204,"dom":53,"pop":14328,"lat":32.11584,"lng":-95.34933},{"zip":"75442","name":"Farmersville","pending_pct":0.4126,"pending":59,"active":84,"total":143,"new":44,"median_price":404950,"ppsf":191,"dom":72,"pop":10805,"lat":33.17717,"lng":-96.35035},{"zip":"78052","name":"Lytle","pending_pct":0.3594,"pending":23,"active":39,"total":64,"new":8,"median_price":311950,"ppsf":188,"dom":65,"pop":6389,"lat":29.20582,"lng":-98.77427},{"zip":"79938","name":"El Paso","pending_pct":0.3855,"pending":318,"active":503,"total":825,"new":160,"median_price":303450,"ppsf":165,"dom":69,"pop":99621,"lat":31.85764,"lng":-106.03895},{"zip":"76578","name":"Thrall","pending_pct":0.1,"pending":1,"active":9,"total":10,"new":0,"median_price":480000,"ppsf":258,"dom":109,"pop":1762,"lat":30.53488,"lng":-97.24092},{"zip":"79119","name":"Amarillo","pending_pct":0.3804,"pending":70,"active":118,"total":184,"new":56,"median_price":549000,"ppsf":207,"dom":42,"pop":24907,"lat":35.10876,"lng":-102.01968},{"zip":"75956","name":"Kirbyville","pending_pct":0.1579,"pending":6,"active":34,"total":38,"new":4,"median_price":293450,"ppsf":154,"dom":148,"pop":6982,"lat":30.6721,"lng":-93.96706},{"zip":"78008","name":"Campbellton","pending_pct":1.0,"pending":1,"active":1,"total":1,"new":0,"median_price":40000,"ppsf":38,"dom":156,"pop":234,"lat":28.72478,"lng":-98.25911},{"zip":"75755","name":"Big Sandy","pending_pct":0.2973,"pending":11,"active":26,"total":37,"new":12,"median_price":227950,"ppsf":149,"dom":85,"pop":5244,"lat":32.63236,"lng":-95.08662},{"zip":"75974","name":"Tenaha","pending_pct":0.25,"pending":1,"active":3,"total":4,"new":0,"median_price":589900,"ppsf":228,"dom":29,"pop":2592,"lat":31.95674,"lng":-94.23713},{"zip":"78393","name":"Woodsboro","pending_pct":0.0667,"pending":1,"active":13,"total":15,"new":0,"median_price":287000,"ppsf":146,"dom":68,"pop":2063,"lat":28.18097,"lng":-97.35427},{"zip":"75847","name":"Kennard","pending_pct":0.2308,"pending":3,"active":10,"total":13,"new":0,"median_price":323000,"ppsf":144,"dom":200,"pop":1328,"lat":31.35204,"lng":-95.13564},{"zip":"76844","name":"Goldthwaite","pending_pct":0.1111,"pending":3,"active":23,"total":27,"new":0,"median_price":244500,"ppsf":145,"dom":105,"pop":3284,"lat":31.44387,"lng":-98.49348},{"zip":"75436","name":"Detroit","pending_pct":0.2,"pending":1,"active":4,"total":5,"new":0,"median_price":319450,"ppsf":177,"dom":129,"pop":2454,"lat":33.73507,"lng":-95.24904},{"zip":"76132","name":"Fort Worth","pending_pct":0.2857,"pending":22,"active":55,"total":77,"new":28,"median_price":437450,"ppsf":193,"dom":49,"pop":26927,"lat":32.66743,"lng":-97.41827},{"zip":"75052","name":"Grand Prairie","pending_pct":0.3831,"pending":77,"active":120,"total":201,"new":76,"median_price":370000,"ppsf":168,"dom":39,"pop":97278,"lat":32.66455,"lng":-97.02809},{"zip":"78216","name":"San Antonio","pending_pct":0.2358,"pending":29,"active":94,"total":123,"new":60,"median_price":310000,"ppsf":175,"dom":58,"pop":41180,"lat":29.53641,"lng":-98.48999},{"zip":"79853","name":"Tornillo","pending_pct":0.5,"pending":1,"active":1,"total":2,"new":0,"median_price":190000,"ppsf":144,"dom":103,"pop":2686,"lat":31.43559,"lng":-106.06493},{"zip":"77074","name":"Houston","pending_pct":0.1316,"pending":10,"active":65,"total":76,"new":16,"median_price":189000,"ppsf":139,"dom":61,"pop":38660,"lat":29.68821,"lng":-95.51633},{"zip":"75244","name":"Dallas","pending_pct":0.2373,"pending":14,"active":46,"total":59,"new":12,"median_price":849900,"ppsf":338,"dom":55,"pop":13389,"lat":32.92544,"lng":-96.83671},{"zip":"76035","name":"Cresson","pending_pct":0.2453,"pending":13,"active":40,"total":53,"new":16,"median_price":319900,"ppsf":181,"dom":24,"pop":2656,"lat":32.56172,"lng":-97.64251},{"zip":"76707","name":"Waco","pending_pct":0.2389,"pending":27,"active":87,"total":113,"new":24,"median_price":229000,"ppsf":150,"dom":72,"pop":15879,"lat":31.55365,"lng":-97.15829},{"zip":"78264","name":"San Antonio","pending_pct":0.3125,"pending":40,"active":91,"total":128,"new":28,"median_price":216999,"ppsf":136,"dom":49,"pop":11841,"lat":29.19868,"lng":-98.50534},{"zip":"78160","name":"Stockdale","pending_pct":0.1304,"pending":3,"active":20,"total":23,"new":0,"median_price":345000,"ppsf":218,"dom":96,"pop":4885,"lat":29.24182,"lng":-97.9285},{"zip":"75042","name":"Garland","pending_pct":0.2738,"pending":23,"active":59,"total":84,"new":16,"median_price":317973,"ppsf":199,"dom":54,"pop":38112,"lat":32.91401,"lng":-96.67466},{"zip":"75571","name":"Omaha","pending_pct":0.2,"pending":4,"active":16,"total":20,"new":0,"median_price":175000,"ppsf":122,"dom":66,"pop":2653,"lat":33.20704,"lng":-94.76407},{"zip":"77477","name":"Stafford","pending_pct":0.2658,"pending":21,"active":57,"total":79,"new":20,"median_price":344950,"ppsf":173,"dom":55,"pop":33752,"lat":29.62625,"lng":-95.56718},{"zip":"75203","name":"Dallas","pending_pct":0.2,"pending":14,"active":56,"total":70,"new":12,"median_price":480000,"ppsf":228,"dom":61,"pop":15775,"lat":32.74439,"lng":-96.80206},{"zip":"75208","name":"Dallas","pending_pct":0.1707,"pending":28,"active":136,"total":164,"new":40,"median_price":550000,"ppsf":289,"dom":53,"pop":29367,"lat":32.75409,"lng":-96.83943},{"zip":"75080","name":"Richardson","pending_pct":0.2874,"pending":48,"active":119,"total":167,"new":60,"median_price":444950,"ppsf":253,"dom":43,"pop":52569,"lat":32.97382,"lng":-96.7416},{"zip":"78121","name":"La Vernia","pending_pct":0.2258,"pending":35,"active":124,"total":155,"new":24,"median_price":595000,"ppsf":243,"dom":60,"pop":16120,"lat":29.35118,"lng":-98.10241},{"zip":"77713","name":"Beaumont","pending_pct":0.1458,"pending":14,"active":85,"total":96,"new":28,"median_price":354450,"ppsf":164,"dom":44,"pop":15541,"lat":30.06777,"lng":-94.25716},{"zip":"75402","name":"Greenville","pending_pct":0.2558,"pending":44,"active":125,"total":172,"new":36,"median_price":294900,"ppsf":168,"dom":72,"pop":20098,"lat":33.06724,"lng":-96.08576},{"zip":"77355","name":"Magnolia","pending_pct":0.3782,"pending":104,"active":172,"total":275,"new":72,"median_price":449275,"ppsf":188,"dom":43,"pop":32847,"lat":30.1579,"lng":-95.75014},{"zip":"78370","name":"Odem","pending_pct":0.3103,"pending":9,"active":20,"total":29,"new":4,"median_price":307500,"ppsf":159,"dom":67,"pop":5353,"lat":27.94238,"lng":-97.6033},{"zip":"79714","name":"Andrews","pending_pct":0.0349,"pending":3,"active":82,"total":86,"new":28,"median_price":308495,"ppsf":164,"dom":51,"pop":18610,"lat":32.32947,"lng":-102.71323},{"zip":"78231","name":"San Antonio","pending_pct":0.325,"pending":13,"active":27,"total":40,"new":8,"median_price":525000,"ppsf":207,"dom":67,"pop":9744,"lat":29.57978,"lng":-98.54504},{"zip":"75007","name":"Carrollton","pending_pct":0.2872,"pending":54,"active":131,"total":188,"new":84,"median_price":437000,"ppsf":225,"dom":37,"pop":54646,"lat":33.00498,"lng":-96.8959},{"zip":"78372","name":"Orange Grove","pending_pct":0.1071,"pending":3,"active":24,"total":28,"new":4,"median_price":259000,"ppsf":166,"dom":58,"pop":5383,"lat":27.9979,"lng":-98.09669},{"zip":"77030","name":"Houston","pending_pct":0.187,"pending":23,"active":101,"total":123,"new":24,"median_price":238000,"ppsf":205,"dom":55,"pop":13380,"lat":29.70597,"lng":-95.40253},{"zip":"78240","name":"San Antonio","pending_pct":0.2421,"pending":46,"active":146,"total":190,"new":40,"median_price":288250,"ppsf":171,"dom":51,"pop":57921,"lat":29.5244,"lng":-98.60813},{"zip":"76435","name":"Carbon","pending_pct":0.5,"pending":2,"active":2,"total":4,"new":0,"median_price":600000,"ppsf":493,"dom":40,"pop":726,"lat":32.21754,"lng":-98.85349},{"zip":"76554","name":"Little River Academy","pending_pct":0.4444,"pending":4,"active":5,"total":9,"new":4,"median_price":232900,"ppsf":166,"dom":83,"pop":2344,"lat":30.97583,"lng":-97.3677},{"zip":"78073","name":"Von Ormy","pending_pct":0.3007,"pending":46,"active":107,"total":153,"new":36,"median_price":239900,"ppsf":145,"dom":39,"pop":10088,"lat":29.24569,"lng":-98.6213},{"zip":"76524","name":"Eddy","pending_pct":0.3,"pending":3,"active":6,"total":10,"new":0,"median_price":292500,"ppsf":205,"dom":82,"pop":3668,"lat":31.27445,"lng":-97.20736},{"zip":"75002","name":"Allen","pending_pct":0.3143,"pending":99,"active":217,"total":315,"new":132,"median_price":575000,"ppsf":226,"dom":35,"pop":75057,"lat":33.08946,"lng":-96.60639},{"zip":"77060","name":"Houston","pending_pct":0.119,"pending":5,"active":37,"total":42,"new":4,"median_price":221999,"ppsf":161,"dom":110,"pop":45340,"lat":29.93567,"lng":-95.39697},{"zip":"77837","name":"Calvert","pending_pct":0.0909,"pending":1,"active":10,"total":11,"new":0,"median_price":299000,"ppsf":111,"dom":70,"pop":1030,"lat":31.00704,"lng":-96.67718},{"zip":"77059","name":"Houston","pending_pct":0.3229,"pending":31,"active":61,"total":96,"new":36,"median_price":514450,"ppsf":171,"dom":40,"pop":18767,"lat":29.60929,"lng":-95.12417},{"zip":"75023","name":"Plano","pending_pct":0.3072,"pending":47,"active":109,"total":153,"new":56,"median_price":475000,"ppsf":224,"dom":31,"pop":49229,"lat":33.05657,"lng":-96.73286},{"zip":"75973","name":"Shelbyville","pending_pct":0.1818,"pending":2,"active":9,"total":11,"new":4,"median_price":265000,"ppsf":143,"dom":165,"pop":2453,"lat":31.71977,"lng":-93.93259},{"zip":"75233","name":"Dallas","pending_pct":0.1818,"pending":6,"active":26,"total":33,"new":8,"median_price":344500,"ppsf":187,"dom":60,"pop":14867,"lat":32.70444,"lng":-96.87271},{"zip":"78736","name":"Austin","pending_pct":0.2857,"pending":10,"active":26,"total":35,"new":12,"median_price":729900,"ppsf":324,"dom":45,"pop":9651,"lat":30.24833,"lng":-97.94965},{"zip":"76058","name":"Joshua","pending_pct":0.439,"pending":54,"active":68,"total":123,"new":20,"median_price":414900,"ppsf":186,"dom":57,"pop":22276,"lat":32.47072,"lng":-97.4251},{"zip":"75065","name":"Lake Dallas","pending_pct":0.2292,"pending":22,"active":75,"total":96,"new":28,"median_price":445000,"ppsf":203,"dom":52,"pop":13657,"lat":33.11108,"lng":-97.01277},{"zip":"77016","name":"Houston","pending_pct":0.3372,"pending":58,"active":116,"total":172,"new":52,"median_price":232500,"ppsf":149,"dom":57,"pop":29841,"lat":29.86147,"lng":-95.29951},{"zip":"76643","name":"Hewitt","pending_pct":0.3908,"pending":34,"active":52,"total":87,"new":24,"median_price":384450,"ppsf":189,"dom":58,"pop":16432,"lat":31.45011,"lng":-97.19732},{"zip":"77833","name":"Brenham","pending_pct":0.2088,"pending":38,"active":147,"total":182,"new":36,"median_price":355000,"ppsf":197,"dom":72,"pop":29498,"lat":30.20842,"lng":-96.40797},{"zip":"75472","name":"Point","pending_pct":0.234,"pending":11,"active":36,"total":47,"new":8,"median_price":285000,"ppsf":186,"dom":92,"pop":3951,"lat":32.89177,"lng":-95.87239},{"zip":"79068","name":"Panhandle","pending_pct":0.3333,"pending":6,"active":12,"total":18,"new":0,"median_price":250000,"ppsf":114,"dom":87,"pop":2784,"lat":35.33633,"lng":-101.45226},{"zip":"79355","name":"Plains","pending_pct":0.2,"pending":1,"active":4,"total":5,"new":0,"median_price":210000,"ppsf":123,"dom":60,"pop":1660,"lat":33.16605,"lng":-102.89485},{"zip":"77475","name":"Sheridan","pending_pct":0.4,"pending":2,"active":3,"total":5,"new":0,"median_price":199900,"ppsf":227,"dom":149,"pop":431,"lat":29.50419,"lng":-96.66026},{"zip":"78023","name":"Helotes","pending_pct":0.2774,"pending":38,"active":97,"total":137,"new":40,"median_price":525000,"ppsf":185,"dom":51,"pop":28462,"lat":29.61549,"lng":-98.75443},{"zip":"77950","name":"Austwell","pending_pct":0.5,"pending":1,"active":1,"total":2,"new":0,"median_price":265000,"ppsf":276,"dom":22,"pop":178,"lat":28.26427,"lng":-96.89666},{"zip":"77964","name":"Hallettsville","pending_pct":0.25,"pending":6,"active":19,"total":24,"new":4,"median_price":277500,"ppsf":187,"dom":67,"pop":8204,"lat":29.38023,"lng":-96.84301},{"zip":"77880","name":"Washington","pending_pct":0.0667,"pending":1,"active":14,"total":15,"new":0,"median_price":1279778,"ppsf":448,"dom":89,"pop":2517,"lat":30.28283,"lng":-96.1863},{"zip":"79762","name":"Odessa","pending_pct":0.0775,"pending":10,"active":118,"total":129,"new":92,"median_price":289500,"ppsf":157,"dom":30,"pop":39927,"lat":31.92573,"lng":-102.35502},{"zip":"79339","name":"Littlefield","pending_pct":0.1786,"pending":5,"active":23,"total":28,"new":4,"median_price":196950,"ppsf":98,"dom":46,"pop":6685,"lat":33.87938,"lng":-102.34682},{"zip":"79930","name":"El Paso","pending_pct":0.3333,"pending":18,"active":37,"total":54,"new":16,"median_price":234900,"ppsf":142,"dom":68,"pop":24123,"lat":31.81078,"lng":-106.46846},{"zip":"78621","name":"Elgin","pending_pct":0.3333,"pending":104,"active":210,"total":312,"new":56,"median_price":307740,"ppsf":179,"dom":60,"pop":30411,"lat":30.33737,"lng":-97.36053},{"zip":"79226","name":"Clarendon","pending_pct":0.2174,"pending":5,"active":18,"total":23,"new":8,"median_price":165450,"ppsf":105,"dom":85,"pop":2855,"lat":34.91965,"lng":-100.99229},{"zip":"77830","name":"Anderson","pending_pct":0.1667,"pending":2,"active":9,"total":12,"new":0,"median_price":567500,"ppsf":244,"dom":61,"pop":3238,"lat":30.52648,"lng":-96.00849},{"zip":"78669","name":"Spicewood","pending_pct":0.1478,"pending":47,"active":269,"total":318,"new":48,"median_price":995000,"ppsf":352,"dom":71,"pop":12592,"lat":30.4347,"lng":-98.13066},{"zip":"75754","name":"Ben Wheeler","pending_pct":0.1667,"pending":5,"active":25,"total":30,"new":8,"median_price":343000,"ppsf":194,"dom":60,"pop":7841,"lat":32.42431,"lng":-95.66462},{"zip":"76020","name":"Azle","pending_pct":0.2427,"pending":75,"active":236,"total":309,"new":76,"median_price":415000,"ppsf":211,"dom":57,"pop":34602,"lat":32.90102,"lng":-97.56483},{"zip":"75662","name":"Kilgore","pending_pct":0.2936,"pending":32,"active":80,"total":109,"new":24,"median_price":302900,"ppsf":148,"dom":52,"pop":25034,"lat":32.38076,"lng":-94.87503},{"zip":"76120","name":"Fort Worth","pending_pct":0.3731,"pending":25,"active":42,"total":67,"new":16,"median_price":335000,"ppsf":182,"dom":72,"pop":21102,"lat":32.76742,"lng":-97.18286},{"zip":"79526","name":"Hermleigh","pending_pct":1.0,"pending":1,"active":1,"total":1,"new":0,"median_price":1800000,"ppsf":352,"dom":6,"pop":986,"lat":32.6443,"lng":-100.75192},{"zip":"78122","name":"Leesville","pending_pct":null,"pending":null,"active":1,"total":1,"new":0,"median_price":425000,"ppsf":174,"dom":54,"pop":338,"lat":29.44512,"lng":-97.72212},{"zip":"79777","name":"Pyote","pending_pct":null,"pending":null,"active":1,"total":1,"new":0,"median_price":375000,"ppsf":189,"dom":60,"pop":116,"lat":31.47772,"lng":-103.16337},{"zip":"77974","name":"Meyersville","pending_pct":null,"pending":null,"active":1,"total":1,"new":0,"median_price":169999,"ppsf":186,"dom":213,"pop":695,"lat":28.89295,"lng":-97.29275},{"zip":"78375","name":"Premont","pending_pct":null,"pending":null,"active":9,"total":9,"new":0,"median_price":120000,"ppsf":82,"dom":192,"pop":2754,"lat":27.38282,"lng":-98.16351},{"zip":"76937","name":"Eola","pending_pct":null,"pending":null,"active":1,"total":1,"new":0,"median_price":99995,"ppsf":128,"dom":198,"pop":280,"lat":31.39109,"lng":-100.15025},{"zip":"78549","name":"Hargill","pending_pct":null,"pending":null,"active":1,"total":1,"new":0,"median_price":119500,"ppsf":113,"dom":76,"pop":609,"lat":26.48528,"lng":-98.02329},{"zip":"76635","name":"Coolidge","pending_pct":null,"pending":null,"active":1,"total":1,"new":0,"median_price":59000,"ppsf":26,"dom":113,"pop":1392,"lat":31.72956,"lng":-96.66483},{"zip":"76460","name":"Loving","pending_pct":null,"pending":null,"active":1,"total":1,"new":0,"median_price":435456,"ppsf":243,"dom":29,"pop":469,"lat":33.30796,"lng":-98.49798},{"zip":"76571","name":"Salado","pending_pct":0.2701,"pending":47,"active":131,"total":174,"new":48,"median_price":586950,"ppsf":237,"dom":57,"pop":9000,"lat":30.93305,"lng":-97.58448},{"zip":"79830","name":"Alpine","pending_pct":0.039,"pending":3,"active":76,"total":77,"new":16,"median_price":292500,"ppsf":188,"dom":118,"pop":7853,"lat":29.89491,"lng":-103.49925},{"zip":"79761","name":"Odessa","pending_pct":0.0714,"pending":4,"active":53,"total":56,"new":32,"median_price":235000,"ppsf":151,"dom":51,"pop":30164,"lat":31.85603,"lng":-102.3485},{"zip":"75631","name":"Beckville","pending_pct":0.1111,"pending":1,"active":8,"total":9,"new":0,"median_price":439900,"ppsf":181,"dom":71,"pop":2483,"lat":32.25343,"lng":-94.44957},{"zip":"76661","name":"Marlin","pending_pct":0.2,"pending":8,"active":32,"total":40,"new":4,"median_price":149900,"ppsf":80,"dom":89,"pop":7602,"lat":31.30785,"lng":-96.84584},{"zip":"78361","name":"Hebbronville","pending_pct":0.1923,"pending":5,"active":20,"total":26,"new":4,"median_price":125000,"ppsf":75,"dom":77,"pop":4727,"lat":27.08457,"lng":-98.73973},{"zip":"76249","name":"Krum","pending_pct":0.3431,"pending":35,"active":71,"total":102,"new":36,"median_price":405450,"ppsf":205,"dom":40,"pop":10637,"lat":33.27993,"lng":-97.3026},{"zip":"79358","name":"Ropesville","pending_pct":0.4286,"pending":3,"active":4,"total":7,"new":4,"median_price":650000,"ppsf":205,"dom":51,"pop":1622,"lat":33.4321,"lng":-102.20017},{"zip":"78850","name":"D Hanis","pending_pct":0.2,"pending":1,"active":4,"total":5,"new":0,"median_price":762500,"ppsf":236,"dom":106,"pop":779,"lat":29.27937,"lng":-99.33581},{"zip":"78703","name":"Austin","pending_pct":0.1412,"pending":24,"active":150,"total":170,"new":16,"median_price":1350000,"ppsf":650,"dom":64,"pop":23483,"lat":30.29385,"lng":-97.76554},{"zip":"75025","name":"Plano","pending_pct":0.2883,"pending":47,"active":116,"total":163,"new":56,"median_price":600000,"ppsf":214,"dom":37,"pop":53202,"lat":33.09057,"lng":-96.74061},{"zip":"76210","name":"Denton","pending_pct":0.3058,"pending":74,"active":169,"total":242,"new":100,"median_price":435000,"ppsf":184,"dom":40,"pop":47610,"lat":33.14985,"lng":-97.0962},{"zip":"76665","name":"Meridian","pending_pct":0.2222,"pending":2,"active":7,"total":9,"new":0,"median_price":192500,"ppsf":168,"dom":57,"pop":2771,"lat":31.91784,"lng":-97.72049},{"zip":"78257","name":"San Antonio","pending_pct":0.2404,"pending":25,"active":79,"total":104,"new":24,"median_price":1019978,"ppsf":309,"dom":79,"pop":10992,"lat":29.64373,"lng":-98.57713},{"zip":"78219","name":"San Antonio","pending_pct":0.34,"pending":17,"active":33,"total":50,"new":8,"median_price":205000,"ppsf":157,"dom":63,"pop":17924,"lat":29.44137,"lng":-98.38459},{"zip":"75803","name":"Palestine","pending_pct":0.2222,"pending":18,"active":64,"total":81,"new":16,"median_price":299250,"ppsf":148,"dom":75,"pop":21770,"lat":31.87513,"lng":-95.66704},{"zip":"75224","name":"Dallas","pending_pct":0.2444,"pending":11,"active":33,"total":45,"new":8,"median_price":329000,"ppsf":221,"dom":56,"pop":35105,"lat":32.71117,"lng":-96.83953},{"zip":"76248","name":"Keller","pending_pct":0.4121,"pending":75,"active":109,"total":182,"new":80,"median_price":709000,"ppsf":229,"dom":32,"pop":40936,"lat":32.92988,"lng":-97.22972},{"zip":"76033","name":"Cleburne","pending_pct":0.2723,"pending":55,"active":146,"total":202,"new":52,"median_price":309000,"ppsf":165,"dom":51,"pop":29538,"lat":32.28663,"lng":-97.52075},{"zip":"78881","name":"Sabinal","pending_pct":0.25,"pending":2,"active":8,"total":8,"new":0,"median_price":234500,"ppsf":129,"dom":249,"pop":1283,"lat":29.39333,"lng":-99.50972},{"zip":"75684","name":"Overton","pending_pct":0.25,"pending":6,"active":18,"total":24,"new":8,"median_price":221950,"ppsf":143,"dom":45,"pop":8040,"lat":32.27085,"lng":-94.93147},{"zip":"77380","name":"Spring","pending_pct":0.3307,"pending":42,"active":87,"total":127,"new":32,"median_price":579500,"ppsf":234,"dom":47,"pop":31369,"lat":30.1365,"lng":-95.46863},{"zip":"75785","name":"Rusk","pending_pct":0.2264,"pending":12,"active":43,"total":53,"new":12,"median_price":197400,"ppsf":124,"dom":55,"pop":10705,"lat":31.76641,"lng":-95.17446},{"zip":"78418","name":"Corpus Christi","pending_pct":0.0898,"pending":53,"active":535,"total":590,"new":92,"median_price":342500,"ppsf":268,"dom":73,"pop":29790,"lat":27.52732,"lng":-97.29313},{"zip":"77426","name":"Chappell Hill","pending_pct":0.3077,"pending":4,"active":8,"total":13,"new":0,"median_price":557000,"ppsf":296,"dom":219,"pop":2007,"lat":30.11633,"lng":-96.24721},{"zip":"75937","name":"Chireno","pending_pct":1.0,"pending":1,"active":1,"total":1,"new":0,"median_price":633875,"ppsf":280,"dom":251,"pop":1313,"lat":31.47805,"lng":-94.38259},{"zip":"78059","name":"Natalia","pending_pct":0.1463,"pending":6,"active":35,"total":41,"new":4,"median_price":430000,"ppsf":192,"dom":90,"pop":7061,"lat":29.19236,"lng":-98.84143},{"zip":"75862","name":"Trinity","pending_pct":0.1214,"pending":17,"active":122,"total":140,"new":28,"median_price":245500,"ppsf":148,"dom":75,"pop":9968,"lat":30.96193,"lng":-95.32951},{"zip":"77583","name":"Rosharon","pending_pct":0.3149,"pending":171,"active":379,"total":543,"new":104,"median_price":350000,"ppsf":169,"dom":51,"pop":52747,"lat":29.37763,"lng":-95.4585},{"zip":"76367","name":"Iowa Park","pending_pct":0.1333,"pending":4,"active":26,"total":30,"new":16,"median_price":269900,"ppsf":142,"dom":37,"pop":14367,"lat":33.97361,"lng":-98.7168},{"zip":"78758","name":"Austin","pending_pct":0.1811,"pending":23,"active":103,"total":127,"new":20,"median_price":388000,"ppsf":272,"dom":59,"pop":49617,"lat":30.38768,"lng":-97.70665},{"zip":"78840","name":"Del Rio","pending_pct":0.1767,"pending":53,"active":248,"total":300,"new":48,"median_price":266750,"ppsf":158,"dom":75,"pop":47256,"lat":29.74499,"lng":-100.92362},{"zip":"77445","name":"Hempstead","pending_pct":0.117,"pending":11,"active":84,"total":94,"new":20,"median_price":298750,"ppsf":178,"dom":86,"pop":16142,"lat":30.09562,"lng":-96.06247},{"zip":"77068","name":"Houston","pending_pct":0.1915,"pending":18,"active":78,"total":94,"new":16,"median_price":359999,"ppsf":128,"dom":48,"pop":13189,"lat":30.00628,"lng":-95.48694},{"zip":"77373","name":"Spring","pending_pct":0.2484,"pending":114,"active":345,"total":459,"new":112,"median_price":265000,"ppsf":138,"dom":48,"pop":69739,"lat":30.06143,"lng":-95.38423},{"zip":"75201","name":"Dallas","pending_pct":0.1325,"pending":11,"active":71,"total":83,"new":20,"median_price":1535000,"ppsf":658,"dom":70,"pop":18345,"lat":32.78826,"lng":-96.79953},{"zip":"78959","name":"Waelder","pending_pct":0.4,"pending":2,"active":4,"total":5,"new":0,"median_price":422500,"ppsf":299,"dom":151,"pop":1157,"lat":29.69877,"lng":-97.30153},{"zip":"78213","name":"San Antonio","pending_pct":0.2478,"pending":28,"active":85,"total":113,"new":40,"median_price":262000,"ppsf":173,"dom":43,"pop":40526,"lat":29.51745,"lng":-98.52358},{"zip":"77627","name":"Nederland","pending_pct":0.2958,"pending":21,"active":49,"total":71,"new":32,"median_price":255250,"ppsf":149,"dom":33,"pop":22357,"lat":29.99095,"lng":-94.00772},{"zip":"75021","name":"Denison","pending_pct":0.1383,"pending":13,"active":79,"total":94,"new":16,"median_price":229000,"ppsf":176,"dom":65,"pop":9173,"lat":33.72686,"lng":-96.47552},{"zip":"75831","name":"Buffalo","pending_pct":0.2308,"pending":3,"active":10,"total":13,"new":0,"median_price":504950,"ppsf":166,"dom":59,"pop":4881,"lat":31.45745,"lng":-96.02275},{"zip":"78613","name":"Cedar Park","pending_pct":0.3156,"pending":95,"active":206,"total":301,"new":112,"median_price":495000,"ppsf":219,"dom":40,"pop":89956,"lat":30.50683,"lng":-97.81939},{"zip":"77968","name":"Inez","pending_pct":0.0556,"pending":1,"active":17,"total":18,"new":0,"median_price":569000,"ppsf":216,"dom":90,"pop":2605,"lat":28.90619,"lng":-96.84952},{"zip":"76034","name":"Colleyville","pending_pct":0.3846,"pending":40,"active":64,"total":104,"new":52,"median_price":1185000,"ppsf":300,"dom":28,"pop":26103,"lat":32.89121,"lng":-97.1488},{"zip":"78583","name":"Rio Hondo","pending_pct":0.2,"pending":6,"active":24,"total":30,"new":0,"median_price":317000,"ppsf":174,"dom":88,"pop":5236,"lat":26.28166,"lng":-97.4686},{"zip":"79756","name":"Monahans","pending_pct":0.08,"pending":2,"active":24,"total":25,"new":8,"median_price":282000,"ppsf":181,"dom":58,"pop":9485,"lat":31.54626,"lng":-102.88338},{"zip":"77061","name":"Houston","pending_pct":0.2258,"pending":7,"active":24,"total":31,"new":4,"median_price":245000,"ppsf":119,"dom":64,"pop":24004,"lat":29.65436,"lng":-95.28481},{"zip":"77642","name":"Port Arthur","pending_pct":0.18,"pending":9,"active":42,"total":50,"new":12,"median_price":198000,"ppsf":115,"dom":68,"pop":38358,"lat":29.93917,"lng":-93.91606},{"zip":"78266","name":"San Antonio","pending_pct":0.4336,"pending":49,"active":63,"total":113,"new":24,"median_price":494715,"ppsf":216,"dom":52,"pop":7338,"lat":29.65611,"lng":-98.3295},{"zip":"77057","name":"Houston","pending_pct":0.1406,"pending":45,"active":277,"total":320,"new":84,"median_price":265000,"ppsf":174,"dom":56,"pop":46569,"lat":29.74522,"lng":-95.48885},{"zip":"79501","name":"Anson","pending_pct":0.5263,"pending":10,"active":9,"total":19,"new":8,"median_price":210000,"ppsf":103,"dom":33,"pop":3630,"lat":32.74332,"lng":-99.89332},{"zip":"76073","name":"Paradise","pending_pct":0.2321,"pending":13,"active":44,"total":56,"new":8,"median_price":599999,"ppsf":263,"dom":88,"pop":7648,"lat":33.10416,"lng":-97.72571},{"zip":"75838","name":"Donie","pending_pct":0.1429,"pending":1,"active":6,"total":7,"new":0,"median_price":222500,"ppsf":107,"dom":173,"pop":209,"lat":31.47956,"lng":-96.22844},{"zip":"75693","name":"White Oak","pending_pct":0.4167,"pending":10,"active":14,"total":24,"new":12,"median_price":315000,"ppsf":162,"dom":88,"pop":5935,"lat":32.53364,"lng":-94.86083},{"zip":"77857","name":"Gause","pending_pct":0.1429,"pending":1,"active":6,"total":7,"new":0,"median_price":579225,"ppsf":179,"dom":47,"pop":1078,"lat":30.78246,"lng":-96.73927},{"zip":"77701","name":"Beaumont","pending_pct":0.1,"pending":3,"active":28,"total":30,"new":8,"median_price":115000,"ppsf":81,"dom":68,"pop":12381,"lat":30.07321,"lng":-94.10579},{"zip":"77084","name":"Houston","pending_pct":0.2545,"pending":99,"active":288,"total":389,"new":104,"median_price":300000,"ppsf":141,"dom":51,"pop":110217,"lat":29.82698,"lng":-95.6612},{"zip":"77034","name":"Houston","pending_pct":0.2429,"pending":17,"active":53,"total":70,"new":12,"median_price":258950,"ppsf":155,"dom":58,"pop":36456,"lat":29.61522,"lng":-95.19237},{"zip":"75253","name":"Dallas","pending_pct":0.3788,"pending":25,"active":41,"total":66,"new":12,"median_price":310000,"ppsf":167,"dom":78,"pop":24395,"lat":32.67278,"lng":-96.61171},{"zip":"77449","name":"Katy","pending_pct":0.2037,"pending":109,"active":418,"total":535,"new":148,"median_price":296625,"ppsf":150,"dom":40,"pop":130028,"lat":29.83674,"lng":-95.73547},{"zip":"76905","name":"San Angelo","pending_pct":0.2857,"pending":20,"active":47,"total":70,"new":24,"median_price":271950,"ppsf":172,"dom":37,"pop":14456,"lat":31.49987,"lng":-100.31583},{"zip":"78119","name":"Kenedy","pending_pct":0.2917,"pending":7,"active":17,"total":24,"new":0,"median_price":225000,"ppsf":144,"dom":132,"pop":7270,"lat":28.71739,"lng":-97.91187},{"zip":"75032","name":"Rockwall","pending_pct":0.231,"pending":88,"active":296,"total":381,"new":100,"median_price":649900,"ppsf":224,"dom":51,"pop":39865,"lat":32.85756,"lng":-96.42858},{"zip":"78330","name":"Agua Dulce","pending_pct":0.5,"pending":1,"active":1,"total":2,"new":0,"median_price":148000,"ppsf":85,"dom":248,"pop":351,"lat":27.7656,"lng":-97.91378},{"zip":"77441","name":"Fulshear","pending_pct":0.3714,"pending":231,"active":391,"total":622,"new":152,"median_price":539990,"ppsf":185,"dom":35,"pop":41324,"lat":29.6955,"lng":-95.90896},{"zip":"78336","name":"Aransas Pass","pending_pct":0.1038,"pending":19,"active":160,"total":183,"new":24,"median_price":325900,"ppsf":215,"dom":68,"pop":12424,"lat":27.94356,"lng":-97.1862},{"zip":"76066","name":"Millsap","pending_pct":0.2368,"pending":9,"active":29,"total":38,"new":8,"median_price":468448,"ppsf":252,"dom":78,"pop":5865,"lat":32.7058,"lng":-97.99913},{"zip":"79835","name":"Canutillo","pending_pct":0.3333,"pending":8,"active":17,"total":24,"new":4,"median_price":335000,"ppsf":156,"dom":66,"pop":11440,"lat":31.93555,"lng":-106.59491},{"zip":"75126","name":"Forney","pending_pct":0.271,"pending":265,"active":714,"total":978,"new":252,"median_price":346500,"ppsf":160,"dom":57,"pop":84799,"lat":32.74361,"lng":-96.45289},{"zip":"75124","name":"Eustace","pending_pct":0.1562,"pending":5,"active":27,"total":32,"new":4,"median_price":457000,"ppsf":256,"dom":78,"pop":5981,"lat":32.32579,"lng":-95.96932},{"zip":"76018","name":"Arlington","pending_pct":0.4545,"pending":25,"active":30,"total":55,"new":32,"median_price":319999,"ppsf":172,"dom":37,"pop":26834,"lat":32.66074,"lng":-97.08967},{"zip":"77304","name":"Conroe","pending_pct":0.2635,"pending":107,"active":299,"total":406,"new":92,"median_price":398500,"ppsf":167,"dom":45,"pop":44225,"lat":30.33097,"lng":-95.51538},{"zip":"77306","name":"Conroe","pending_pct":0.3305,"pending":39,"active":83,"total":118,"new":24,"median_price":244990,"ppsf":164,"dom":59,"pop":18086,"lat":30.2799,"lng":-95.31337},{"zip":"79510","name":"Clyde","pending_pct":0.6613,"pending":41,"active":21,"total":62,"new":16,"median_price":265000,"ppsf":184,"dom":18,"pop":8369,"lat":32.26006,"lng":-99.52872},{"zip":"76634","name":"Clifton","pending_pct":0.1528,"pending":11,"active":61,"total":72,"new":12,"median_price":317500,"ppsf":182,"dom":69,"pop":7537,"lat":31.80953,"lng":-97.56866},{"zip":"76271","name":"Tioga","pending_pct":0.1333,"pending":4,"active":25,"total":30,"new":4,"median_price":450000,"ppsf":220,"dom":101,"pop":1859,"lat":33.46953,"lng":-96.91412},{"zip":"76561","name":"Oglesby","pending_pct":0.3333,"pending":1,"active":3,"total":3,"new":0,"median_price":304498,"ppsf":156,"dom":37,"pop":996,"lat":31.42531,"lng":-97.54098},{"zip":"79848","name":"Sanderson","pending_pct":0.1429,"pending":1,"active":6,"total":7,"new":0,"median_price":149000,"ppsf":123,"dom":98,"pop":791,"lat":30.27747,"lng":-102.26187},{"zip":"78948","name":"Lincoln","pending_pct":1.0,"pending":1,"active":1,"total":1,"new":0,"median_price":695000,"ppsf":359,"dom":28,"pop":567,"lat":30.30748,"lng":-96.97022},{"zip":"77622","name":"Hamshire","pending_pct":0.1667,"pending":1,"active":5,"total":6,"new":0,"median_price":252400,"ppsf":156,"dom":69,"pop":1818,"lat":29.85741,"lng":-94.29467},{"zip":"76858","name":"Melvin","pending_pct":0.5,"pending":1,"active":1,"total":2,"new":0,"median_price":149000,"ppsf":126,"dom":9,"pop":212,"lat":31.20758,"lng":-99.62002},{"zip":"76464","name":"Moran","pending_pct":null,"pending":null,"active":1,"total":1,"new":0,"median_price":52000,"ppsf":35,"dom":71,"pop":477,"lat":32.57554,"lng":-99.1542},{"zip":"79846","name":"Redford","pending_pct":null,"pending":null,"active":1,"total":1,"new":0,"median_price":199000,"ppsf":149,"dom":313,"pop":71,"lat":29.41684,"lng":-103.98559},{"zip":"78161","name":"Sutherland Springs","pending_pct":null,"pending":null,"active":3,"total":3,"new":0,"median_price":449950,"ppsf":176,"dom":263,"pop":579,"lat":29.28741,"lng":-98.05012},{"zip":"79517","name":"Fluvanna","pending_pct":null,"pending":null,"active":1,"total":1,"new":0,"median_price":79000,"ppsf":43,"dom":120,"pop":210,"lat":32.87754,"lng":-101.24144},{"zip":"77448","name":"Hungerford","pending_pct":null,"pending":null,"active":1,"total":1,"new":0,"median_price":800000,"ppsf":276,"dom":18,"pop":171,"lat":29.4147,"lng":-96.08746},{"zip":"78344","name":"Bruni","pending_pct":null,"pending":null,"active":2,"total":2,"new":0,"median_price":59900,"ppsf":21,"dom":196,"pop":295,"lat":27.56303,"lng":-98.85966},{"zip":"75493","name":"Winfield","pending_pct":null,"pending":null,"active":1,"total":1,"new":0,"median_price":135000,"ppsf":92,"dom":176,"pop":629,"lat":33.14073,"lng":-95.11316},{"zip":"79013","name":"Cactus","pending_pct":null,"pending":null,"active":2,"total":2,"new":0,"median_price":227500,"ppsf":113,"dom":44,"pop":3048,"lat":36.04183,"lng":-101.99335},{"zip":"77546","name":"Friendswood","pending_pct":0.3782,"pending":104,"active":172,"total":275,"new":80,"median_price":462500,"ppsf":183,"dom":40,"pop":54789,"lat":29.5132,"lng":-95.19352},{"zip":"77032","name":"Houston","pending_pct":0.1176,"pending":2,"active":16,"total":17,"new":0,"median_price":232950,"ppsf":141,"dom":122,"pop":12403,"lat":29.96523,"lng":-95.34004},{"zip":"78570","name":"Mercedes","pending_pct":0.2075,"pending":22,"active":84,"total":106,"new":16,"median_price":205000,"ppsf":148,"dom":80,"pop":34348,"lat":26.17149,"lng":-97.9112},{"zip":"78015","name":"Boerne","pending_pct":0.3011,"pending":53,"active":125,"total":176,"new":52,"median_price":599000,"ppsf":216,"dom":40,"pop":24867,"lat":29.7439,"lng":-98.64785},{"zip":"76011","name":"Arlington","pending_pct":0.1356,"pending":8,"active":51,"total":59,"new":16,"median_price":179900,"ppsf":172,"dom":50,"pop":22752,"lat":32.7543,"lng":-97.08223},{"zip":"76655","name":"Lorena","pending_pct":0.3936,"pending":37,"active":59,"total":94,"new":28,"median_price":399450,"ppsf":196,"dom":53,"pop":10603,"lat":31.39295,"lng":-97.1728},{"zip":"76114","name":"Fort Worth","pending_pct":0.21,"pending":21,"active":79,"total":100,"new":32,"median_price":328568,"ppsf":213,"dom":53,"pop":27357,"lat":32.77365,"lng":-97.40417},{"zip":"77506","name":"Pasadena","pending_pct":0.3235,"pending":22,"active":45,"total":68,"new":20,"median_price":199450,"ppsf":155,"dom":54,"pop":35114,"lat":29.71786,"lng":-95.19018},{"zip":"76082","name":"Springtown","pending_pct":0.2738,"pending":69,"active":184,"total":252,"new":52,"median_price":462050,"ppsf":204,"dom":60,"pop":24880,"lat":32.97098,"lng":-97.71783},{"zip":"77568","name":"La Marque","pending_pct":0.3028,"pending":86,"active":201,"total":284,"new":52,"median_price":308900,"ppsf":155,"dom":59,"pop":23083,"lat":29.36653,"lng":-94.98773},{"zip":"76834","name":"Coleman","pending_pct":0.1728,"pending":14,"active":67,"total":81,"new":8,"median_price":155000,"ppsf":115,"dom":110,"pop":4981,"lat":31.87885,"lng":-99.46843},{"zip":"75647","name":"Gladewater","pending_pct":0.2577,"pending":25,"active":72,"total":97,"new":20,"median_price":299000,"ppsf":177,"dom":70,"pop":13299,"lat":32.5167,"lng":-94.96429},{"zip":"75567","name":"Maud","pending_pct":0.2353,"pending":4,"active":14,"total":17,"new":4,"median_price":359900,"ppsf":174,"dom":108,"pop":3660,"lat":33.31688,"lng":-94.31935},{"zip":"77388","name":"Spring","pending_pct":0.2405,"pending":63,"active":193,"total":262,"new":64,"median_price":325000,"ppsf":140,"dom":46,"pop":53425,"lat":30.05957,"lng":-95.46764},{"zip":"76704","name":"Waco","pending_pct":0.098,"pending":5,"active":45,"total":51,"new":8,"median_price":188500,"ppsf":167,"dom":54,"pop":7018,"lat":31.57558,"lng":-97.12417},{"zip":"77423","name":"Brookshire","pending_pct":0.375,"pending":120,"active":198,"total":320,"new":88,"median_price":389000,"ppsf":166,"dom":49,"pop":18767,"lat":29.83386,"lng":-95.98219},{"zip":"79603","name":"Abilene","pending_pct":0.7679,"pending":43,"active":14,"total":56,"new":20,"median_price":195900,"ppsf":134,"dom":33,"pop":23548,"lat":32.39904,"lng":-99.89222},{"zip":"77478","name":"Sugar Land","pending_pct":0.1613,"pending":15,"active":79,"total":93,"new":36,"median_price":499900,"ppsf":187,"dom":36,"pop":23182,"lat":29.61896,"lng":-95.6077},{"zip":"78945","name":"La Grange","pending_pct":0.175,"pending":14,"active":67,"total":80,"new":12,"median_price":365000,"ppsf":187,"dom":85,"pop":10394,"lat":29.91594,"lng":-96.89031},{"zip":"78732","name":"Austin","pending_pct":0.2171,"pending":28,"active":100,"total":129,"new":36,"median_price":1037450,"ppsf":299,"dom":49,"pop":21087,"lat":30.3802,"lng":-97.89291},{"zip":"75686","name":"Pittsburg","pending_pct":0.189,"pending":24,"active":104,"total":127,"new":28,"median_price":325000,"ppsf":172,"dom":71,"pop":14195,"lat":32.96921,"lng":-94.94697},{"zip":"78221","name":"San Antonio","pending_pct":0.3139,"pending":70,"active":157,"total":223,"new":76,"median_price":215000,"ppsf":156,"dom":37,"pop":42178,"lat":29.28097,"lng":-98.47529},{"zip":"76443","name":"Cross Plains","pending_pct":0.1818,"pending":2,"active":10,"total":11,"new":4,"median_price":159900,"ppsf":170,"dom":49,"pop":1999,"lat":32.11907,"lng":-99.20174},{"zip":"78722","name":"Austin","pending_pct":0.3415,"pending":14,"active":27,"total":41,"new":8,"median_price":650000,"ppsf":460,"dom":62,"pop":6767,"lat":30.29005,"lng":-97.71458},{"zip":"78218","name":"San Antonio","pending_pct":0.2,"pending":28,"active":115,"total":140,"new":32,"median_price":225000,"ppsf":148,"dom":64,"pop":39428,"lat":29.49354,"lng":-98.39948},{"zip":"78226","name":"San Antonio","pending_pct":0.4286,"pending":3,"active":4,"total":7,"new":4,"median_price":180000,"ppsf":141,"dom":129,"pop":6554,"lat":29.38442,"lng":-98.56885},{"zip":"77429","name":"Cypress","pending_pct":0.25,"pending":113,"active":339,"total":452,"new":100,"median_price":425000,"ppsf":156,"dom":39,"pop":96334,"lat":29.99068,"lng":-95.65808},{"zip":"78413","name":"Corpus Christi","pending_pct":0.1871,"pending":32,"active":136,"total":171,"new":36,"median_price":299900,"ppsf":154,"dom":72,"pop":34289,"lat":27.68345,"lng":-97.40409},{"zip":"75089","name":"Rowlett","pending_pct":0.2087,"pending":43,"active":163,"total":206,"new":60,"median_price":425000,"ppsf":177,"dom":50,"pop":35619,"lat":32.93195,"lng":-96.54435},{"zip":"78582","name":"Rio Grande City","pending_pct":0.0652,"pending":6,"active":85,"total":92,"new":12,"median_price":220000,"ppsf":128,"dom":74,"pop":44741,"lat":26.53937,"lng":-98.73985},{"zip":"75770","name":"Larue","pending_pct":0.3182,"pending":7,"active":15,"total":22,"new":4,"median_price":398000,"ppsf":176,"dom":51,"pop":2523,"lat":32.14058,"lng":-95.64694},{"zip":"78250","name":"San Antonio","pending_pct":0.3252,"pending":67,"active":137,"total":206,"new":56,"median_price":255000,"ppsf":166,"dom":50,"pop":57323,"lat":29.50341,"lng":-98.66668},{"zip":"75969","name":"Pollok","pending_pct":0.1667,"pending":2,"active":10,"total":12,"new":4,"median_price":318500,"ppsf":154,"dom":115,"pop":4479,"lat":31.44765,"lng":-94.89758},{"zip":"79734","name":"Fort Davis","pending_pct":0.0444,"pending":2,"active":44,"total":45,"new":4,"median_price":300000,"ppsf":232,"dom":126,"pop":1779,"lat":30.68526,"lng":-103.97911},{"zip":"77587","name":"South Houston","pending_pct":0.2143,"pending":6,"active":22,"total":28,"new":4,"median_price":288500,"ppsf":176,"dom":63,"pop":16033,"lat":29.66117,"lng":-95.22865},{"zip":"78620","name":"Dripping Springs","pending_pct":0.273,"pending":80,"active":214,"total":293,"new":72,"median_price":862500,"ppsf":309,"dom":50,"pop":22860,"lat":30.22214,"lng":-98.13491},{"zip":"76856","name":"Mason","pending_pct":0.0577,"pending":3,"active":48,"total":52,"new":12,"median_price":307500,"ppsf":183,"dom":103,"pop":3532,"lat":30.70296,"lng":-99.26668},{"zip":"75964","name":"Nacogdoches","pending_pct":0.3214,"pending":18,"active":35,"total":56,"new":12,"median_price":329500,"ppsf":163,"dom":75,"pop":20470,"lat":31.63334,"lng":-94.75057},{"zip":"79330","name":"Justiceburg","pending_pct":0.3333,"pending":2,"active":3,"total":6,"new":0,"median_price":299000,"ppsf":166,"dom":94,"pop":56,"lat":33.03072,"lng":-101.21727},{"zip":"76015","name":"Arlington","pending_pct":0.5652,"pending":26,"active":20,"total":46,"new":16,"median_price":300000,"ppsf":187,"dom":25,"pop":18135,"lat":32.69204,"lng":-97.13341},{"zip":"77406","name":"Richmond","pending_pct":0.2586,"pending":180,"active":516,"total":696,"new":180,"median_price":464998,"ppsf":180,"dom":40,"pop":69918,"lat":29.64571,"lng":-95.79184},{"zip":"75411","name":"Arthur City","pending_pct":0.5,"pending":1,"active":2,"total":2,"new":0,"median_price":559000,"ppsf":326,"dom":79,"pop":1090,"lat":33.86275,"lng":-95.63955},{"zip":"75234","name":"Dallas","pending_pct":0.2857,"pending":36,"active":90,"total":126,"new":36,"median_price":440000,"ppsf":246,"dom":43,"pop":32961,"lat":32.92423,"lng":-96.88904},{"zip":"77042","name":"Houston","pending_pct":0.1444,"pending":27,"active":160,"total":187,"new":44,"median_price":133000,"ppsf":125,"dom":52,"pop":38721,"lat":29.74125,"lng":-95.56015},{"zip":"78362","name":"Ingleside","pending_pct":0.1304,"pending":9,"active":60,"total":69,"new":16,"median_price":319000,"ppsf":186,"dom":71,"pop":10816,"lat":27.86668,"lng":-97.20167},{"zip":"76501","name":"Temple","pending_pct":0.3071,"pending":39,"active":86,"total":127,"new":32,"median_price":239500,"ppsf":151,"dom":68,"pop":17752,"lat":31.07555,"lng":-97.25469},{"zip":"77005","name":"Houston","pending_pct":0.3627,"pending":37,"active":65,"total":102,"new":20,"median_price":1650000,"ppsf":510,"dom":47,"pop":28874,"lat":29.71824,"lng":-95.42413},{"zip":"77384","name":"Conroe","pending_pct":0.2438,"pending":59,"active":177,"total":242,"new":44,"median_price":425000,"ppsf":176,"dom":48,"pop":26781,"lat":30.23453,"lng":-95.49675},{"zip":"75214","name":"Dallas","pending_pct":0.2794,"pending":57,"active":145,"total":204,"new":76,"median_price":999000,"ppsf":435,"dom":38,"pop":34274,"lat":32.82899,"lng":-96.74348},{"zip":"77505","name":"Pasadena","pending_pct":0.2286,"pending":16,"active":56,"total":70,"new":24,"median_price":324994,"ppsf":164,"dom":40,"pop":23174,"lat":29.64895,"lng":-95.14284},{"zip":"78873","name":"Leakey","pending_pct":0.0652,"pending":3,"active":42,"total":46,"new":4,"median_price":470000,"ppsf":257,"dom":96,"pop":1472,"lat":29.80966,"lng":-99.73953},{"zip":"77531","name":"Clute","pending_pct":0.2121,"pending":14,"active":53,"total":66,"new":16,"median_price":242000,"ppsf":148,"dom":57,"pop":16406,"lat":29.03895,"lng":-95.40071},{"zip":"78155","name":"Seguin","pending_pct":0.3076,"pending":171,"active":399,"total":556,"new":144,"median_price":299945,"ppsf":162,"dom":61,"pop":55600,"lat":29.53305,"lng":-97.93832},{"zip":"77069","name":"Houston","pending_pct":0.2014,"pending":29,"active":114,"total":144,"new":44,"median_price":345000,"ppsf":133,"dom":44,"pop":20608,"lat":29.98631,"lng":-95.52398},{"zip":"75227","name":"Dallas","pending_pct":0.2222,"pending":28,"active":99,"total":126,"new":20,"median_price":275000,"ppsf":174,"dom":54,"pop":58319,"lat":32.77044,"lng":-96.68831},{"zip":"75455","name":"Mount Pleasant","pending_pct":0.1696,"pending":29,"active":143,"total":171,"new":28,"median_price":329000,"ppsf":168,"dom":74,"pop":26903,"lat":33.21725,"lng":-94.98022},{"zip":"77665","name":"Winnie","pending_pct":0.1739,"pending":4,"active":19,"total":23,"new":4,"median_price":305000,"ppsf":156,"dom":72,"pop":7511,"lat":29.78697,"lng":-94.40969},{"zip":"79415","name":"Lubbock","pending_pct":0.3019,"pending":16,"active":41,"total":53,"new":16,"median_price":194500,"ppsf":136,"dom":37,"pop":15794,"lat":33.69863,"lng":-101.90497},{"zip":"78028","name":"Kerrville","pending_pct":0.1523,"pending":60,"active":340,"total":394,"new":84,"median_price":472450,"ppsf":228,"dom":67,"pop":41206,"lat":30.04115,"lng":-99.16276},{"zip":"78148","name":"Universal City","pending_pct":0.25,"pending":26,"active":79,"total":104,"new":20,"median_price":279000,"ppsf":148,"dom":55,"pop":22187,"lat":29.54331,"lng":-98.29609},{"zip":"79014","name":"Canadian","pending_pct":0.1667,"pending":3,"active":16,"total":18,"new":4,"median_price":160250,"ppsf":92,"dom":84,"pop":3201,"lat":35.91912,"lng":-100.32123},{"zip":"75287","name":"Dallas","pending_pct":0.2766,"pending":26,"active":68,"total":94,"new":24,"median_price":465000,"ppsf":223,"dom":44,"pop":53959,"lat":33.00015,"lng":-96.84075},{"zip":"78415","name":"Corpus Christi","pending_pct":0.3015,"pending":82,"active":190,"total":272,"new":48,"median_price":297250,"ppsf":186,"dom":74,"pop":43080,"lat":27.65437,"lng":-97.48712},{"zip":"75077","name":"Lewisville","pending_pct":0.3415,"pending":56,"active":111,"total":164,"new":68,"median_price":549000,"ppsf":221,"dom":38,"pop":42950,"lat":33.07921,"lng":-97.06401},{"zip":"75495","name":"Van Alstyne","pending_pct":0.2338,"pending":47,"active":154,"total":201,"new":40,"median_price":499990,"ppsf":207,"dom":51,"pop":11120,"lat":33.43246,"lng":-96.55041},{"zip":"76705","name":"Waco","pending_pct":0.3533,"pending":59,"active":115,"total":167,"new":28,"median_price":279750,"ppsf":177,"dom":72,"pop":31616,"lat":31.62448,"lng":-97.08814},{"zip":"76870","name":"Priddy","pending_pct":1.0,"pending":1,"active":1,"total":1,"new":0,"median_price":2950000,"ppsf":2195,"dom":1,"pop":65,"lat":31.60386,"lng":-98.53151},{"zip":"78358","name":"Fulton","pending_pct":0.0769,"pending":3,"active":37,"total":39,"new":4,"median_price":354450,"ppsf":297,"dom":61,"pop":478,"lat":28.06841,"lng":-97.04325},{"zip":"75229","name":"Dallas","pending_pct":0.3023,"pending":52,"active":122,"total":172,"new":44,"median_price":1227000,"ppsf":364,"dom":47,"pop":33656,"lat":32.8939,"lng":-96.86517},{"zip":"78238","name":"San Antonio","pending_pct":0.25,"pending":22,"active":68,"total":88,"new":20,"median_price":256000,"ppsf":166,"dom":40,"pop":26032,"lat":29.47088,"lng":-98.61925},{"zip":"78957","name":"Smithville","pending_pct":0.1538,"pending":16,"active":91,"total":104,"new":12,"median_price":362415,"ppsf":225,"dom":92,"pop":10543,"lat":30.01279,"lng":-97.17481},{"zip":"75050","name":"Grand Prairie","pending_pct":0.2941,"pending":20,"active":47,"total":68,"new":12,"median_price":369000,"ppsf":193,"dom":70,"pop":44889,"lat":32.77428,"lng":-97.0037},{"zip":"76022","name":"Bedford","pending_pct":0.3947,"pending":15,"active":24,"total":38,"new":16,"median_price":329900,"ppsf":206,"dom":51,"pop":13760,"lat":32.83063,"lng":-97.14506},{"zip":"75211","name":"Dallas","pending_pct":0.2202,"pending":24,"active":84,"total":109,"new":32,"median_price":309000,"ppsf":225,"dom":51,"pop":73534,"lat":32.73649,"lng":-96.90214},{"zip":"75417","name":"Bogata","pending_pct":0.1,"pending":1,"active":9,"total":10,"new":4,"median_price":139900,"ppsf":133,"dom":29,"pop":2162,"lat":33.43827,"lng":-95.13114},{"zip":"76179","name":"Fort Worth","pending_pct":0.3791,"pending":221,"active":362,"total":583,"new":164,"median_price":375000,"ppsf":179,"dom":42,"pop":80090,"lat":32.91397,"lng":-97.43947},{"zip":"75236","name":"Dallas","pending_pct":0.1071,"pending":3,"active":24,"total":28,"new":8,"median_price":279900,"ppsf":186,"dom":39,"pop":18963,"lat":32.6866,"lng":-96.93455},{"zip":"77517","name":"Santa Fe","pending_pct":0.2222,"pending":8,"active":29,"total":36,"new":8,"median_price":375000,"ppsf":228,"dom":62,"pop":5529,"lat":29.36253,"lng":-95.1369},{"zip":"75127","name":"Fruitvale","pending_pct":0.125,"pending":1,"active":6,"total":8,"new":0,"median_price":500000,"ppsf":284,"dom":88,"pop":1576,"lat":32.6926,"lng":-95.79262},{"zip":"77302","name":"Conroe","pending_pct":0.3917,"pending":141,"active":221,"total":360,"new":76,"median_price":394790,"ppsf":163,"dom":48,"pop":21546,"lat":30.22626,"lng":-95.36014},{"zip":"78501","name":"Mcallen","pending_pct":0.1745,"pending":41,"active":196,"total":235,"new":32,"median_price":266000,"ppsf":147,"dom":78,"pop":58935,"lat":26.21599,"lng":-98.2391},{"zip":"75640","name":"Diana","pending_pct":0.2,"pending":7,"active":27,"total":35,"new":8,"median_price":380000,"ppsf":191,"dom":104,"pop":6142,"lat":32.7152,"lng":-94.68133},{"zip":"75707","name":"Tyler","pending_pct":0.2696,"pending":31,"active":84,"total":115,"new":28,"median_price":380000,"ppsf":180,"dom":58,"pop":17532,"lat":32.30479,"lng":-95.171},{"zip":"78833","name":"Camp Wood","pending_pct":0.3889,"pending":7,"active":11,"total":18,"new":0,"median_price":340000,"ppsf":313,"dom":98,"pop":1219,"lat":29.69785,"lng":-99.97248},{"zip":"75149","name":"Mesquite","pending_pct":0.2785,"pending":61,"active":156,"total":219,"new":64,"median_price":260000,"ppsf":175,"dom":55,"pop":58262,"lat":32.76994,"lng":-96.6151},{"zip":"76513","name":"Belton","pending_pct":0.3085,"pending":112,"active":257,"total":363,"new":48,"median_price":368900,"ppsf":187,"dom":73,"pop":45928,"lat":31.05777,"lng":-97.50369},{"zip":"79424","name":"Lubbock","pending_pct":0.3586,"pending":142,"active":258,"total":396,"new":112,"median_price":425000,"ppsf":160,"dom":39,"pop":53478,"lat":33.46865,"lng":-101.93881},{"zip":"78147","name":"Poth","pending_pct":0.0556,"pending":1,"active":17,"total":18,"new":4,"median_price":375000,"ppsf":185,"dom":46,"pop":1532,"lat":29.07375,"lng":-98.08017},{"zip":"77904","name":"Victoria","pending_pct":0.3041,"pending":45,"active":98,"total":148,"new":28,"median_price":355950,"ppsf":170,"dom":60,"pop":30061,"lat":28.91788,"lng":-97.0311},{"zip":"75773","name":"Mineola","pending_pct":0.1736,"pending":21,"active":101,"total":121,"new":32,"median_price":359500,"ppsf":186,"dom":62,"pop":14230,"lat":32.67969,"lng":-95.44654},{"zip":"77088","name":"Houston","pending_pct":0.1786,"pending":45,"active":204,"total":252,"new":32,"median_price":279999,"ppsf":151,"dom":61,"pop":57047,"lat":29.88148,"lng":-95.45316},{"zip":"79124","name":"Amarillo","pending_pct":0.375,"pending":33,"active":52,"total":88,"new":12,"median_price":519925,"ppsf":189,"dom":38,"pop":12019,"lat":35.26891,"lng":-102.02705},{"zip":"76078","name":"Rhome","pending_pct":0.3486,"pending":38,"active":71,"total":109,"new":28,"median_price":525000,"ppsf":206,"dom":50,"pop":10828,"lat":33.0896,"lng":-97.46647},{"zip":"78559","name":"La Feria","pending_pct":0.2791,"pending":24,"active":61,"total":86,"new":20,"median_price":267200,"ppsf":170,"dom":77,"pop":12169,"lat":26.14549,"lng":-97.82765},{"zip":"76802","name":"Early","pending_pct":0.2571,"pending":9,"active":24,"total":35,"new":4,"median_price":350000,"ppsf":172,"dom":51,"pop":5415,"lat":31.7194,"lng":-98.8949},{"zip":"78602","name":"Bastrop","pending_pct":0.2321,"pending":91,"active":302,"total":392,"new":84,"median_price":425000,"ppsf":207,"dom":71,"pop":38190,"lat":30.12735,"lng":-97.32801},{"zip":"77075","name":"Houston","pending_pct":0.2674,"pending":23,"active":62,"total":86,"new":24,"median_price":297500,"ppsf":158,"dom":54,"pop":40626,"lat":29.62119,"lng":-95.26749},{"zip":"77007","name":"Houston","pending_pct":0.206,"pending":96,"active":370,"total":466,"new":136,"median_price":535000,"ppsf":239,"dom":45,"pop":47808,"lat":29.77152,"lng":-95.40919},{"zip":"79927","name":"El Paso","pending_pct":0.3178,"pending":41,"active":88,"total":129,"new":28,"median_price":280000,"ppsf":155,"dom":75,"pop":44444,"lat":31.64566,"lng":-106.27359},{"zip":"75968","name":"Pineland","pending_pct":0.2,"pending":2,"active":8,"total":10,"new":0,"median_price":126500,"ppsf":88,"dom":82,"pop":1818,"lat":31.25882,"lng":-93.95924},{"zip":"77808","name":"Bryan","pending_pct":0.2292,"pending":33,"active":112,"total":144,"new":28,"median_price":554500,"ppsf":230,"dom":54,"pop":15797,"lat":30.78965,"lng":-96.31362},{"zip":"76667","name":"Mexia","pending_pct":0.1549,"pending":11,"active":60,"total":71,"new":12,"median_price":224999,"ppsf":126,"dom":66,"pop":10494,"lat":31.65668,"lng":-96.46511},{"zip":"76302","name":"Wichita Falls","pending_pct":0.3256,"pending":14,"active":29,"total":43,"new":20,"median_price":225000,"ppsf":112,"dom":34,"pop":11932,"lat":33.86607,"lng":-98.48487},{"zip":"77879","name":"Somerville","pending_pct":0.2,"pending":10,"active":41,"total":50,"new":12,"median_price":275000,"ppsf":185,"dom":78,"pop":4611,"lat":30.40078,"lng":-96.49378},{"zip":"75228","name":"Dallas","pending_pct":0.2521,"pending":59,"active":173,"total":234,"new":56,"median_price":349945,"ppsf":227,"dom":50,"pop":67714,"lat":32.82456,"lng":-96.6805},{"zip":"76823","name":"Bangs","pending_pct":0.2273,"pending":5,"active":16,"total":22,"new":0,"median_price":133650,"ppsf":102,"dom":39,"pop":2785,"lat":31.68718,"lng":-99.16205},{"zip":"76054","name":"Hurst","pending_pct":0.4386,"pending":25,"active":31,"total":57,"new":28,"median_price":445500,"ppsf":210,"dom":37,"pop":11744,"lat":32.85904,"lng":-97.17789},{"zip":"78576","name":"Penitas","pending_pct":0.1481,"pending":4,"active":22,"total":27,"new":4,"median_price":235000,"ppsf":138,"dom":92,"pop":15484,"lat":26.32584,"lng":-98.46799},{"zip":"78933","name":"Cat Spring","pending_pct":0.25,"pending":1,"active":3,"total":4,"new":0,"median_price":599000,"ppsf":285,"dom":39,"pop":1395,"lat":29.77209,"lng":-96.33829},{"zip":"76486","name":"Perrin","pending_pct":0.4545,"pending":5,"active":6,"total":11,"new":0,"median_price":349000,"ppsf":169,"dom":29,"pop":1123,"lat":33.02138,"lng":-98.05618},{"zip":"78880","name":"Rocksprings","pending_pct":0.2,"pending":1,"active":5,"total":5,"new":0,"median_price":245900,"ppsf":369,"dom":221,"pop":1194,"lat":29.96486,"lng":-100.27779},{"zip":"78141","name":"Nordheim","pending_pct":0.5,"pending":2,"active":3,"total":4,"new":0,"median_price":254500,"ppsf":133,"dom":268,"pop":868,"lat":28.90484,"lng":-97.62365},{"zip":"76950","name":"Sonora","pending_pct":0.1,"pending":2,"active":18,"total":20,"new":0,"median_price":164700,"ppsf":108,"dom":161,"pop":3352,"lat":30.43439,"lng":-100.56564},{"zip":"75555","name":"Bivins","pending_pct":0.1818,"pending":2,"active":8,"total":11,"new":0,"median_price":612250,"ppsf":147,"dom":127,"pop":1630,"lat":32.94564,"lng":-94.13696},{"zip":"76861","name":"Miles","pending_pct":0.2,"pending":1,"active":4,"total":5,"new":4,"median_price":415000,"ppsf":141,"dom":42,"pop":2177,"lat":31.59216,"lng":-100.19637},{"zip":"75852","name":"Midway","pending_pct":null,"pending":null,"active":7,"total":7,"new":0,"median_price":549900,"ppsf":252,"dom":33,"pop":3323,"lat":30.98723,"lng":-95.72023},{"zip":"79034","name":"Follett","pending_pct":null,"pending":null,"active":3,"total":3,"new":0,"median_price":149000,"ppsf":90,"dom":36,"pop":418,"lat":36.37524,"lng":-100.16581},{"zip":"76077","name":"Rainbow","pending_pct":null,"pending":null,"active":2,"total":2,"new":0,"median_price":617450,"ppsf":268,"dom":29,"pop":1001,"lat":32.27886,"lng":-97.70891},{"zip":"77444","name":"Guy","pending_pct":null,"pending":null,"active":8,"total":8,"new":0,"median_price":374500,"ppsf":196,"dom":161,"pop":911,"lat":29.29641,"lng":-95.77794},{"zip":"76828","name":"Burkett","pending_pct":null,"pending":null,"active":1,"total":1,"new":0,"median_price":29099,"ppsf":22,"dom":null,"pop":168,"lat":32.00728,"lng":-99.28435},{"zip":"76866","name":"Paint Rock","pending_pct":null,"pending":null,"active":6,"total":6,"new":0,"median_price":173450,"ppsf":131,"dom":66,"pop":1111,"lat":31.45181,"lng":-99.92922},{"zip":"77470","name":"Rock Island","pending_pct":null,"pending":null,"active":1,"total":1,"new":4,"median_price":269000,"ppsf":166,"dom":2,"pop":414,"lat":29.52775,"lng":-96.55305},{"zip":"76681","name":"Richland","pending_pct":null,"pending":null,"active":6,"total":6,"new":0,"median_price":240000,"ppsf":147,"dom":177,"pop":674,"lat":31.91071,"lng":-96.44006},{"zip":"76930","name":"Barnhart","pending_pct":null,"pending":null,"active":1,"total":1,"new":0,"median_price":175000,"ppsf":98,"dom":39,"pop":81,"lat":31.11075,"lng":-101.11975},{"zip":"78142","name":"Normanna","pending_pct":null,"pending":null,"active":2,"total":2,"new":0,"median_price":112250,"ppsf":120,"dom":178,"pop":0,"lat":28.53632,"lng":-97.81297},{"zip":"79061","name":"Mobeetie","pending_pct":null,"pending":null,"active":8,"total":8,"new":0,"median_price":179000,"ppsf":108,"dom":24,"pop":288,"lat":35.51987,"lng":-100.45706},{"zip":"78159","name":"Smiley","pending_pct":null,"pending":null,"active":3,"total":3,"new":0,"median_price":82500,"ppsf":91,"dom":109,"pop":623,"lat":29.23031,"lng":-97.58247},{"zip":"79851","name":"Sierra Blanca","pending_pct":null,"pending":null,"active":1,"total":1,"new":0,"median_price":92450,"ppsf":50,"dom":14,"pop":1198,"lat":31.2687,"lng":-105.26255},{"zip":"79005","name":"Booker","pending_pct":null,"pending":null,"active":4,"total":4,"new":0,"median_price":144250,"ppsf":112,"dom":33,"pop":1536,"lat":36.3874,"lng":-100.50627},{"zip":"78719","name":"Austin","pending_pct":null,"pending":null,"active":3,"total":3,"new":0,"median_price":825000,"ppsf":546,"dom":198,"pop":1796,"lat":30.14465,"lng":-97.67148},{"zip":"76864","name":"Mullin","pending_pct":null,"pending":null,"active":8,"total":8,"new":0,"median_price":544950,"ppsf":252,"dom":75,"pop":798,"lat":31.54561,"lng":-98.73637},{"zip":"78932","name":"Carmine","pending_pct":null,"pending":null,"active":5,"total":5,"new":0,"median_price":461900,"ppsf":235,"dom":53,"pop":576,"lat":30.1656,"lng":-96.70793},{"zip":"76859","name":"Menard","pending_pct":null,"pending":null,"active":4,"total":4,"new":0,"median_price":595000,"ppsf":143,"dom":149,"pop":1641,"lat":30.87106,"lng":-99.83123},{"zip":"78039","name":"La Coste","pending_pct":0.1111,"pending":1,"active":8,"total":9,"new":0,"median_price":399500,"ppsf":215,"dom":67,"pop":1862,"lat":29.31324,"lng":-98.82528},{"zip":"79932","name":"El Paso","pending_pct":0.237,"pending":50,"active":159,"total":211,"new":56,"median_price":589975,"ppsf":216,"dom":107,"pop":30786,"lat":31.87753,"lng":-106.6068},{"zip":"79042","name":"Happy","pending_pct":0.5,"pending":2,"active":2,"total":4,"new":0,"median_price":295000,"ppsf":140,"dom":114,"pop":1218,"lat":34.74802,"lng":-101.89449},{"zip":"76009","name":"Alvarado","pending_pct":0.2797,"pending":33,"active":85,"total":118,"new":24,"median_price":349500,"ppsf":178,"dom":61,"pop":22803,"lat":32.41635,"lng":-97.20115},{"zip":"76903","name":"San Angelo","pending_pct":0.2652,"pending":35,"active":98,"total":132,"new":32,"median_price":193500,"ppsf":152,"dom":54,"pop":29947,"lat":31.48168,"lng":-100.43787},{"zip":"78520","name":"Brownsville","pending_pct":0.2216,"pending":41,"active":144,"total":185,"new":72,"median_price":264500,"ppsf":161,"dom":76,"pop":64740,"lat":25.96564,"lng":-97.55103},{"zip":"75119","name":"Ennis","pending_pct":0.3376,"pending":53,"active":105,"total":157,"new":36,"median_price":296750,"ppsf":175,"dom":51,"pop":31866,"lat":32.32293,"lng":-96.59107},{"zip":"77983","name":"Seadrift","pending_pct":0.129,"pending":4,"active":27,"total":31,"new":4,"median_price":271900,"ppsf":230,"dom":68,"pop":2529,"lat":28.39874,"lng":-96.64049},{"zip":"75966","name":"Newton","pending_pct":0.1667,"pending":6,"active":30,"total":36,"new":0,"median_price":175000,"ppsf":98,"dom":50,"pop":4994,"lat":30.83783,"lng":-93.72611},{"zip":"75961","name":"Nacogdoches","pending_pct":0.25,"pending":8,"active":24,"total":32,"new":4,"median_price":269250,"ppsf":152,"dom":106,"pop":15183,"lat":31.5576,"lng":-94.51098},{"zip":"76570","name":"Rosebud","pending_pct":0.5455,"pending":6,"active":5,"total":11,"new":4,"median_price":208000,"ppsf":118,"dom":128,"pop":2339,"lat":31.0818,"lng":-96.94173},{"zip":"75489","name":"Tom Bean","pending_pct":0.5,"pending":1,"active":2,"total":2,"new":0,"median_price":229500,"ppsf":120,"dom":54,"pop":803,"lat":33.5204,"lng":-96.48467},{"zip":"75652","name":"Henderson","pending_pct":0.2128,"pending":10,"active":37,"total":47,"new":4,"median_price":250000,"ppsf":128,"dom":76,"pop":15290,"lat":32.2301,"lng":-94.7281},{"zip":"78660","name":"Pflugerville","pending_pct":0.2717,"pending":163,"active":438,"total":600,"new":176,"median_price":399000,"ppsf":189,"dom":51,"pop":124834,"lat":30.44361,"lng":-97.59558},{"zip":"79553","name":"Stamford","pending_pct":0.3846,"pending":5,"active":8,"total":13,"new":0,"median_price":128950,"ppsf":92,"dom":51,"pop":3089,"lat":32.93785,"lng":-99.84022},{"zip":"76106","name":"Fort Worth","pending_pct":0.2927,"pending":12,"active":28,"total":41,"new":12,"median_price":259900,"ppsf":187,"dom":45,"pop":35946,"lat":32.81417,"lng":-97.35209},{"zip":"76225","name":"Alvord","pending_pct":0.4107,"pending":23,"active":32,"total":56,"new":8,"median_price":440000,"ppsf":228,"dom":74,"pop":3487,"lat":33.36616,"lng":-97.67345},{"zip":"75478","name":"Saltillo","pending_pct":0.2,"pending":1,"active":4,"total":5,"new":0,"median_price":432000,"ppsf":192,"dom":77,"pop":927,"lat":33.17276,"lng":-95.35226},{"zip":"75839","name":"Elkhart","pending_pct":0.0588,"pending":1,"active":17,"total":17,"new":0,"median_price":246000,"ppsf":155,"dom":44,"pop":6796,"lat":31.6181,"lng":-95.55738},{"zip":"78010","name":"Center Point","pending_pct":0.1613,"pending":5,"active":28,"total":31,"new":8,"median_price":785000,"ppsf":341,"dom":78,"pop":3635,"lat":29.91122,"lng":-99.04698},{"zip":"77080","name":"Houston","pending_pct":0.2146,"pending":53,"active":197,"total":247,"new":56,"median_price":419990,"ppsf":215,"dom":46,"pop":47638,"lat":29.81662,"lng":-95.52375},{"zip":"79225","name":"Chillicothe","pending_pct":0.5,"pending":2,"active":3,"total":4,"new":0,"median_price":198400,"ppsf":88,"dom":192,"pop":756,"lat":34.25058,"lng":-99.50831},{"zip":"76110","name":"Fort Worth","pending_pct":0.254,"pending":32,"active":95,"total":126,"new":20,"median_price":385000,"ppsf":238,"dom":61,"pop":33441,"lat":32.70678,"lng":-97.33843},{"zip":"78408","name":"Corpus Christi","pending_pct":0.0526,"pending":1,"active":18,"total":19,"new":8,"median_price":172450,"ppsf":118,"dom":89,"pop":10111,"lat":27.80081,"lng":-97.44339},{"zip":"77407","name":"Richmond","pending_pct":0.2208,"pending":85,"active":304,"total":385,"new":120,"median_price":429950,"ppsf":173,"dom":36,"pop":88319,"lat":29.67658,"lng":-95.71455},{"zip":"77434","name":"Eagle Lake","pending_pct":0.1905,"pending":4,"active":18,"total":21,"new":4,"median_price":198700,"ppsf":125,"dom":96,"pop":3970,"lat":29.52577,"lng":-96.31983},{"zip":"79849","name":"San Elizario","pending_pct":0.4444,"pending":4,"active":5,"total":9,"new":4,"median_price":245000,"ppsf":140,"dom":69,"pop":14409,"lat":31.56449,"lng":-106.25275},{"zip":"78642","name":"Liberty Hill","pending_pct":0.3897,"pending":189,"active":291,"total":485,"new":96,"median_price":544655,"ppsf":209,"dom":52,"pop":26434,"lat":30.6946,"lng":-97.94087},{"zip":"77651","name":"Port Neches","pending_pct":0.3175,"pending":20,"active":47,"total":63,"new":12,"median_price":269900,"ppsf":146,"dom":54,"pop":13664,"lat":29.98036,"lng":-93.94821},{"zip":"75240","name":"Dallas","pending_pct":0.1625,"pending":13,"active":68,"total":80,"new":24,"median_price":563999,"ppsf":274,"dom":54,"pop":25290,"lat":32.93194,"lng":-96.78924},{"zip":"75570","name":"New Boston","pending_pct":0.2653,"pending":13,"active":36,"total":49,"new":4,"median_price":249000,"ppsf":146,"dom":62,"pop":11391,"lat":33.4649,"lng":-94.4389},{"zip":"75093","name":"Plano","pending_pct":0.3711,"pending":59,"active":100,"total":159,"new":64,"median_price":820000,"ppsf":263,"dom":33,"pop":47954,"lat":33.03521,"lng":-96.80943},{"zip":"77096","name":"Houston","pending_pct":0.2183,"pending":31,"active":108,"total":142,"new":44,"median_price":519000,"ppsf":226,"dom":43,"pop":35032,"lat":29.67464,"lng":-95.47965},{"zip":"77081","name":"Houston","pending_pct":0.1379,"pending":4,"active":24,"total":29,"new":4,"median_price":250000,"ppsf":171,"dom":52,"pop":50129,"lat":29.71219,"lng":-95.48026},{"zip":"75704","name":"Tyler","pending_pct":0.2639,"pending":19,"active":54,"total":72,"new":12,"median_price":419900,"ppsf":202,"dom":61,"pop":8913,"lat":32.40616,"lng":-95.4407},{"zip":"78343","name":"Bishop","pending_pct":0.1765,"pending":3,"active":14,"total":17,"new":4,"median_price":112400,"ppsf":88,"dom":128,"pop":4345,"lat":27.62163,"lng":-97.77216},{"zip":"79336","name":"Levelland","pending_pct":0.209,"pending":14,"active":55,"total":67,"new":12,"median_price":222200,"ppsf":107,"dom":54,"pop":15132,"lat":33.59962,"lng":-102.40214},{"zip":"77577","name":"Liverpool","pending_pct":0.1667,"pending":1,"active":5,"total":6,"new":0,"median_price":188000,"ppsf":172,"dom":115,"pop":1562,"lat":29.25966,"lng":-95.26731},{"zip":"77703","name":"Beaumont","pending_pct":0.122,"pending":5,"active":37,"total":41,"new":12,"median_price":119000,"ppsf":87,"dom":44,"pop":11004,"lat":30.11522,"lng":-94.10906},{"zip":"78648","name":"Luling","pending_pct":0.1698,"pending":9,"active":43,"total":53,"new":12,"median_price":262000,"ppsf":170,"dom":55,"pop":7863,"lat":29.69594,"lng":-97.63827},{"zip":"76238","name":"Era","pending_pct":0.5,"pending":1,"active":1,"total":2,"new":0,"median_price":322500,"ppsf":203,"dom":43,"pop":657,"lat":33.4861,"lng":-97.34148},{"zip":"76549","name":"Killeen","pending_pct":0.2848,"pending":86,"active":217,"total":302,"new":64,"median_price":245000,"ppsf":136,"dom":53,"pop":56038,"lat":31.01583,"lng":-97.82546},{"zip":"78368","name":"Mathis","pending_pct":0.1064,"pending":5,"active":42,"total":47,"new":8,"median_price":234900,"ppsf":168,"dom":86,"pop":9464,"lat":28.11299,"lng":-97.81201},{"zip":"78655","name":"Martindale","pending_pct":0.1429,"pending":2,"active":12,"total":14,"new":4,"median_price":569700,"ppsf":257,"dom":54,"pop":3730,"lat":29.82346,"lng":-97.83517},{"zip":"79366","name":"Ransom Canyon","pending_pct":0.1765,"pending":3,"active":14,"total":17,"new":4,"median_price":460000,"ppsf":168,"dom":73,"pop":1041,"lat":33.53016,"lng":-101.68367},{"zip":"75254","name":"Dallas","pending_pct":0.1494,"pending":13,"active":74,"total":87,"new":28,"median_price":229995,"ppsf":223,"dom":52,"pop":25050,"lat":32.94571,"lng":-96.80127},{"zip":"75248","name":"Dallas","pending_pct":0.2443,"pending":54,"active":166,"total":221,"new":68,"median_price":604500,"ppsf":245,"dom":46,"pop":38459,"lat":32.96957,"lng":-96.79542},{"zip":"76626","name":"Blooming Grove","pending_pct":0.4,"pending":2,"active":3,"total":5,"new":0,"median_price":248000,"ppsf":186,"dom":25,"pop":1036,"lat":32.10522,"lng":-96.71615},{"zip":"79097","name":"White Deer","pending_pct":0.125,"pending":1,"active":6,"total":8,"new":0,"median_price":235736,"ppsf":158,"dom":80,"pop":1347,"lat":35.43104,"lng":-101.17405},{"zip":"75630","name":"Avinger","pending_pct":0.1944,"pending":7,"active":31,"total":36,"new":8,"median_price":345000,"ppsf":190,"dom":112,"pop":2452,"lat":32.87588,"lng":-94.5572},{"zip":"79411","name":"Lubbock","pending_pct":0.2034,"pending":12,"active":47,"total":59,"new":8,"median_price":127000,"ppsf":96,"dom":58,"pop":6865,"lat":33.57012,"lng":-101.85773},{"zip":"78754","name":"Austin","pending_pct":0.2193,"pending":25,"active":88,"total":114,"new":24,"median_price":372000,"ppsf":191,"dom":46,"pop":32690,"lat":30.35633,"lng":-97.63925},{"zip":"79102","name":"Amarillo","pending_pct":0.3056,"pending":11,"active":25,"total":36,"new":12,"median_price":198150,"ppsf":114,"dom":94,"pop":9393,"lat":35.19948,"lng":-101.84661},{"zip":"79007","name":"Borger","pending_pct":0.2593,"pending":21,"active":59,"total":81,"new":20,"median_price":174725,"ppsf":98,"dom":45,"pop":13889,"lat":35.66635,"lng":-101.41444},{"zip":"77098","name":"Houston","pending_pct":0.2455,"pending":27,"active":84,"total":110,"new":20,"median_price":1017500,"ppsf":391,"dom":57,"pop":17210,"lat":29.73482,"lng":-95.41526},{"zip":"78252","name":"San Antonio","pending_pct":0.2779,"pending":97,"active":249,"total":349,"new":100,"median_price":268745,"ppsf":153,"dom":50,"pop":21790,"lat":29.34167,"lng":-98.69682},{"zip":"79201","name":"Childress","pending_pct":0.5333,"pending":8,"active":6,"total":15,"new":4,"median_price":176250,"ppsf":83,"dom":32,"pop":6779,"lat":34.4101,"lng":-100.33521},{"zip":"75081","name":"Richardson","pending_pct":0.3043,"pending":35,"active":80,"total":115,"new":52,"median_price":415000,"ppsf":206,"dom":41,"pop":36544,"lat":32.94969,"lng":-96.70899},{"zip":"78757","name":"Austin","pending_pct":0.2097,"pending":39,"active":142,"total":186,"new":44,"median_price":650000,"ppsf":406,"dom":56,"pop":23856,"lat":30.35164,"lng":-97.73267},{"zip":"75038","name":"Irving","pending_pct":0.2674,"pending":23,"active":64,"total":86,"new":32,"median_price":549500,"ppsf":221,"dom":47,"pop":32755,"lat":32.87231,"lng":-96.97946},{"zip":"78623","name":"Fischer","pending_pct":0.1017,"pending":6,"active":50,"total":59,"new":12,"median_price":569900,"ppsf":263,"dom":79,"pop":1645,"lat":29.95973,"lng":-98.21933},{"zip":"77503","name":"Pasadena","pending_pct":0.36,"pending":18,"active":33,"total":50,"new":12,"median_price":237200,"ppsf":158,"dom":52,"pop":23866,"lat":29.69078,"lng":-95.15781},{"zip":"75449","name":"Ladonia","pending_pct":0.0909,"pending":1,"active":11,"total":11,"new":0,"median_price":369000,"ppsf":199,"dom":77,"pop":868,"lat":33.423,"lng":-95.9493},{"zip":"78040","name":"Laredo","pending_pct":0.0625,"pending":2,"active":30,"total":32,"new":12,"median_price":140000,"ppsf":132,"dom":69,"pop":35709,"lat":27.51349,"lng":-99.50232},{"zip":"77657","name":"Lumberton","pending_pct":0.2603,"pending":38,"active":112,"total":146,"new":28,"median_price":429000,"ppsf":172,"dom":63,"pop":22258,"lat":30.22549,"lng":-94.18862},{"zip":"75491","name":"Whitewright","pending_pct":0.1556,"pending":7,"active":37,"total":45,"new":12,"median_price":365000,"ppsf":200,"dom":71,"pop":5471,"lat":33.49741,"lng":-96.39485},{"zip":"78953","name":"Rosanky","pending_pct":0.2222,"pending":2,"active":8,"total":9,"new":0,"median_price":527000,"ppsf":258,"dom":118,"pop":1089,"lat":29.85552,"lng":-97.35214},{"zip":"76043","name":"Glen Rose","pending_pct":0.25,"pending":14,"active":43,"total":56,"new":16,"median_price":464900,"ppsf":214,"dom":65,"pop":6858,"lat":32.20039,"lng":-97.76129},{"zip":"76537","name":"Jarrell","pending_pct":0.3707,"pending":119,"active":202,"total":321,"new":64,"median_price":275000,"ppsf":157,"dom":65,"pop":16272,"lat":30.81779,"lng":-97.60645},{"zip":"78595","name":"Sullivan City","pending_pct":0.1667,"pending":2,"active":11,"total":12,"new":0,"median_price":169000,"ppsf":78,"dom":88,"pop":6118,"lat":26.31457,"lng":-98.54038},{"zip":"77419","name":"Blessing","pending_pct":0.2,"pending":1,"active":5,"total":5,"new":0,"median_price":116680,"ppsf":84,"dom":190,"pop":609,"lat":28.8692,"lng":-96.25603},{"zip":"78263","name":"San Antonio","pending_pct":0.3362,"pending":39,"active":77,"total":116,"new":20,"median_price":259999,"ppsf":148,"dom":43,"pop":4253,"lat":29.35084,"lng":-98.31219},{"zip":"78215","name":"San Antonio","pending_pct":0.3333,"pending":2,"active":4,"total":6,"new":0,"median_price":625000,"ppsf":284,"dom":141,"pop":3506,"lat":29.4404,"lng":-98.48031},{"zip":"77093","name":"Houston","pending_pct":0.1905,"pending":12,"active":51,"total":63,"new":12,"median_price":232000,"ppsf":164,"dom":57,"pop":46407,"lat":29.8623,"lng":-95.34097},{"zip":"78759","name":"Austin","pending_pct":0.3077,"pending":48,"active":109,"total":156,"new":48,"median_price":660000,"ppsf":323,"dom":47,"pop":43182,"lat":30.4027,"lng":-97.76093},{"zip":"78884","name":"Utopia","pending_pct":0.0667,"pending":1,"active":15,"total":15,"new":0,"median_price":469250,"ppsf":321,"dom":169,"pop":1171,"lat":29.63823,"lng":-99.49308},{"zip":"76180","name":"North Richland Hills","pending_pct":0.463,"pending":50,"active":66,"total":108,"new":40,"median_price":385000,"ppsf":192,"dom":40,"pop":38371,"lat":32.83994,"lng":-97.22468},{"zip":"77335","name":"Goodrich","pending_pct":0.1538,"pending":2,"active":11,"total":13,"new":4,"median_price":228750,"ppsf":175,"dom":43,"pop":2468,"lat":30.58901,"lng":-94.92353},{"zip":"78154","name":"Schertz","pending_pct":0.31,"pending":93,"active":210,"total":300,"new":76,"median_price":368120,"ppsf":170,"dom":46,"pop":41907,"lat":29.54774,"lng":-98.26574},{"zip":"76623","name":"Avalon","pending_pct":0.5,"pending":1,"active":1,"total":2,"new":0,"median_price":479000,"ppsf":235,"dom":44,"pop":186,"lat":32.219,"lng":-96.78879},{"zip":"75230","name":"Dallas","pending_pct":0.2008,"pending":51,"active":203,"total":254,"new":68,"median_price":1100000,"ppsf":343,"dom":54,"pop":27763,"lat":32.90202,"lng":-96.79226},{"zip":"75067","name":"Lewisville","pending_pct":0.28,"pending":49,"active":133,"total":175,"new":68,"median_price":397000,"ppsf":213,"dom":38,"pop":66913,"lat":33.01416,"lng":-97.00268},{"zip":"78407","name":"Corpus Christi","pending_pct":0.1667,"pending":1,"active":5,"total":6,"new":0,"median_price":130000,"ppsf":146,"dom":58,"pop":1674,"lat":27.80762,"lng":-97.44772},{"zip":"77502","name":"Pasadena","pending_pct":0.2812,"pending":18,"active":46,"total":64,"new":20,"median_price":249500,"ppsf":157,"dom":49,"pop":36371,"lat":29.67984,"lng":-95.19953},{"zip":"78217","name":"San Antonio","pending_pct":0.1765,"pending":27,"active":121,"total":153,"new":32,"median_price":245000,"ppsf":161,"dom":64,"pop":34055,"lat":29.54073,"lng":-98.42097},{"zip":"79052","name":"Kress","pending_pct":0.25,"pending":1,"active":4,"total":4,"new":0,"median_price":267450,"ppsf":92,"dom":64,"pop":1101,"lat":34.35869,"lng":-101.76276},{"zip":"76636","name":"Covington","pending_pct":0.1818,"pending":2,"active":10,"total":11,"new":0,"median_price":319900,"ppsf":214,"dom":68,"pop":1748,"lat":32.17213,"lng":-97.28307},{"zip":"78014","name":"Cotulla","pending_pct":0.2,"pending":1,"active":4,"total":5,"new":0,"median_price":124500,"ppsf":84,"dom":239,"pop":5002,"lat":28.39837,"lng":-99.10946},{"zip":"76621","name":"Abbott","pending_pct":0.2,"pending":1,"active":5,"total":5,"new":0,"median_price":495000,"ppsf":201,"dom":73,"pop":1104,"lat":31.87789,"lng":-97.08891},{"zip":"77853","name":"Dime Box","pending_pct":0.1667,"pending":1,"active":6,"total":6,"new":0,"median_price":336500,"ppsf":182,"dom":114,"pop":884,"lat":30.3623,"lng":-96.84035},{"zip":"77991","name":"Vanderbilt","pending_pct":0.5,"pending":1,"active":1,"total":2,"new":0,"median_price":210000,"ppsf":132,"dom":10,"pop":440,"lat":28.7866,"lng":-96.59467},{"zip":"75560","name":"Douglassville","pending_pct":0.3333,"pending":1,"active":3,"total":3,"new":0,"median_price":574900,"ppsf":279,"dom":119,"pop":962,"lat":33.1957,"lng":-94.36699},{"zip":"79372","name":"Sundown","pending_pct":0.4,"pending":2,"active":3,"total":5,"new":0,"median_price":274000,"ppsf":110,"dom":64,"pop":1359,"lat":33.42482,"lng":-102.50108},{"zip":"79788","name":"Wickett","pending_pct":null,"pending":null,"active":2,"total":2,"new":0,"median_price":185000,"ppsf":154,"dom":16,"pop":699,"lat":31.60544,"lng":-102.98261},{"zip":"79351","name":"Odonnell","pending_pct":null,"pending":null,"active":3,"total":3,"new":0,"median_price":110000,"ppsf":98,"dom":148,"pop":1044,"lat":32.93191,"lng":-101.78581},{"zip":"76827","name":"Brookesmith","pending_pct":null,"pending":null,"active":2,"total":2,"new":0,"median_price":463248,"ppsf":522,"dom":93,"pop":731,"lat":31.52589,"lng":-99.13031},{"zip":"76652","name":"Kopperl","pending_pct":null,"pending":null,"active":7,"total":7,"new":0,"median_price":400000,"ppsf":219,"dom":113,"pop":1044,"lat":32.11331,"lng":-97.57648},{"zip":"78004","name":"Bergheim","pending_pct":null,"pending":null,"active":1,"total":1,"new":0,"median_price":962500,"ppsf":314,"dom":40,"pop":547,"lat":29.85767,"lng":-98.53773},{"zip":"79018","name":"Channing","pending_pct":null,"pending":null,"active":2,"total":2,"new":0,"median_price":154500,"ppsf":77,"dom":16,"pop":367,"lat":35.69322,"lng":-102.33767},{"zip":"78021","name":"Fowlerton","pending_pct":null,"pending":null,"active":1,"total":1,"new":4,"median_price":230000,"ppsf":153,"dom":2,"pop":165,"lat":28.4318,"lng":-98.83489},{"zip":"76373","name":"Oklaunion","pending_pct":null,"pending":null,"active":1,"total":1,"new":0,"median_price":135000,"ppsf":64,"dom":87,"pop":181,"lat":34.15541,"lng":-99.11973},{"zip":"75933","name":"Call","pending_pct":null,"pending":null,"active":3,"total":3,"new":0,"median_price":200000,"ppsf":108,"dom":52,"pop":1418,"lat":30.55314,"lng":-93.81608},{"zip":"78946","name":"Ledbetter","pending_pct":null,"pending":null,"active":6,"total":6,"new":0,"median_price":499500,"ppsf":548,"dom":87,"pop":1117,"lat":30.18947,"lng":-96.77412},{"zip":"79548","name":"Rule","pending_pct":null,"pending":null,"active":1,"total":1,"new":2,"median_price":309900,"ppsf":131,"dom":5,"pop":104,"lat":33.06989,"lng":-99.93005},{"zip":"76885","name":"Valley Spring","pending_pct":null,"pending":null,"active":1,"total":1,"new":0,"median_price":459900,"ppsf":307,"dom":57,"pop":142,"lat":30.87304,"lng":-98.85742},{"zip":"79705","name":"Midland","pending_pct":0.2346,"pending":57,"active":186,"total":243,"new":88,"median_price":412500,"ppsf":183,"dom":40,"pop":46653,"lat":32.09619,"lng":-102.0508},{"zip":"79605","name":"Abilene","pending_pct":0.6582,"pending":52,"active":26,"total":79,"new":32,"median_price":319000,"ppsf":158,"dom":37,"pop":28467,"lat":32.43394,"lng":-99.78182},{"zip":"77336","name":"Huffman","pending_pct":0.3668,"pending":73,"active":127,"total":199,"new":32,"median_price":274950,"ppsf":156,"dom":49,"pop":14342,"lat":30.06842,"lng":-95.10306},{"zip":"77514","name":"Anahuac","pending_pct":0.2727,"pending":12,"active":34,"total":44,"new":8,"median_price":365000,"ppsf":169,"dom":104,"pop":5480,"lat":29.69096,"lng":-94.62598},{"zip":"78101","name":"Adkins","pending_pct":0.4375,"pending":35,"active":42,"total":80,"new":12,"median_price":547000,"ppsf":221,"dom":74,"pop":7267,"lat":29.34444,"lng":-98.23316},{"zip":"75088","name":"Rowlett","pending_pct":0.2031,"pending":39,"active":157,"total":192,"new":72,"median_price":429000,"ppsf":184,"dom":50,"pop":28075,"lat":32.89368,"lng":-96.53929},{"zip":"78738","name":"Austin","pending_pct":0.2515,"pending":86,"active":257,"total":342,"new":104,"median_price":1039450,"ppsf":305,"dom":52,"pop":31019,"lat":30.30668,"lng":-97.99002},{"zip":"79928","name":"El Paso","pending_pct":0.3077,"pending":372,"active":850,"total":1209,"new":216,"median_price":321950,"ppsf":182,"dom":68,"pop":86599,"lat":31.67896,"lng":-106.11511},{"zip":"78133","name":"Canyon Lake","pending_pct":0.1039,"pending":53,"active":461,"total":510,"new":80,"median_price":467500,"ppsf":252,"dom":72,"pop":21959,"lat":29.88119,"lng":-98.24624},{"zip":"76633","name":"China Spring","pending_pct":0.254,"pending":16,"active":47,"total":63,"new":4,"median_price":480000,"ppsf":205,"dom":55,"pop":6268,"lat":31.6857,"lng":-97.32503},{"zip":"78751","name":"Austin","pending_pct":0.2596,"pending":27,"active":77,"total":104,"new":24,"median_price":595000,"ppsf":438,"dom":59,"pop":16961,"lat":30.3108,"lng":-97.72278},{"zip":"79356","name":"Post","pending_pct":0.1429,"pending":2,"active":12,"total":14,"new":0,"median_price":162450,"ppsf":80,"dom":64,"pop":5083,"lat":33.2562,"lng":-101.33245},{"zip":"76502","name":"Temple","pending_pct":0.2578,"pending":149,"active":422,"total":578,"new":112,"median_price":305000,"ppsf":169,"dom":65,"pop":52669,"lat":31.09388,"lng":-97.41082},{"zip":"77094","name":"Houston","pending_pct":0.375,"pending":12,"active":20,"total":32,"new":8,"median_price":607500,"ppsf":199,"dom":31,"pop":10395,"lat":29.7738,"lng":-95.69955},{"zip":"75762","name":"Flint","pending_pct":0.236,"pending":38,"active":121,"total":161,"new":52,"median_price":395000,"ppsf":195,"dom":57,"pop":15704,"lat":32.21926,"lng":-95.41218},{"zip":"77008","name":"Houston","pending_pct":0.225,"pending":99,"active":336,"total":440,"new":116,"median_price":614950,"ppsf":271,"dom":36,"pop":41645,"lat":29.79856,"lng":-95.41766},{"zip":"77009","name":"Houston","pending_pct":0.1482,"pending":59,"active":334,"total":398,"new":84,"median_price":450000,"ppsf":259,"dom":50,"pop":35769,"lat":29.79499,"lng":-95.36758},{"zip":"75116","name":"Duncanville","pending_pct":0.234,"pending":11,"active":34,"total":47,"new":20,"median_price":299800,"ppsf":172,"dom":38,"pop":19954,"lat":32.66013,"lng":-96.91402},{"zip":"79109","name":"Amarillo","pending_pct":0.3672,"pending":65,"active":115,"total":177,"new":52,"median_price":285000,"ppsf":140,"dom":53,"pop":43578,"lat":35.1665,"lng":-101.88633},{"zip":"76904","name":"San Angelo","pending_pct":0.3065,"pending":99,"active":224,"total":323,"new":76,"median_price":382250,"ppsf":192,"dom":53,"pop":36954,"lat":31.28844,"lng":-100.41695},{"zip":"77493","name":"Katy","pending_pct":0.3255,"pending":404,"active":830,"total":1241,"new":288,"median_price":392990,"ppsf":171,"dom":45,"pop":71484,"lat":29.85193,"lng":-95.83025},{"zip":"79543","name":"Roby","pending_pct":0.1667,"pending":1,"active":5,"total":6,"new":0,"median_price":350000,"ppsf":139,"dom":103,"pop":1091,"lat":32.71864,"lng":-100.38724},{"zip":"75060","name":"Irving","pending_pct":0.3333,"pending":26,"active":52,"total":78,"new":24,"median_price":350000,"ppsf":206,"dom":50,"pop":47591,"lat":32.79774,"lng":-96.95295},{"zip":"76471","name":"Rising Star","pending_pct":0.4167,"pending":5,"active":8,"total":12,"new":4,"median_price":192900,"ppsf":160,"dom":75,"pop":1484,"lat":32.11117,"lng":-98.98499},{"zip":"75087","name":"Rockwall","pending_pct":0.2553,"pending":109,"active":322,"total":427,"new":100,"median_price":519900,"ppsf":193,"dom":55,"pop":44326,"lat":32.94581,"lng":-96.44136},{"zip":"75182","name":"Sunnyvale","pending_pct":0.2286,"pending":8,"active":28,"total":35,"new":8,"median_price":799900,"ppsf":219,"dom":43,"pop":8336,"lat":32.80033,"lng":-96.55425},{"zip":"78017","name":"Dilley","pending_pct":0.25,"pending":1,"active":3,"total":4,"new":0,"median_price":175000,"ppsf":117,"dom":74,"pop":5551,"lat":28.72456,"lng":-99.20455},{"zip":"77378","name":"Willis","pending_pct":0.2722,"pending":46,"active":115,"total":169,"new":40,"median_price":266500,"ppsf":178,"dom":48,"pop":17629,"lat":30.45873,"lng":-95.37454},{"zip":"75925","name":"Alto","pending_pct":0.1667,"pending":2,"active":10,"total":12,"new":4,"median_price":219500,"ppsf":136,"dom":75,"pop":3657,"lat":31.61018,"lng":-95.05327},{"zip":"75117","name":"Edgewood","pending_pct":0.2766,"pending":13,"active":33,"total":47,"new":12,"median_price":433450,"ppsf":243,"dom":74,"pop":5109,"lat":32.71005,"lng":-95.85268},{"zip":"75482","name":"Sulphur Springs","pending_pct":0.1457,"pending":22,"active":126,"total":151,"new":40,"median_price":285000,"ppsf":168,"dom":71,"pop":26483,"lat":33.16929,"lng":-95.60946},{"zip":"75180","name":"Balch Springs","pending_pct":0.2642,"pending":14,"active":38,"total":53,"new":12,"median_price":279000,"ppsf":175,"dom":39,"pop":26455,"lat":32.71937,"lng":-96.61841},{"zip":"78721","name":"Austin","pending_pct":0.1345,"pending":16,"active":104,"total":119,"new":20,"median_price":503405,"ppsf":361,"dom":65,"pop":10997,"lat":30.27127,"lng":-97.68345},{"zip":"75763","name":"Frankston","pending_pct":0.1346,"pending":7,"active":45,"total":52,"new":12,"median_price":399450,"ppsf":197,"dom":70,"pop":6259,"lat":32.04154,"lng":-95.52231},{"zip":"76522","name":"Copperas Cove","pending_pct":0.2778,"pending":90,"active":235,"total":324,"new":64,"median_price":245000,"ppsf":149,"dom":65,"pop":42118,"lat":31.21577,"lng":-97.97215},{"zip":"76541","name":"Killeen","pending_pct":0.2267,"pending":17,"active":56,"total":75,"new":12,"median_price":135900,"ppsf":106,"dom":86,"pop":19011,"lat":31.11447,"lng":-97.72922},{"zip":"76010","name":"Arlington","pending_pct":0.3115,"pending":19,"active":43,"total":61,"new":20,"median_price":274450,"ppsf":193,"dom":38,"pop":54978,"lat":32.72271,"lng":-97.08065},{"zip":"76639","name":"Dawson","pending_pct":0.25,"pending":3,"active":10,"total":12,"new":0,"median_price":185000,"ppsf":152,"dom":93,"pop":2153,"lat":31.87254,"lng":-96.65551},{"zip":"79764","name":"Odessa","pending_pct":0.0755,"pending":4,"active":49,"total":53,"new":12,"median_price":272500,"ppsf":153,"dom":58,"pop":27013,"lat":31.88546,"lng":-102.47378},{"zip":"75215","name":"Dallas","pending_pct":0.2222,"pending":34,"active":120,"total":153,"new":36,"median_price":319500,"ppsf":189,"dom":67,"pop":18895,"lat":32.75259,"lng":-96.76075},{"zip":"78702","name":"Austin","pending_pct":0.1882,"pending":48,"active":205,"total":255,"new":68,"median_price":686500,"ppsf":506,"dom":65,"pop":25985,"lat":30.26339,"lng":-97.7144},{"zip":"75163","name":"Trinidad","pending_pct":0.0541,"pending":4,"active":70,"total":74,"new":8,"median_price":379999,"ppsf":194,"dom":65,"pop":2443,"lat":32.1672,"lng":-96.10999},{"zip":"76380","name":"Seymour","pending_pct":0.1944,"pending":7,"active":31,"total":36,"new":0,"median_price":177470,"ppsf":123,"dom":131,"pop":3509,"lat":33.60434,"lng":-99.22305},{"zip":"78704","name":"Austin","pending_pct":0.1762,"pending":80,"active":374,"total":454,"new":96,"median_price":825000,"ppsf":572,"dom":57,"pop":50688,"lat":30.24298,"lng":-97.76537},{"zip":"78606","name":"Blanco","pending_pct":0.1651,"pending":18,"active":91,"total":109,"new":12,"median_price":595000,"ppsf":288,"dom":74,"pop":7272,"lat":30.09213,"lng":-98.45789},{"zip":"75440","name":"Emory","pending_pct":0.1067,"pending":8,"active":66,"total":75,"new":16,"median_price":420000,"ppsf":233,"dom":65,"pop":7846,"lat":32.87507,"lng":-95.75262},{"zip":"75237","name":"Dallas","pending_pct":0.1111,"pending":1,"active":8,"total":9,"new":4,"median_price":285000,"ppsf":170,"dom":42,"pop":18260,"lat":32.66489,"lng":-96.87238},{"zip":"77064","name":"Houston","pending_pct":0.2679,"pending":30,"active":82,"total":112,"new":40,"median_price":285450,"ppsf":150,"dom":49,"pop":49591,"lat":29.92279,"lng":-95.5467},{"zip":"79250","name":"Petersburg","pending_pct":0.25,"pending":1,"active":3,"total":4,"new":0,"median_price":80000,"ppsf":69,"dom":80,"pop":980,"lat":33.88134,"lng":-101.59881},{"zip":"78599","name":"Weslaco","pending_pct":0.1655,"pending":24,"active":121,"total":145,"new":32,"median_price":249000,"ppsf":157,"dom":64,"pop":35454,"lat":26.2181,"lng":-97.99087},{"zip":"76107","name":"Fort Worth","pending_pct":0.2174,"pending":45,"active":159,"total":207,"new":52,"median_price":484500,"ppsf":283,"dom":52,"pop":30994,"lat":32.74176,"lng":-97.38202},{"zip":"76689","name":"Valley Mills","pending_pct":0.1379,"pending":4,"active":25,"total":29,"new":0,"median_price":339950,"ppsf":210,"dom":100,"pop":4564,"lat":31.66624,"lng":-97.50471},{"zip":"76534","name":"Holland","pending_pct":0.2727,"pending":3,"active":7,"total":11,"new":4,"median_price":669000,"ppsf":252,"dom":54,"pop":2675,"lat":30.88225,"lng":-97.36952},{"zip":"79039","name":"Groom","pending_pct":0.25,"pending":1,"active":4,"total":4,"new":0,"median_price":469200,"ppsf":133,"dom":71,"pop":744,"lat":35.25237,"lng":-101.12206},{"zip":"77461","name":"Needville","pending_pct":0.3832,"pending":41,"active":61,"total":107,"new":16,"median_price":482450,"ppsf":202,"dom":42,"pop":12365,"lat":29.39159,"lng":-95.77345},{"zip":"75125","name":"Ferris","pending_pct":0.383,"pending":18,"active":28,"total":47,"new":8,"median_price":325000,"ppsf":181,"dom":66,"pop":7873,"lat":32.52983,"lng":-96.61563},{"zip":"78725","name":"Austin","pending_pct":0.3382,"pending":23,"active":45,"total":68,"new":20,"median_price":279995,"ppsf":188,"dom":46,"pop":10746,"lat":30.23554,"lng":-97.60859},{"zip":"75778","name":"Murchison","pending_pct":0.1481,"pending":4,"active":22,"total":27,"new":4,"median_price":272450,"ppsf":196,"dom":104,"pop":3152,"lat":32.30239,"lng":-95.71367},{"zip":"76430","name":"Albany","pending_pct":0.4444,"pending":4,"active":5,"total":9,"new":0,"median_price":285000,"ppsf":166,"dom":51,"pop":2395,"lat":32.80303,"lng":-99.23519},{"zip":"77040","name":"Houston","pending_pct":0.2137,"pending":28,"active":101,"total":131,"new":44,"median_price":314990,"ppsf":154,"dom":44,"pop":50977,"lat":29.87539,"lng":-95.52861},{"zip":"77385","name":"Conroe","pending_pct":0.239,"pending":49,"active":160,"total":205,"new":64,"median_price":419000,"ppsf":169,"dom":43,"pop":28156,"lat":30.1894,"lng":-95.42264},{"zip":"75074","name":"Plano","pending_pct":0.2619,"pending":33,"active":93,"total":126,"new":48,"median_price":422450,"ppsf":218,"dom":43,"pop":53831,"lat":33.03298,"lng":-96.67304},{"zip":"77340","name":"Huntsville","pending_pct":0.2294,"pending":39,"active":136,"total":170,"new":28,"median_price":359750,"ppsf":173,"dom":59,"pop":37517,"lat":30.64601,"lng":-95.53441},{"zip":"76264","name":"Sadler","pending_pct":0.1538,"pending":2,"active":10,"total":13,"new":4,"median_price":844450,"ppsf":366,"dom":91,"pop":997,"lat":33.74172,"lng":-96.83509},{"zip":"75068","name":"Little Elm","pending_pct":0.2838,"pending":166,"active":422,"total":585,"new":160,"median_price":450000,"ppsf":190,"dom":47,"pop":72710,"lat":33.17713,"lng":-96.95228},{"zip":"76504","name":"Temple","pending_pct":0.3061,"pending":45,"active":101,"total":147,"new":32,"median_price":215500,"ppsf":149,"dom":68,"pop":26166,"lat":31.14135,"lng":-97.37748},{"zip":"77023","name":"Houston","pending_pct":0.1237,"pending":12,"active":84,"total":97,"new":28,"median_price":340000,"ppsf":218,"dom":54,"pop":24281,"lat":29.7216,"lng":-95.31827},{"zip":"77328","name":"Cleveland","pending_pct":0.2255,"pending":23,"active":77,"total":102,"new":12,"median_price":276400,"ppsf":184,"dom":38,"pop":17208,"lat":30.40767,"lng":-95.18888},{"zip":"78026","name":"Jourdanton","pending_pct":0.2917,"pending":14,"active":36,"total":48,"new":4,"median_price":240999,"ppsf":154,"dom":62,"pop":7031,"lat":28.75573,"lng":-98.54754},{"zip":"75070","name":"Mckinney","pending_pct":0.3087,"pending":71,"active":158,"total":230,"new":76,"median_price":485000,"ppsf":211,"dom":40,"pop":64078,"lat":33.15587,"lng":-96.69742},{"zip":"78006","name":"Boerne","pending_pct":0.3122,"pending":153,"active":337,"total":490,"new":104,"median_price":729000,"ppsf":271,"dom":59,"pop":44560,"lat":29.86869,"lng":-98.71368},{"zip":"78737","name":"Austin","pending_pct":0.3852,"pending":52,"active":83,"total":135,"new":40,"median_price":909998,"ppsf":292,"dom":46,"pop":27023,"lat":30.18935,"lng":-97.96059},{"zip":"78118","name":"Karnes City","pending_pct":0.1111,"pending":1,"active":8,"total":9,"new":0,"median_price":159500,"ppsf":138,"dom":141,"pop":4676,"lat":28.87574,"lng":-97.94729},{"zip":"75216","name":"Dallas","pending_pct":0.256,"pending":43,"active":125,"total":168,"new":40,"median_price":257764,"ppsf":181,"dom":56,"pop":55894,"lat":32.71158,"lng":-96.78256},{"zip":"79934","name":"El Paso","pending_pct":0.4009,"pending":93,"active":137,"total":232,"new":72,"median_price":289950,"ppsf":167,"dom":50,"pop":28861,"lat":31.95206,"lng":-106.434},{"zip":"75202","name":"Dallas","pending_pct":0.1071,"pending":3,"active":25,"total":28,"new":4,"median_price":255000,"ppsf":258,"dom":79,"pop":2892,"lat":32.77843,"lng":-96.8037},{"zip":"77581","name":"Pearland","pending_pct":0.3509,"pending":60,"active":108,"total":171,"new":48,"median_price":399990,"ppsf":173,"dom":37,"pop":51332,"lat":29.5624,"lng":-95.27982},{"zip":"75930","name":"Bronson","pending_pct":0.3333,"pending":3,"active":5,"total":9,"new":0,"median_price":229000,"ppsf":179,"dom":37,"pop":2330,"lat":31.33641,"lng":-94.03522},{"zip":"75926","name":"Apple Springs","pending_pct":0.5,"pending":2,"active":3,"total":4,"new":0,"median_price":349000,"ppsf":211,"dom":213,"pop":1389,"lat":31.23281,"lng":-94.96944},{"zip":"75756","name":"Brownsboro","pending_pct":0.25,"pending":6,"active":18,"total":24,"new":8,"median_price":409950,"ppsf":204,"dom":52,"pop":4414,"lat":32.30031,"lng":-95.59771},{"zip":"78228","name":"San Antonio","pending_pct":0.1783,"pending":23,"active":105,"total":129,"new":20,"median_price":219999,"ppsf":146,"dom":71,"pop":56165,"lat":29.46072,"lng":-98.57201},{"zip":"78729","name":"Austin","pending_pct":0.3662,"pending":26,"active":45,"total":71,"new":32,"median_price":475000,"ppsf":235,"dom":56,"pop":30460,"lat":30.45738,"lng":-97.75516},{"zip":"75790","name":"Van","pending_pct":0.1818,"pending":8,"active":35,"total":44,"new":8,"median_price":279450,"ppsf":139,"dom":100,"pop":3915,"lat":32.52749,"lng":-95.64255},{"zip":"77011","name":"Houston","pending_pct":0.0896,"pending":6,"active":61,"total":67,"new":20,"median_price":340000,"ppsf":192,"dom":57,"pop":14940,"lat":29.743,"lng":-95.30785},{"zip":"79373","name":"Tahoka","pending_pct":0.037,"pending":1,"active":25,"total":27,"new":8,"median_price":225000,"ppsf":94,"dom":37,"pop":3087,"lat":33.15905,"lng":-101.83628},{"zip":"75460","name":"Paris","pending_pct":0.1923,"pending":25,"active":104,"total":130,"new":32,"median_price":195000,"ppsf":112,"dom":87,"pop":23426,"lat":33.6627,"lng":-95.60296},{"zip":"79506","name":"Blackwell","pending_pct":0.4,"pending":2,"active":4,"total":5,"new":0,"median_price":217000,"ppsf":126,"dom":253,"pop":538,"lat":32.11366,"lng":-100.32613},{"zip":"75137","name":"Duncanville","pending_pct":0.2632,"pending":15,"active":40,"total":57,"new":16,"median_price":357500,"ppsf":174,"dom":54,"pop":19729,"lat":32.63421,"lng":-96.91224},{"zip":"77632","name":"Orange","pending_pct":0.3037,"pending":41,"active":97,"total":135,"new":16,"median_price":254595,"ppsf":135,"dom":67,"pop":22976,"lat":30.2014,"lng":-93.80477},{"zip":"75044","name":"Garland","pending_pct":0.2958,"pending":42,"active":100,"total":142,"new":68,"median_price":385000,"ppsf":189,"dom":43,"pop":47529,"lat":32.96299,"lng":-96.6531},{"zip":"79121","name":"Amarillo","pending_pct":0.4894,"pending":23,"active":23,"total":47,"new":8,"median_price":382450,"ppsf":160,"dom":36,"pop":6437,"lat":35.17447,"lng":-101.92922},{"zip":"77459","name":"Missouri City","pending_pct":0.2779,"pending":202,"active":517,"total":727,"new":184,"median_price":464000,"ppsf":169,"dom":42,"pop":84221,"lat":29.52691,"lng":-95.53407},{"zip":"78543","name":"Elsa","pending_pct":0.1429,"pending":3,"active":20,"total":21,"new":0,"median_price":194875,"ppsf":133,"dom":82,"pop":8400,"lat":26.30117,"lng":-98.00508},{"zip":"76067","name":"Mineral Wells","pending_pct":0.1532,"pending":17,"active":95,"total":111,"new":32,"median_price":299450,"ppsf":159,"dom":67,"pop":21080,"lat":32.80303,"lng":-98.1449},{"zip":"78829","name":"Batesville","pending_pct":1.0,"pending":2,"active":1,"total":2,"new":0,"median_price":180000,"ppsf":86,"dom":91,"pop":1028,"lat":28.89351,"lng":-99.57401},{"zip":"79098","name":"Wildorado","pending_pct":0.3333,"pending":1,"active":2,"total":3,"new":0,"median_price":498500,"ppsf":206,"dom":158,"pop":576,"lat":35.15671,"lng":-102.21646},{"zip":"77655","name":"Sabine Pass","pending_pct":0.5,"pending":2,"active":3,"total":4,"new":0,"median_price":222500,"ppsf":143,"dom":157,"pop":330,"lat":29.71338,"lng":-93.95306},{"zip":"77977","name":"Placedo","pending_pct":1.0,"pending":1,"active":1,"total":1,"new":0,"median_price":135000,"ppsf":92,"dom":42,"pop":539,"lat":28.68082,"lng":-96.80183},{"zip":"76941","name":"Mertzon","pending_pct":0.3,"pending":3,"active":7,"total":10,"new":0,"median_price":260000,"ppsf":181,"dom":134,"pop":1158,"lat":31.24731,"lng":-100.89845},{"zip":"79235","name":"Floydada","pending_pct":0.2727,"pending":3,"active":8,"total":11,"new":4,"median_price":150000,"ppsf":87,"dom":226,"pop":2924,"lat":33.94794,"lng":-101.26088},{"zip":"75450","name":"Lake Creek","pending_pct":0.5,"pending":1,"active":1,"total":2,"new":0,"median_price":495000,"ppsf":231,"dom":130,"pop":404,"lat":33.40465,"lng":-95.47481},{"zip":"78385","name":"Sarita","pending_pct":null,"pending":null,"active":2,"total":2,"new":0,"median_price":230000,"ppsf":218,"dom":46,"pop":109,"lat":27.1276,"lng":-97.8369},{"zip":"75470","name":"Petty","pending_pct":null,"pending":null,"active":1,"total":1,"new":0,"median_price":115000,"ppsf":82,"dom":30,"pop":213,"lat":33.58341,"lng":-95.79836},{"zip":"78391","name":"Tynan","pending_pct":null,"pending":null,"active":2,"total":2,"new":0,"median_price":174500,"ppsf":151,"dom":71,"pop":77,"lat":28.18297,"lng":-97.72743},{"zip":"78632","name":"Harwood","pending_pct":null,"pending":null,"active":7,"total":7,"new":0,"median_price":690000,"ppsf":379,"dom":123,"pop":1245,"lat":29.68866,"lng":-97.46858},{"zip":"79533","name":"Lueders","pending_pct":null,"pending":null,"active":1,"total":1,"new":0,"median_price":97000,"ppsf":57,"dom":76,"pop":475,"lat":32.84898,"lng":-99.54739},{"zip":"75418","name":"Bonham","pending_pct":0.1471,"pending":15,"active":87,"total":102,"new":20,"median_price":239900,"ppsf":154,"dom":59,"pop":15155,"lat":33.57235,"lng":-96.1773},{"zip":"75468","name":"Pattonville","pending_pct":0.25,"pending":1,"active":3,"total":4,"new":0,"median_price":450000,"ppsf":234,"dom":57,"pop":1085,"lat":33.51175,"lng":-95.40747},{"zip":"78676","name":"Wimberley","pending_pct":0.1039,"pending":24,"active":205,"total":231,"new":40,"median_price":667000,"ppsf":308,"dom":69,"pop":15822,"lat":30.04141,"lng":-98.15051},{"zip":"78261","name":"San Antonio","pending_pct":0.3057,"pending":70,"active":159,"total":229,"new":52,"median_price":521999,"ppsf":195,"dom":54,"pop":26657,"lat":29.69189,"lng":-98.40072},{"zip":"75006","name":"Carrollton","pending_pct":0.2517,"pending":38,"active":112,"total":151,"new":52,"median_price":374995,"ppsf":213,"dom":43,"pop":47807,"lat":32.96165,"lng":-96.89717},{"zip":"78204","name":"San Antonio","pending_pct":0.0625,"pending":5,"active":74,"total":80,"new":16,"median_price":340000,"ppsf":248,"dom":72,"pop":11983,"lat":29.40327,"lng":-98.50368},{"zip":"79602","name":"Abilene","pending_pct":0.7843,"pending":200,"active":54,"total":255,"new":68,"median_price":360750,"ppsf":197,"dom":37,"pop":27425,"lat":32.33568,"lng":-99.6699},{"zip":"79070","name":"Perryton","pending_pct":0.2414,"pending":7,"active":22,"total":29,"new":4,"median_price":149000,"ppsf":86,"dom":126,"pop":9626,"lat":36.25346,"lng":-100.80731},{"zip":"76448","name":"Eastland","pending_pct":0.2778,"pending":15,"active":41,"total":54,"new":12,"median_price":365000,"ppsf":172,"dom":71,"pop":5100,"lat":32.39257,"lng":-98.79541},{"zip":"78557","name":"Hidalgo","pending_pct":0.1897,"pending":11,"active":48,"total":58,"new":12,"median_price":256500,"ppsf":144,"dom":52,"pop":14498,"lat":26.10844,"lng":-98.25118},{"zip":"75069","name":"Mckinney","pending_pct":0.2603,"pending":57,"active":162,"total":219,"new":56,"median_price":565000,"ppsf":270,"dom":55,"pop":40032,"lat":33.16805,"lng":-96.59671},{"zip":"79707","name":"Midland","pending_pct":0.2394,"pending":51,"active":163,"total":213,"new":80,"median_price":539900,"ppsf":205,"dom":43,"pop":40010,"lat":32.03304,"lng":-102.21189},{"zip":"78749","name":"Austin","pending_pct":0.3981,"pending":41,"active":59,"total":103,"new":56,"median_price":572400,"ppsf":294,"dom":28,"pop":34562,"lat":30.21329,"lng":-97.85732},{"zip":"78611","name":"Burnet","pending_pct":0.1387,"pending":33,"active":213,"total":238,"new":36,"median_price":584900,"ppsf":274,"dom":72,"pop":14560,"lat":30.79188,"lng":-98.26663},{"zip":"76117","name":"Haltom City","pending_pct":0.3977,"pending":35,"active":52,"total":88,"new":32,"median_price":279900,"ppsf":191,"dom":48,"pop":32950,"lat":32.80374,"lng":-97.26766},{"zip":"77521","name":"Baytown","pending_pct":0.3226,"pending":110,"active":231,"total":341,"new":76,"median_price":284495,"ppsf":144,"dom":54,"pop":69038,"lat":29.81298,"lng":-94.96233},{"zip":"78061","name":"Pearsall","pending_pct":0.2941,"pending":5,"active":12,"total":17,"new":4,"median_price":169000,"ppsf":119,"dom":75,"pop":10500,"lat":28.90162,"lng":-99.13104},{"zip":"77640","name":"Port Arthur","pending_pct":0.2,"pending":15,"active":60,"total":75,"new":12,"median_price":154500,"ppsf":109,"dom":87,"pop":17167,"lat":29.88021,"lng":-93.94152},{"zip":"78390","name":"Taft","pending_pct":0.1429,"pending":4,"active":23,"total":28,"new":8,"median_price":165000,"ppsf":122,"dom":56,"pop":6013,"lat":28.00198,"lng":-97.35631},{"zip":"76247","name":"Justin","pending_pct":0.4586,"pending":205,"active":238,"total":447,"new":92,"median_price":474950,"ppsf":196,"dom":54,"pop":21726,"lat":33.0965,"lng":-97.33154},{"zip":"76137","name":"Fort Worth","pending_pct":0.3729,"pending":66,"active":110,"total":177,"new":72,"median_price":349000,"ppsf":179,"dom":37,"pop":60352,"lat":32.85864,"lng":-97.29137},{"zip":"79404","name":"Lubbock","pending_pct":0.1667,"pending":9,"active":44,"total":54,"new":16,"median_price":107500,"ppsf":90,"dom":57,"pop":8529,"lat":33.52651,"lng":-101.79856},{"zip":"79322","name":"Crosbyton","pending_pct":0.4286,"pending":3,"active":4,"total":7,"new":4,"median_price":201750,"ppsf":97,"dom":23,"pop":1983,"lat":33.65887,"lng":-101.19814},{"zip":"75041","name":"Garland","pending_pct":0.2278,"pending":18,"active":61,"total":79,"new":24,"median_price":311900,"ppsf":182,"dom":54,"pop":32943,"lat":32.88101,"lng":-96.65149},{"zip":"75691","name":"Tatum","pending_pct":0.1818,"pending":4,"active":18,"total":22,"new":4,"median_price":399950,"ppsf":174,"dom":123,"pop":4130,"lat":32.31108,"lng":-94.55725},{"zip":"79027","name":"Dimmitt","pending_pct":0.3333,"pending":3,"active":6,"total":9,"new":4,"median_price":195000,"ppsf":115,"dom":69,"pop":4858,"lat":34.49238,"lng":-102.3378},