{"202605":[{"zip":"25003","name":"Alum Creek","pending_pct":0.5,"pending":1,"active":2,"total":2,"new":0,"median_price":205000,"ppsf":101,"dom":59,"pop":1975,"lat":38.25101,"lng":-81.77925},{"zip":"25045","name":"Clendenin","pending_pct":0.5455,"pending":6,"active":6,"total":11,"new":4,"median_price":177500,"ppsf":108,"dom":38,"pop":4234,"lat":38.45603,"lng":-81.32474},{"zip":"25252","name":"Le Roy","pending_pct":0.5,"pending":1,"active":1,"total":2,"new":0,"median_price":115000,"ppsf":69,"dom":102,"pop":1195,"lat":38.88345,"lng":-81.53679},{"zip":"26150","name":"Mineral Wells","pending_pct":0.5714,"pending":4,"active":3,"total":7,"new":4,"median_price":299900,"ppsf":150,"dom":50,"pop":5869,"lat":39.1566,"lng":-81.53697},{"zip":"25880","name":"Mount Hope","pending_pct":0.25,"pending":3,"active":10,"total":12,"new":4,"median_price":135000,"ppsf":71,"dom":83,"pop":6163,"lat":37.87672,"lng":-81.20095},{"zip":"25405","name":"Martinsburg","pending_pct":0.5567,"pending":54,"active":41,"total":97,"new":32,"median_price":353995,"ppsf":174,"dom":41,"pop":14266,"lat":39.40892,"lng":-77.96235},{"zip":"25442","name":"Shenandoah Junction","pending_pct":0.5625,"pending":9,"active":7,"total":16,"new":8,"median_price":555000,"ppsf":206,"dom":14,"pop":2772,"lat":39.37157,"lng":-77.83181},{"zip":"25984","name":"Rupert","pending_pct":0.5,"pending":3,"active":3,"total":6,"new":0,"median_price":97000,"ppsf":60,"dom":68,"pop":2014,"lat":38.01409,"lng":-80.6026},{"zip":"26817","name":"Bloomery","pending_pct":0.3333,"pending":1,"active":2,"total":3,"new":0,"median_price":494900,"ppsf":269,"dom":141,"pop":425,"lat":39.35957,"lng":-78.39067},{"zip":"25262","name":"Millwood","pending_pct":0.75,"pending":3,"active":1,"total":4,"new":4,"median_price":198800,"ppsf":142,"dom":31,"pop":1233,"lat":38.90751,"lng":-81.83219},{"zip":"26704","name":"Augusta","pending_pct":0.3158,"pending":6,"active":13,"total":19,"new":0,"median_price":291950,"ppsf":210,"dom":98,"pop":5148,"lat":39.28619,"lng":-78.59471},{"zip":"25422","name":"Great Cacapon","pending_pct":0.3333,"pending":6,"active":12,"total":18,"new":4,"median_price":366500,"ppsf":260,"dom":71,"pop":1463,"lat":39.55812,"lng":-78.35887},{"zip":"26818","name":"Fisher","pending_pct":1.0,"pending":1,"active":1,"total":1,"new":0,"median_price":320000,"ppsf":191,"dom":8,"pop":1616,"lat":39.07662,"lng":-79.02238},{"zip":"26764","name":"Terra Alta","pending_pct":0.2632,"pending":10,"active":27,"total":38,"new":12,"median_price":299000,"ppsf":167,"dom":45,"pop":4175,"lat":39.45042,"lng":-79.56035},{"zip":"25865","name":"Lester","pending_pct":0.5,"pending":1,"active":1,"total":2,"new":0,"median_price":175000,"ppsf":121,"dom":21,"pop":1573,"lat":37.73076,"lng":-81.35212},{"zip":"26201","name":"Buckhannon","pending_pct":0.5128,"pending":20,"active":20,"total":39,"new":20,"median_price":263950,"ppsf":136,"dom":30,"pop":18689,"lat":39.00082,"lng":-80.20249},{"zip":"26385","name":"Lost Creek","pending_pct":0.5,"pending":2,"active":3,"total":4,"new":0,"median_price":330000,"ppsf":206,"dom":106,"pop":2870,"lat":39.15895,"lng":-80.3517},{"zip":"25811","name":"Amigo","pending_pct":1.0,"pending":1,"active":0,"total":1,"new":0,"median_price":10000,"ppsf":null,"dom":94,"pop":37,"lat":37.60835,"lng":-81.3065},{"zip":"26726","name":"Keyser","pending_pct":0.6562,"pending":21,"active":12,"total":32,"new":12,"median_price":279500,"ppsf":147,"dom":26,"pop":12629,"lat":39.40508,"lng":-78.98222},{"zip":"26541","name":"Maidsville","pending_pct":0.6818,"pending":15,"active":6,"total":22,"new":4,"median_price":249999,"ppsf":160,"dom":40,"pop":3254,"lat":39.68179,"lng":-80.07458},{"zip":"26722","name":"Green Spring","pending_pct":0.5,"pending":1,"active":1,"total":2,"new":0,"median_price":749990,"ppsf":240,"dom":183,"pop":496,"lat":39.49774,"lng":-78.63463},{"zip":"26720","name":"Gormania","pending_pct":1.0,"pending":1,"active":1,"total":1,"new":0,"median_price":239000,"ppsf":133,"dom":261,"pop":54,"lat":39.27761,"lng":-79.33126},{"zip":"24818","name":"Brenton","pending_pct":1.0,"pending":1,"active":1,"total":1,"new":0,"median_price":184900,"ppsf":126,"dom":7,"pop":1481,"lat":37.60809,"lng":-81.62275},{"zip":"25517","name":"Genoa","pending_pct":0.5,"pending":1,"active":1,"total":2,"new":0,"median_price":125000,"ppsf":89,"dom":18,"pop":1512,"lat":38.10989,"lng":-82.45368},{"zip":"26208","name":"Camden On Gauley","pending_pct":1.0,"pending":1,"active":1,"total":1,"new":0,"median_price":38000,"ppsf":19,"dom":156,"pop":893,"lat":38.34781,"lng":-80.57314},{"zip":"24931","name":"Crawley","pending_pct":0.75,"pending":3,"active":3,"total":4,"new":4,"median_price":149500,"ppsf":129,"dom":110,"pop":1173,"lat":37.91471,"lng":-80.59355},{"zip":"25431","name":"Levels","pending_pct":1.0,"pending":1,"active":1,"total":1,"new":0,"median_price":280000,"ppsf":227,"dom":171,"pop":413,"lat":39.48682,"lng":-78.57279},{"zip":"25133","name":"Maysel","pending_pct":null,"pending":null,"active":1,"total":1,"new":0,"median_price":129900,"ppsf":141,"dom":194,"pop":441,"lat":38.47976,"lng":-81.11831},{"zip":"26638","name":"Shock","pending_pct":null,"pending":null,"active":1,"total":1,"new":0,"median_price":850000,"ppsf":null,"dom":32,"pop":89,"lat":38.77265,"lng":-80.99878},{"zip":"25625","name":"Holden","pending_pct":null,"pending":null,"active":2,"total":2,"new":0,"median_price":77500,"ppsf":47,"dom":39,"pop":1445,"lat":37.82237,"lng":-82.09206},{"zip":"26743","name":"New Creek","pending_pct":null,"pending":null,"active":1,"total":1,"new":0,"median_price":469500,"ppsf":228,"dom":null,"pop":2216,"lat":39.28873,"lng":-79.07998},{"zip":"25438","name":"Ranson","pending_pct":0.4894,"pending":92,"active":100,"total":188,"new":52,"median_price":391990,"ppsf":182,"dom":20,"pop":7330,"lat":39.31853,"lng":-77.86448},{"zip":"25827","name":"Crab Orchard","pending_pct":0.5385,"pending":7,"active":8,"total":13,"new":4,"median_price":150000,"ppsf":127,"dom":80,"pop":1380,"lat":37.73869,"lng":-81.25368},{"zip":"25704","name":"Huntington","pending_pct":0.3864,"pending":17,"active":27,"total":44,"new":20,"median_price":172500,"ppsf":108,"dom":32,"pop":14351,"lat":38.34969,"lng":-82.50693},{"zip":"24747","name":"Rock","pending_pct":0.1667,"pending":1,"active":5,"total":6,"new":0,"median_price":64900,"ppsf":104,"dom":64,"pop":3125,"lat":37.40182,"lng":-81.2273},{"zip":"24739","name":"Princeton","pending_pct":0.3478,"pending":8,"active":17,"total":23,"new":8,"median_price":238500,"ppsf":142,"dom":31,"pop":13981,"lat":37.36784,"lng":-80.9949},{"zip":"25825","name":"Cool Ridge","pending_pct":0.25,"pending":1,"active":3,"total":4,"new":4,"median_price":479000,"ppsf":152,"dom":43,"pop":2659,"lat":37.64736,"lng":-81.08862},{"zip":"26050","name":"Newell","pending_pct":1.0,"pending":3,"active":1,"total":3,"new":0,"median_price":42725,"ppsf":30,"dom":56,"pop":1357,"lat":40.60108,"lng":-80.62646},{"zip":"24966","name":"Renick","pending_pct":0.6,"pending":3,"active":1,"total":5,"new":0,"median_price":206200,"ppsf":104,"dom":127,"pop":1332,"lat":38.03345,"lng":-80.35283},{"zip":"26260","name":"Davis","pending_pct":0.1765,"pending":6,"active":27,"total":34,"new":12,"median_price":284500,"ppsf":261,"dom":46,"pop":1194,"lat":39.08923,"lng":-79.41147},{"zip":"26351","name":"Glenville","pending_pct":0.2,"pending":2,"active":9,"total":10,"new":0,"median_price":129000,"ppsf":109,"dom":39,"pop":4440,"lat":38.92846,"lng":-80.84479},{"zip":"25086","name":"Glasgow","pending_pct":0.6667,"pending":2,"active":1,"total":3,"new":0,"median_price":125000,"ppsf":137,"dom":29,"pop":907,"lat":38.21326,"lng":-81.41238},{"zip":"26250","name":"Belington","pending_pct":0.4545,"pending":5,"active":6,"total":11,"new":4,"median_price":302000,"ppsf":141,"dom":172,"pop":5322,"lat":39.02757,"lng":-79.96198},{"zip":"26170","name":"Saint Marys","pending_pct":0.4167,"pending":5,"active":8,"total":12,"new":4,"median_price":144950,"ppsf":116,"dom":57,"pop":5701,"lat":39.36136,"lng":-81.17136},{"zip":"26184","name":"Waverly","pending_pct":0.5,"pending":2,"active":2,"total":4,"new":0,"median_price":246250,"ppsf":125,"dom":37,"pop":2352,"lat":39.29739,"lng":-81.35086},{"zip":"25239","name":"Cottageville","pending_pct":0.5,"pending":1,"active":2,"total":2,"new":0,"median_price":214900,"ppsf":118,"dom":94,"pop":1787,"lat":38.84616,"lng":-81.83941},{"zip":"26448","name":"Wallace","pending_pct":0.5,"pending":1,"active":1,"total":2,"new":0,"median_price":27500,"ppsf":27,"dom":70,"pop":1005,"lat":39.40595,"lng":-80.49265},{"zip":"26456","name":"West Union","pending_pct":0.4286,"pending":3,"active":4,"total":7,"new":0,"median_price":82850,"ppsf":180,"dom":46,"pop":2998,"lat":39.28078,"lng":-80.77354},{"zip":"24847","name":"Itmann","pending_pct":1.0,"pending":1,"active":1,"total":1,"new":0,"median_price":134900,"ppsf":81,"dom":112,"pop":80,"lat":37.57339,"lng":-81.41455},{"zip":"25162","name":"Pratt","pending_pct":0.6667,"pending":2,"active":1,"total":3,"new":0,"median_price":82852,"ppsf":55,"dom":218,"pop":438,"lat":38.20712,"lng":-81.38435},{"zip":"26680","name":"Nallen","pending_pct":0.5,"pending":1,"active":1,"total":2,"new":0,"median_price":350000,"ppsf":184,"dom":66,"pop":307,"lat":38.08991,"lng":-80.87423},{"zip":"26865","name":"Yellow Spring","pending_pct":0.5,"pending":2,"active":2,"total":4,"new":0,"median_price":495000,"ppsf":283,"dom":23,"pop":218,"lat":39.19053,"lng":-78.51932},{"zip":"24828","name":"Davy","pending_pct":1.0,"pending":1,"active":1,"total":1,"new":0,"median_price":94900,"ppsf":61,"dom":175,"pop":429,"lat":37.49975,"lng":-81.6553},{"zip":"24870","name":"Oceana","pending_pct":null,"pending":null,"active":6,"total":6,"new":0,"median_price":91200,"ppsf":52,"dom":45,"pop":1639,"lat":37.73784,"lng":-81.53203},{"zip":"26866","name":"Upper Tract","pending_pct":null,"pending":null,"active":2,"total":2,"new":0,"median_price":497000,"ppsf":224,"dom":67,"pop":989,"lat":38.80493,"lng":-79.2512},{"zip":"25247","name":"Hartford","pending_pct":null,"pending":null,"active":1,"total":1,"new":0,"median_price":139000,"ppsf":132,"dom":205,"pop":499,"lat":39.001,"lng":-81.98987},{"zip":"24957","name":"Maxwelton","pending_pct":null,"pending":null,"active":1,"total":1,"new":0,"median_price":975000,"ppsf":143,"dom":318,"pop":689,"lat":37.88729,"lng":-80.40827},{"zip":"25854","name":"Hico","pending_pct":null,"pending":null,"active":2,"total":2,"new":0,"median_price":575000,"ppsf":null,"dom":48,"pop":704,"lat":38.12629,"lng":-80.97537},{"zip":"26268","name":"Glady","pending_pct":null,"pending":null,"active":2,"total":2,"new":8,"median_price":449000,"ppsf":231,"dom":4,"pop":34,"lat":38.71457,"lng":-79.82276},{"zip":"26203","name":"Erbacon","pending_pct":null,"pending":null,"active":1,"total":1,"new":0,"median_price":119000,"ppsf":104,"dom":131,"pop":312,"lat":38.53136,"lng":-80.60149},{"zip":"25507","name":"Ceredo","pending_pct":1.0,"pending":1,"active":1,"total":1,"new":0,"median_price":118950,"ppsf":113,"dom":26,"pop":1168,"lat":38.39945,"lng":-82.55193},{"zip":"25571","name":"West Hamlin","pending_pct":0.2,"pending":1,"active":4,"total":5,"new":0,"median_price":125000,"ppsf":65,"dom":46,"pop":1365,"lat":38.2947,"lng":-82.15632},{"zip":"25701","name":"Huntington","pending_pct":0.4935,"pending":38,"active":40,"total":77,"new":28,"median_price":142400,"ppsf":91,"dom":49,"pop":21197,"lat":38.36809,"lng":-82.41127},{"zip":"25524","name":"Harts","pending_pct":0.25,"pending":1,"active":3,"total":4,"new":0,"median_price":69000,"ppsf":75,"dom":165,"pop":2533,"lat":38.01309,"lng":-82.11712},{"zip":"26147","name":"Grantsville","pending_pct":0.1429,"pending":1,"active":6,"total":7,"new":0,"median_price":192400,"ppsf":122,"dom":173,"pop":2089,"lat":38.91368,"lng":-81.07629},{"zip":"24915","name":"Arbovale","pending_pct":0.3333,"pending":1,"active":2,"total":3,"new":0,"median_price":187450,"ppsf":69,"dom":41,"pop":505,"lat":38.4693,"lng":-79.78668},{"zip":"25530","name":"Kenova","pending_pct":0.3636,"pending":4,"active":7,"total":11,"new":4,"median_price":229000,"ppsf":130,"dom":67,"pop":6856,"lat":38.35629,"lng":-82.56337},{"zip":"26601","name":"Sutton","pending_pct":0.1667,"pending":1,"active":5,"total":6,"new":0,"median_price":130000,"ppsf":110,"dom":75,"pop":4121,"lat":38.63307,"lng":-80.6567},{"zip":"26202","name":"Fenwick","pending_pct":0.3333,"pending":1,"active":2,"total":3,"new":0,"median_price":231500,"ppsf":107,"dom":51,"pop":457,"lat":38.22657,"lng":-80.62639},{"zip":"25286","name":"Walton","pending_pct":0.6667,"pending":2,"active":2,"total":3,"new":0,"median_price":251950,"ppsf":141,"dom":26,"pop":1652,"lat":38.62098,"lng":-81.39728},{"zip":"25541","name":"Milton","pending_pct":0.4706,"pending":8,"active":9,"total":17,"new":8,"median_price":330000,"ppsf":144,"dom":32,"pop":9318,"lat":38.45884,"lng":-82.12707},{"zip":"26181","name":"Washington","pending_pct":0.6111,"pending":11,"active":6,"total":18,"new":4,"median_price":305000,"ppsf":123,"dom":39,"pop":6167,"lat":39.20707,"lng":-81.6733},{"zip":"25248","name":"Kenna","pending_pct":0.5,"pending":2,"active":2,"total":4,"new":0,"median_price":386000,"ppsf":175,"dom":48,"pop":3222,"lat":38.64255,"lng":-81.61454},{"zip":"25878","name":"Midway","pending_pct":1.0,"pending":1,"active":1,"total":1,"new":0,"median_price":145000,"ppsf":117,"dom":3,"pop":1094,"lat":37.71303,"lng":-81.22464},{"zip":"25130","name":"Madison","pending_pct":0.3571,"pending":5,"active":10,"total":14,"new":0,"median_price":149450,"ppsf":104,"dom":30,"pop":3456,"lat":38.02776,"lng":-81.7455},{"zip":"25303","name":"South Charleston","pending_pct":0.5,"pending":18,"active":19,"total":36,"new":8,"median_price":186987,"ppsf":104,"dom":57,"pop":7396,"lat":38.36033,"lng":-81.68679},{"zip":"25213","name":"Winfield","pending_pct":0.4375,"pending":7,"active":10,"total":16,"new":4,"median_price":365000,"ppsf":169,"dom":54,"pop":6224,"lat":38.50776,"lng":-81.91796},{"zip":"26755","name":"Rio","pending_pct":0.6,"pending":3,"active":2,"total":5,"new":0,"median_price":456500,"ppsf":217,"dom":13,"pop":607,"lat":39.15856,"lng":-78.73534},{"zip":"24986","name":"White Sulphur Springs","pending_pct":0.1591,"pending":7,"active":37,"total":44,"new":8,"median_price":297500,"ppsf":182,"dom":49,"pop":5014,"lat":37.91189,"lng":-80.19455},{"zip":"25311","name":"Charleston","pending_pct":0.3143,"pending":11,"active":25,"total":35,"new":12,"median_price":140000,"ppsf":122,"dom":61,"pop":9825,"lat":38.36308,"lng":-81.55357},{"zip":"25102","name":"Handley","pending_pct":1.0,"pending":1,"active":1,"total":1,"new":0,"median_price":6500,"ppsf":4,"dom":106,"pop":418,"lat":38.16735,"lng":-81.35192},{"zip":"26739","name":"Mount Storm","pending_pct":0.3333,"pending":1,"active":3,"total":3,"new":0,"median_price":647250,"ppsf":216,"dom":13,"pop":702,"lat":39.21508,"lng":-79.2647},{"zip":"25635","name":"Man","pending_pct":0.5,"pending":1,"active":1,"total":2,"new":0,"median_price":180000,"ppsf":36,"dom":194,"pop":1408,"lat":37.71937,"lng":-81.87261},{"zip":"26180","name":"Walker","pending_pct":0.5,"pending":1,"active":1,"total":2,"new":0,"median_price":150000,"ppsf":135,"dom":256,"pop":2106,"lat":39.20016,"lng":-81.36699},{"zip":"25243","name":"Gandeeville","pending_pct":0.25,"pending":1,"active":2,"total":4,"new":0,"median_price":309500,"ppsf":107,"dom":109,"pop":740,"lat":38.67841,"lng":-81.48216},{"zip":"26562","name":"Burton","pending_pct":null,"pending":null,"active":1,"total":1,"new":0,"median_price":145000,"ppsf":85,"dom":339,"pop":721,"lat":39.63957,"lng":-80.45072},{"zip":"24993","name":"Wolfcreek","pending_pct":null,"pending":null,"active":1,"total":1,"new":0,"median_price":1890000,"ppsf":332,"dom":347,"pop":37,"lat":37.66095,"lng":-80.63512},{"zip":"26224","name":"Helvetia","pending_pct":null,"pending":null,"active":1,"total":1,"new":0,"median_price":229900,"ppsf":195,"dom":14,"pop":311,"lat":38.74485,"lng":-80.17474},{"zip":"25564","name":"Sod","pending_pct":null,"pending":null,"active":1,"total":1,"new":0,"median_price":379900,"ppsf":113,"dom":30,"pop":1335,"lat":38.26302,"lng":-81.88835},{"zip":"26169","name":"Rockport","pending_pct":null,"pending":null,"active":1,"total":1,"new":0,"median_price":265000,"ppsf":82,"dom":261,"pop":726,"lat":39.07291,"lng":-81.57121},{"zip":"26137","name":"Big Springs","pending_pct":null,"pending":null,"active":1,"total":1,"new":0,"median_price":290000,"ppsf":129,"dom":24,"pop":818,"lat":39.00647,"lng":-81.0385},{"zip":"24827","name":"Cyclone","pending_pct":null,"pending":null,"active":1,"total":1,"new":0,"median_price":129900,"ppsf":75,"dom":285,"pop":755,"lat":37.75186,"lng":-81.65997},{"zip":"24808","name":"Anawalt","pending_pct":null,"pending":null,"active":1,"total":1,"new":4,"median_price":274900,"ppsf":341,"dom":5,"pop":501,"lat":37.33142,"lng":-81.41048},{"zip":"25565","name":"Spurlockville","pending_pct":null,"pending":null,"active":1,"total":1,"new":0,"median_price":249000,"ppsf":99,"dom":57,"pop":774,"lat":38.10998,"lng":-81.96631},{"zip":"25841","name":"Flat Top","pending_pct":0.5,"pending":1,"active":1,"total":2,"new":0,"median_price":315000,"ppsf":122,"dom":1,"pop":526,"lat":37.55325,"lng":-81.09061},{"zip":"26581","name":"Littleton","pending_pct":1.0,"pending":2,"active":0,"total":2,"new":0,"median_price":2000,"ppsf":2,"dom":99,"pop":870,"lat":39.66554,"lng":-80.56781},{"zip":"26187","name":"Williamstown","pending_pct":0.4375,"pending":7,"active":9,"total":16,"new":8,"median_price":289900,"ppsf":160,"dom":25,"pop":6060,"lat":39.36711,"lng":-81.44894},{"zip":"25315","name":"Charleston","pending_pct":0.4,"pending":4,"active":6,"total":10,"new":0,"median_price":49500,"ppsf":68,"dom":25,"pop":3286,"lat":38.21032,"lng":-81.57992},{"zip":"26105","name":"Vienna","pending_pct":0.48,"pending":24,"active":24,"total":50,"new":8,"median_price":289900,"ppsf":134,"dom":35,"pop":12107,"lat":39.32949,"lng":-81.52267},{"zip":"26104","name":"Parkersburg","pending_pct":0.4651,"pending":20,"active":21,"total":43,"new":12,"median_price":229900,"ppsf":104,"dom":43,"pop":16805,"lat":39.27413,"lng":-81.47779},{"zip":"25921","name":"Sophia","pending_pct":0.2727,"pending":3,"active":8,"total":11,"new":0,"median_price":84950,"ppsf":75,"dom":103,"pop":1989,"lat":37.69181,"lng":-81.25882},{"zip":"24983","name":"Union","pending_pct":0.3636,"pending":4,"active":7,"total":11,"new":0,"median_price":325000,"ppsf":102,"dom":59,"pop":1474,"lat":37.59165,"lng":-80.51672},{"zip":"26437","name":"Smithfield","pending_pct":0.5,"pending":1,"active":1,"total":2,"new":0,"median_price":725000,"ppsf":71,"dom":131,"pop":502,"lat":39.53147,"lng":-80.5193},{"zip":"25570","name":"Wayne","pending_pct":0.2222,"pending":2,"active":7,"total":9,"new":0,"median_price":124125,"ppsf":104,"dom":193,"pop":6445,"lat":38.23508,"lng":-82.41927},{"zip":"26534","name":"Granville","pending_pct":0.5,"pending":1,"active":1,"total":2,"new":0,"median_price":171000,"ppsf":218,"dom":110,"pop":792,"lat":39.64748,"lng":-79.99733},{"zip":"26146","name":"Friendly","pending_pct":0.5,"pending":1,"active":1,"total":2,"new":0,"median_price":225000,"ppsf":87,"dom":21,"pop":1215,"lat":39.45053,"lng":-81.03601},{"zip":"26134","name":"Belmont","pending_pct":0.5,"pending":1,"active":1,"total":2,"new":0,"median_price":511250,"ppsf":485,"dom":50,"pop":902,"lat":39.37686,"lng":-81.27544},{"zip":"26038","name":"Glen Dale","pending_pct":0.5,"pending":4,"active":4,"total":8,"new":8,"median_price":285000,"ppsf":158,"dom":41,"pop":2752,"lat":39.96329,"lng":-80.72595},{"zip":"26149","name":"Middlebourne","pending_pct":0.5,"pending":3,"active":4,"total":6,"new":0,"median_price":405450,"ppsf":197,"dom":132,"pop":2314,"lat":39.47429,"lng":-80.88269},{"zip":"25702","name":"Huntington","pending_pct":0.4737,"pending":9,"active":10,"total":19,"new":4,"median_price":75000,"ppsf":66,"dom":42,"pop":7188,"lat":38.43825,"lng":-82.33344},{"zip":"26571","name":"Farmington","pending_pct":0.5,"pending":5,"active":5,"total":10,"new":4,"median_price":60500,"ppsf":41,"dom":27,"pop":1788,"lat":39.51945,"lng":-80.26013},{"zip":"25309","name":"South Charleston","pending_pct":0.5556,"pending":15,"active":12,"total":27,"new":8,"median_price":195000,"ppsf":128,"dom":51,"pop":12154,"lat":38.31177,"lng":-81.75715},{"zip":"25428","name":"Inwood","pending_pct":0.5349,"pending":69,"active":60,"total":129,"new":32,"median_price":367600,"ppsf":197,"dom":41,"pop":14825,"lat":39.37407,"lng":-78.02729},{"zip":"26812","name":"Mathias","pending_pct":0.3333,"pending":3,"active":6,"total":9,"new":4,"median_price":449900,"ppsf":222,"dom":46,"pop":1525,"lat":38.88184,"lng":-78.87688},{"zip":"26167","name":"Reader","pending_pct":1.0,"pending":1,"active":1,"total":1,"new":0,"median_price":199900,"ppsf":149,"dom":11,"pop":474,"lat":39.53454,"lng":-80.71429},{"zip":"25985","name":"Sandstone","pending_pct":0.3333,"pending":1,"active":2,"total":3,"new":0,"median_price":192450,"ppsf":108,"dom":143,"pop":366,"lat":37.75752,"lng":-80.83044},{"zip":"26705","name":"Aurora","pending_pct":1.0,"pending":1,"active":1,"total":1,"new":0,"median_price":339000,"ppsf":173,"dom":12,"pop":716,"lat":39.32388,"lng":-79.56663},{"zip":"25209","name":"Whitesville","pending_pct":null,"pending":null,"active":2,"total":2,"new":2,"median_price":59375,"ppsf":55,"dom":10,"pop":539,"lat":37.96271,"lng":-81.52861},{"zip":"25019","name":"Bickmore","pending_pct":null,"pending":null,"active":1,"total":1,"new":0,"median_price":260000,"ppsf":118,"dom":null,"pop":666,"lat":38.37663,"lng":-81.08955},{"zip":"24985","name":"Wayside","pending_pct":null,"pending":null,"active":1,"total":1,"new":0,"median_price":124900,"ppsf":74,"dom":16,"pop":161,"lat":37.59989,"lng":-80.68948},{"zip":"25049","name":"Comfort","pending_pct":null,"pending":null,"active":1,"total":1,"new":0,"median_price":299000,"ppsf":126,"dom":30,"pop":548,"lat":38.11954,"lng":-81.57315},{"zip":"25186","name":"Smithers","pending_pct":null,"pending":null,"active":1,"total":1,"new":0,"median_price":119900,"ppsf":56,"dom":164,"pop":725,"lat":38.17113,"lng":-81.29811},{"zip":"26660","name":"Calvin","pending_pct":null,"pending":null,"active":1,"total":1,"new":0,"median_price":104900,"ppsf":58,"dom":171,"pop":449,"lat":38.35513,"lng":-80.70061},{"zip":"26276","name":"Kerens","pending_pct":null,"pending":null,"active":1,"total":1,"new":0,"median_price":1300500,"ppsf":945,"dom":358,"pop":797,"lat":39.03201,"lng":-79.75659},{"zip":"26347","name":"Flemington","pending_pct":0.5,"pending":2,"active":2,"total":4,"new":0,"median_price":155000,"ppsf":125,"dom":66,"pop":2807,"lat":39.26371,"lng":-80.1261},{"zip":"26444","name":"Tunnelton","pending_pct":0.5,"pending":1,"active":1,"total":2,"new":0,"median_price":525000,"ppsf":156,"dom":261,"pop":3490,"lat":39.36861,"lng":-79.7626},{"zip":"26542","name":"Masontown","pending_pct":0.4,"pending":2,"active":3,"total":5,"new":0,"median_price":224500,"ppsf":171,"dom":51,"pop":2067,"lat":39.573,"lng":-79.79041},{"zip":"26263","name":"Dryfork","pending_pct":0.2,"pending":1,"active":4,"total":5,"new":0,"median_price":256950,"ppsf":236,"dom":83,"pop":206,"lat":38.95705,"lng":-79.43586},{"zip":"24927","name":"Cass","pending_pct":0.4,"pending":2,"active":3,"total":5,"new":0,"median_price":270000,"ppsf":209,"dom":109,"pop":476,"lat":38.38999,"lng":-79.965},{"zip":"26651","name":"Summersville","pending_pct":0.0833,"pending":3,"active":32,"total":36,"new":12,"median_price":298000,"ppsf":148,"dom":40,"pop":9067,"lat":38.3185,"lng":-80.87902},{"zip":"26293","name":"Valley Bend","pending_pct":0.75,"pending":3,"active":1,"total":4,"new":0,"median_price":220000,"ppsf":161,"dom":39,"pop":661,"lat":38.7824,"lng":-79.9365},{"zip":"25301","name":"Charleston","pending_pct":0.3077,"pending":4,"active":9,"total":13,"new":4,"median_price":164900,"ppsf":115,"dom":77,"pop":2498,"lat":38.35123,"lng":-81.62761},{"zip":"24910","name":"Alderson","pending_pct":0.3478,"pending":8,"active":16,"total":23,"new":4,"median_price":164900,"ppsf":151,"dom":63,"pop":4664,"lat":37.74173,"lng":-80.66835},{"zip":"26034","name":"Chester","pending_pct":0.3077,"pending":4,"active":10,"total":13,"new":0,"median_price":124700,"ppsf":101,"dom":111,"pop":4664,"lat":40.59404,"lng":-80.55258},{"zip":"26291","name":"Slatyfork","pending_pct":0.1667,"pending":2,"active":10,"total":12,"new":4,"median_price":522000,"ppsf":194,"dom":52,"pop":12,"lat":38.44109,"lng":-80.08637},{"zip":"25168","name":"Red House","pending_pct":0.4286,"pending":3,"active":4,"total":7,"new":0,"median_price":132000,"ppsf":69,"dom":108,"pop":2330,"lat":38.56394,"lng":-81.87733},{"zip":"25917","name":"Scarbro","pending_pct":0.5,"pending":1,"active":1,"total":2,"new":0,"median_price":75000,"ppsf":54,"dom":12,"pop":1255,"lat":37.97944,"lng":-81.25021},{"zip":"26205","name":"Craigsville","pending_pct":0.3333,"pending":2,"active":4,"total":6,"new":4,"median_price":166000,"ppsf":131,"dom":13,"pop":2957,"lat":38.32078,"lng":-80.64828},{"zip":"25039","name":"Cedar Grove","pending_pct":0.3333,"pending":1,"active":2,"total":3,"new":0,"median_price":65000,"ppsf":32,"dom":38,"pop":629,"lat":38.24642,"lng":-81.36524},{"zip":"26679","name":"Mount Nebo","pending_pct":0.25,"pending":1,"active":4,"total":4,"new":0,"median_price":439500,"ppsf":121,"dom":128,"pop":1628,"lat":38.16509,"lng":-80.7971},{"zip":"24701","name":"Bluefield","pending_pct":0.2933,"pending":22,"active":53,"total":75,"new":20,"median_price":165900,"ppsf":94,"dom":52,"pop":17117,"lat":37.29929,"lng":-81.2065},{"zip":"25411","name":"Berkeley Springs","pending_pct":0.3684,"pending":35,"active":63,"total":95,"new":24,"median_price":397000,"ppsf":243,"dom":34,"pop":12367,"lat":39.55497,"lng":-78.22004},{"zip":"26554","name":"Fairmont","pending_pct":0.5207,"pending":63,"active":59,"total":121,"new":48,"median_price":245000,"ppsf":131,"dom":51,"pop":42118,"lat":39.46475,"lng":-80.11461},{"zip":"26254","name":"Bowden","pending_pct":0.5,"pending":1,"active":1,"total":2,"new":0,"median_price":160000,"ppsf":208,"dom":205,"pop":137,"lat":38.91261,"lng":-79.65341},{"zip":"25843","name":"Ghent","pending_pct":0.3333,"pending":3,"active":5,"total":9,"new":0,"median_price":499900,"ppsf":219,"dom":43,"pop":986,"lat":37.62129,"lng":-81.14129},{"zip":"26278","name":"Mabie","pending_pct":0.5,"pending":1,"active":1,"total":2,"new":0,"median_price":329900,"ppsf":204,"dom":53,"pop":622,"lat":38.82572,"lng":-80.02547},{"zip":"25958","name":"Charmco","pending_pct":0.2857,"pending":2,"active":6,"total":7,"new":0,"median_price":145500,"ppsf":103,"dom":42,"pop":483,"lat":38.02156,"lng":-80.76077},{"zip":"26294","name":"Valley Head","pending_pct":0.25,"pending":1,"active":3,"total":4,"new":0,"median_price":212400,"ppsf":147,"dom":110,"pop":744,"lat":38.53443,"lng":-80.02309},{"zip":"26421","name":"Pullman","pending_pct":1.0,"pending":2,"active":1,"total":2,"new":0,"median_price":55000,"ppsf":72,"dom":null,"pop":198,"lat":39.18412,"lng":-80.91607},{"zip":"26257","name":"Coalton","pending_pct":null,"pending":null,"active":2,"total":2,"new":0,"median_price":294000,"ppsf":130,"dom":30,"pop":820,"lat":38.9226,"lng":-80.01239},{"zip":"24898","name":"Wyoming","pending_pct":null,"pending":null,"active":1,"total":1,"new":0,"median_price":239900,"ppsf":165,"dom":80,"pop":311,"lat":37.58752,"lng":-81.57504},{"zip":"25501","name":"Alkol","pending_pct":null,"pending":null,"active":0,"total":0,"new":0,"median_price":275000,"ppsf":131,"dom":106,"pop":1268,"lat":38.16035,"lng":-81.95582},{"zip":"26443","name":"Troy","pending_pct":null,"pending":null,"active":1,"total":1,"new":0,"median_price":59000,"ppsf":null,"dom":15,"pop":450,"lat":39.06814,"lng":-80.7554},{"zip":"25259","name":"Looneyville","pending_pct":null,"pending":null,"active":4,"total":4,"new":0,"median_price":1089950,"ppsf":331,"dom":32,"pop":880,"lat":38.67465,"lng":-81.24836},{"zip":"24844","name":"Iaeger","pending_pct":null,"pending":null,"active":2,"total":2,"new":0,"median_price":105500,"ppsf":89,"dom":54,"pop":1049,"lat":37.48554,"lng":-81.78703},{"zip":"26610","name":"Birch River","pending_pct":null,"pending":null,"active":1,"total":1,"new":0,"median_price":165000,"ppsf":103,"dom":137,"pop":723,"lat":38.47769,"lng":-80.71887},{"zip":"25067","name":"East Bank","pending_pct":0.25,"pending":1,"active":3,"total":4,"new":0,"median_price":95750,"ppsf":97,"dom":110,"pop":850,"lat":38.20963,"lng":-81.44018},{"zip":"25030","name":"Bomont","pending_pct":1.0,"pending":1,"active":1,"total":1,"new":0,"median_price":259000,"ppsf":null,"dom":52,"pop":537,"lat":38.45028,"lng":-81.22599},{"zip":"26270","name":"Harman","pending_pct":0.3333,"pending":2,"active":4,"total":6,"new":4,"median_price":194450,"ppsf":274,"dom":29,"pop":934,"lat":38.81229,"lng":-79.60034},{"zip":"25979","name":"Pipestem","pending_pct":0.2,"pending":1,"active":3,"total":5,"new":0,"median_price":171000,"ppsf":148,"dom":31,"pop":541,"lat":37.5126,"lng":-80.91736},{"zip":"26283","name":"Montrose","pending_pct":0.5,"pending":1,"active":1,"total":2,"new":0,"median_price":145000,"ppsf":161,"dom":14,"pop":1410,"lat":39.06436,"lng":-79.82088},{"zip":"26155","name":"New Martinsville","pending_pct":0.5417,"pending":13,"active":10,"total":24,"new":4,"median_price":179900,"ppsf":151,"dom":80,"pop":8003,"lat":39.6333,"lng":-80.76707},{"zip":"26761","name":"Shanks","pending_pct":0.5,"pending":1,"active":1,"total":2,"new":0,"median_price":352500,"ppsf":218,"dom":18,"pop":425,"lat":39.27303,"lng":-78.6997},{"zip":"25159","name":"Poca","pending_pct":0.5,"pending":5,"active":4,"total":10,"new":4,"median_price":209999,"ppsf":130,"dom":33,"pop":3656,"lat":38.50186,"lng":-81.7806},{"zip":"26508","name":"Morgantown","pending_pct":0.5556,"pending":100,"active":79,"total":180,"new":44,"median_price":441750,"ppsf":182,"dom":42,"pop":40231,"lat":39.59941,"lng":-79.89724},{"zip":"24924","name":"Buckeye","pending_pct":0.4,"pending":2,"active":3,"total":5,"new":0,"median_price":549900,"ppsf":183,"dom":25,"pop":685,"lat":38.19294,"lng":-80.15174},{"zip":"25427","name":"Hedgesville","pending_pct":0.5057,"pending":44,"active":46,"total":87,"new":28,"median_price":379675,"ppsf":230,"dom":30,"pop":16595,"lat":39.52608,"lng":-78.09098},{"zip":"25573","name":"Yawkey","pending_pct":1.0,"pending":1,"active":0,"total":1,"new":0,"median_price":225000,"ppsf":78,"dom":33,"pop":600,"lat":38.22725,"lng":-81.94549},{"zip":"26547","name":"Reedsville","pending_pct":0.8,"pending":4,"active":1,"total":5,"new":0,"median_price":399000,"ppsf":126,"dom":51,"pop":2828,"lat":39.5133,"lng":-79.80757},{"zip":"25977","name":"Meadow Creek","pending_pct":1.0,"pending":1,"active":1,"total":1,"new":0,"median_price":175000,"ppsf":123,"dom":3,"pop":50,"lat":37.80819,"lng":-80.90571},{"zip":"24822","name":"Clear Fork","pending_pct":0.5,"pending":1,"active":1,"total":2,"new":0,"median_price":144900,"ppsf":112,"dom":22,"pop":890,"lat":37.62908,"lng":-81.68755},{"zip":"25245","name":"Given","pending_pct":0.75,"pending":3,"active":2,"total":4,"new":0,"median_price":824900,"ppsf":175,"dom":197,"pop":684,"lat":38.69916,"lng":-81.7393},{"zip":"25110","name":"Hugheston","pending_pct":1.0,"pending":1,"active":1,"total":1,"new":0,"median_price":5000,"ppsf":4,"dom":33,"pop":366,"lat":38.21324,"lng":-81.3264},{"zip":"26524","name":"Bretz","pending_pct":null,"pending":null,"active":1,"total":1,"new":0,"median_price":169000,"ppsf":104,"dom":34,"pop":77,"lat":39.54075,"lng":-79.80716},{"zip":"24884","name":"Squire","pending_pct":null,"pending":null,"active":2,"total":2,"new":0,"median_price":62500,"ppsf":60,"dom":154,"pop":54,"lat":37.27943,"lng":-81.55048},{"zip":"24916","name":"Asbury","pending_pct":null,"pending":null,"active":1,"total":1,"new":0,"median_price":595000,"ppsf":241,"dom":18,"pop":322,"lat":37.82735,"lng":-80.57735},{"zip":"25033","name":"Buffalo","pending_pct":null,"pending":null,"active":1,"total":1,"new":0,"median_price":475000,"ppsf":180,"dom":79,"pop":2284,"lat":38.61095,"lng":-81.92511},{"zip":"26656","name":"Belva","pending_pct":null,"pending":null,"active":1,"total":1,"new":0,"median_price":62500,"ppsf":48,"dom":162,"pop":414,"lat":38.24358,"lng":-81.18082},{"zip":"26133","name":"Belleville","pending_pct":null,"pending":null,"active":3,"total":3,"new":0,"median_price":202800,"ppsf":88,"dom":39,"pop":1210,"lat":39.11973,"lng":-81.66968},{"zip":"25253","name":"Letart","pending_pct":0.375,"pending":3,"active":5,"total":8,"new":0,"median_price":250000,"ppsf":84,"dom":143,"pop":2219,"lat":38.91947,"lng":-81.9669},{"zip":"24801","name":"Welch","pending_pct":0.5,"pending":8,"active":8,"total":16,"new":4,"median_price":149500,"ppsf":60,"dom":66,"pop":4745,"lat":37.46841,"lng":-81.55544},{"zip":"26408","name":"Mount Clare","pending_pct":0.4444,"pending":4,"active":5,"total":9,"new":0,"median_price":239000,"ppsf":189,"dom":45,"pop":2043,"lat":39.20313,"lng":-80.28973},{"zip":"26501","name":"Morgantown","pending_pct":0.5648,"pending":61,"active":49,"total":108,"new":28,"median_price":275000,"ppsf":166,"dom":43,"pop":19529,"lat":39.62872,"lng":-80.04025},{"zip":"26321","name":"Alum Bridge","pending_pct":1.0,"pending":2,"active":2,"total":2,"new":0,"median_price":236900,"ppsf":175,"dom":207,"pop":344,"lat":39.05461,"lng":-80.68732},{"zip":"25514","name":"Fort Gay","pending_pct":0.2,"pending":2,"active":7,"total":10,"new":0,"median_price":137500,"ppsf":80,"dom":87,"pop":3520,"lat":38.08136,"lng":-82.51678},{"zip":"25082","name":"Fraziers Bottom","pending_pct":0.4286,"pending":3,"active":4,"total":7,"new":0,"median_price":489900,"ppsf":199,"dom":49,"pop":1830,"lat":38.60861,"lng":-82.02879},{"zip":"26041","name":"Moundsville","pending_pct":0.3529,"pending":18,"active":34,"total":51,"new":12,"median_price":154500,"ppsf":111,"dom":54,"pop":15254,"lat":39.89764,"lng":-80.7107},{"zip":"26711","name":"Capon Bridge","pending_pct":0.3077,"pending":4,"active":9,"total":13,"new":4,"median_price":550000,"ppsf":192,"dom":70,"pop":2724,"lat":39.30301,"lng":-78.47073},{"zip":"26802","name":"Brandywine","pending_pct":0.25,"pending":1,"active":3,"total":4,"new":0,"median_price":250000,"ppsf":136,"dom":49,"pop":893,"lat":38.64454,"lng":-79.18706},{"zip":"25969","name":"Jumping Branch","pending_pct":0.6667,"pending":2,"active":1,"total":3,"new":0,"median_price":299000,"ppsf":262,"dom":54,"pop":1826,"lat":37.61657,"lng":-81.00903},{"zip":"26763","name":"Springfield","pending_pct":0.4,"pending":4,"active":6,"total":10,"new":4,"median_price":286950,"ppsf":151,"dom":72,"pop":1253,"lat":39.4789,"lng":-78.69316},{"zip":"25444","name":"Slanesville","pending_pct":0.3333,"pending":1,"active":3,"total":3,"new":0,"median_price":399900,"ppsf":163,"dom":16,"pop":717,"lat":39.43543,"lng":-78.52081},{"zip":"26591","name":"Worthington","pending_pct":1.0,"pending":1,"active":1,"total":1,"new":0,"median_price":301000,"ppsf":71,"dom":8,"pop":1568,"lat":39.45499,"lng":-80.2903},{"zip":"26337","name":"Cairo","pending_pct":0.2,"pending":1,"active":4,"total":5,"new":4,"median_price":104950,"ppsf":54,"dom":19,"pop":806,"lat":39.23856,"lng":-81.16388},{"zip":"26678","name":"Mount Lookout","pending_pct":null,"pending":null,"active":2,"total":2,"new":0,"median_price":285000,"ppsf":142,"dom":22,"pop":1427,"lat":38.16883,"lng":-80.91085},{"zip":"25161","name":"Powellton","pending_pct":null,"pending":null,"active":1,"total":1,"new":0,"median_price":50000,"ppsf":25,"dom":27,"pop":514,"lat":38.06123,"lng":-81.3189},{"zip":"25174","name":"Rock Creek","pending_pct":null,"pending":null,"active":1,"total":1,"new":0,"median_price":99000,"ppsf":80,"dom":39,"pop":204,"lat":37.86115,"lng":-81.41376},{"zip":"25521","name":"Griffithsville","pending_pct":null,"pending":null,"active":1,"total":1,"new":0,"median_price":74900,"ppsf":67,"dom":20,"pop":897,"lat":38.22915,"lng":-81.98641},{"zip":"26419","name":"Pine Grove","pending_pct":null,"pending":null,"active":1,"total":1,"new":0,"median_price":59900,"ppsf":40,"dom":54,"pop":758,"lat":39.58469,"lng":-80.631},{"zip":"26804","name":"Circleville","pending_pct":1.0,"pending":1,"active":1,"total":1,"new":0,"median_price":240000,"ppsf":133,"dom":39,"pop":530,"lat":38.63306,"lng":-79.54526},{"zip":"26330","name":"Bridgeport","pending_pct":0.4265,"pending":29,"active":39,"total":68,"new":24,"median_price":389000,"ppsf":175,"dom":65,"pop":15600,"lat":39.28837,"lng":-80.22109},{"zip":"25446","name":"Summit Point","pending_pct":0.3333,"pending":1,"active":2,"total":3,"new":0,"median_price":653750,"ppsf":220,"dom":13,"pop":1374,"lat":39.24013,"lng":-77.95705},{"zip":"24925","name":"Caldwell","pending_pct":0.0714,"pending":1,"active":12,"total":14,"new":0,"median_price":369000,"ppsf":212,"dom":84,"pop":577,"lat":37.72919,"lng":-80.38348},{"zip":"25545","name":"Ona","pending_pct":0.3846,"pending":5,"active":8,"total":13,"new":4,"median_price":299000,"ppsf":153,"dom":30,"pop":5670,"lat":38.45847,"lng":-82.22456},{"zip":"25304","name":"Charleston","pending_pct":0.4333,"pending":13,"active":19,"total":30,"new":12,"median_price":259000,"ppsf":110,"dom":35,"pop":8655,"lat":38.30521,"lng":-81.59044},{"zip":"26845","name":"Old Fields","pending_pct":0.2,"pending":1,"active":4,"total":5,"new":0,"median_price":354250,"ppsf":242,"dom":93,"pop":1015,"lat":39.16734,"lng":-78.96193},{"zip":"24954","name":"Marlinton","pending_pct":0.1667,"pending":5,"active":25,"total":30,"new":4,"median_price":164700,"ppsf":126,"dom":138,"pop":3019,"lat":38.22932,"lng":-80.07436},{"zip":"25140","name":"Naoma","pending_pct":0.3333,"pending":1,"active":3,"total":3,"new":0,"median_price":119000,"ppsf":84,"dom":195,"pop":1321,"lat":37.86738,"lng":-81.49733},{"zip":"26047","name":"New Cumberland","pending_pct":0.4375,"pending":7,"active":9,"total":16,"new":4,"median_price":159450,"ppsf":134,"dom":56,"pop":5357,"lat":40.53223,"lng":-80.5837},{"zip":"26143","name":"Elizabeth","pending_pct":0.1667,"pending":2,"active":8,"total":12,"new":0,"median_price":149500,"ppsf":172,"dom":41,"pop":3363,"lat":39.06338,"lng":-81.3764},{"zip":"26362","name":"Harrisville","pending_pct":0.3,"pending":3,"active":8,"total":10,"new":4,"median_price":159666,"ppsf":111,"dom":54,"pop":3270,"lat":39.15457,"lng":-81.05705},{"zip":"25214","name":"Winifrede","pending_pct":1.0,"pending":1,"active":1,"total":1,"new":0,"median_price":3000000,"ppsf":774,"dom":null,"pop":994,"lat":38.18947,"lng":-81.55127},{"zip":"25430","name":"Kearneysville","pending_pct":0.6429,"pending":27,"active":17,"total":42,"new":12,"median_price":289990,"ppsf":178,"dom":21,"pop":8954,"lat":39.34024,"lng":-77.93899},{"zip":"26032","name":"Bethany","pending_pct":0.25,"pending":1,"active":3,"total":4,"new":0,"median_price":228000,"ppsf":120,"dom":94,"pop":1061,"lat":40.18646,"lng":-80.55024},{"zip":"25864","name":"Layland","pending_pct":1.0,"pending":1,"active":1,"total":1,"new":0,"median_price":174500,"ppsf":142,"dom":11,"pop":299,"lat":37.87948,"lng":-81.01781},{"zip":"26206","name":"Cowen","pending_pct":0.5,"pending":1,"active":1,"total":2,"new":0,"median_price":182000,"ppsf":181,"dom":19,"pop":2807,"lat":38.36992,"lng":-80.47848},{"zip":"26808","name":"High View","pending_pct":0.2,"pending":1,"active":3,"total":5,"new":4,"median_price":399900,"ppsf":177,"dom":17,"pop":903,"lat":39.19563,"lng":-78.44416},{"zip":"26238","name":"Volga","pending_pct":0.5,"pending":1,"active":1,"total":2,"new":0,"median_price":220000,"ppsf":176,"dom":318,"pop":1107,"lat":39.10178,"lng":-80.1584},{"zip":"24984","name":"Waiteville","pending_pct":null,"pending":null,"active":1,"total":1,"new":0,"median_price":198000,"ppsf":238,"dom":9,"pop":265,"lat":37.48942,"lng":-80.41749},{"zip":"26269","name":"Hambleton","pending_pct":null,"pending":null,"active":2,"total":2,"new":0,"median_price":199450,"ppsf":86,"dom":110,"pop":843,"lat":39.11612,"lng":-79.61617},{"zip":"26003","name":"Wheeling","pending_pct":0.3008,"pending":40,"active":93,"total":133,"new":52,"median_price":180000,"ppsf":127,"dom":39,"pop":39982,"lat":40.0693,"lng":-80.6508},{"zip":"25241","name":"Evans","pending_pct":0.6,"pending":3,"active":1,"total":5,"new":0,"median_price":284500,"ppsf":127,"dom":24,"pop":2154,"lat":38.78427,"lng":-81.80801},{"zip":"25606","name":"Accoville","pending_pct":1.0,"pending":1,"active":1,"total":1,"new":0,"median_price":185000,"ppsf":83,"dom":43,"pop":1341,"lat":37.76641,"lng":-81.82878},{"zip":"26714","name":"Delray","pending_pct":1.0,"pending":1,"active":1,"total":1,"new":2,"median_price":307500,"ppsf":145,"dom":3,"pop":441,"lat":39.17634,"lng":-78.64177},{"zip":"25123","name":"Leon","pending_pct":0.8333,"pending":5,"active":1,"total":6,"new":0,"median_price":155750,"ppsf":93,"dom":67,"pop":2440,"lat":38.73172,"lng":-81.90214},{"zip":"25646","name":"Stollings","pending_pct":0.3333,"pending":1,"active":2,"total":3,"new":0,"median_price":112500,"ppsf":58,"dom":148,"pop":1204,"lat":37.83187,"lng":-81.89349},{"zip":"26847","name":"Petersburg","pending_pct":0.0667,"pending":1,"active":14,"total":15,"new":0,"median_price":294950,"ppsf":140,"dom":65,"pop":5305,"lat":38.95809,"lng":-79.15189},{"zip":"26570","name":"Fairview","pending_pct":0.5,"pending":4,"active":4,"total":8,"new":0,"median_price":239999,"ppsf":95,"dom":43,"pop":3350,"lat":39.64284,"lng":-80.23444},{"zip":"25813","name":"Beaver","pending_pct":0.4375,"pending":7,"active":11,"total":16,"new":4,"median_price":244500,"ppsf":126,"dom":47,"pop":6958,"lat":37.78309,"lng":-81.10001},{"zip":"25404","name":"Martinsburg","pending_pct":0.5679,"pending":46,"active":36,"total":81,"new":36,"median_price":304950,"ppsf":177,"dom":24,"pop":23990,"lat":39.48631,"lng":-77.89782},{"zip":"26070","name":"Wellsburg","pending_pct":0.4483,"pending":13,"active":16,"total":29,"new":8,"median_price":150000,"ppsf":77,"dom":39,"pop":7741,"lat":40.25008,"lng":-80.58037},{"zip":"26624","name":"Gassaway","pending_pct":0.375,"pending":3,"active":5,"total":8,"new":0,"median_price":140000,"ppsf":85,"dom":103,"pop":2219,"lat":38.72071,"lng":-80.80883},{"zip":"25015","name":"Belle","pending_pct":0.5385,"pending":7,"active":6,"total":13,"new":4,"median_price":185000,"ppsf":109,"dom":57,"pop":3888,"lat":38.24293,"lng":-81.49226},{"zip":"26431","name":"Shinnston","pending_pct":0.4,"pending":6,"active":9,"total":15,"new":4,"median_price":84900,"ppsf":78,"dom":30,"pop":6271,"lat":39.39144,"lng":-80.28085},{"zip":"25312","name":"Charleston","pending_pct":0.3571,"pending":5,"active":9,"total":14,"new":8,"median_price":185000,"ppsf":100,"dom":26,"pop":10047,"lat":38.46156,"lng":-81.656},{"zip":"25902","name":"Odd","pending_pct":0.3333,"pending":1,"active":2,"total":3,"new":0,"median_price":189950,"ppsf":120,"dom":62,"pop":260,"lat":37.56301,"lng":-81.21115},{"zip":"26662","name":"Canvas","pending_pct":0.5,"pending":1,"active":1,"total":2,"new":0,"median_price":102500,"ppsf":142,"dom":72,"pop":743,"lat":38.25813,"lng":-80.7695},{"zip":"25555","name":"Prichard","pending_pct":0.2857,"pending":2,"active":4,"total":7,"new":0,"median_price":119950,"ppsf":68,"dom":22,"pop":2008,"lat":38.23525,"lng":-82.55913},{"zip":"26261","name":"Richwood","pending_pct":0.2222,"pending":2,"active":8,"total":9,"new":0,"median_price":38000,"ppsf":26,"dom":78,"pop":2760,"lat":38.18881,"lng":-80.50454},{"zip":"25043","name":"Clay","pending_pct":null,"pending":null,"active":2,"total":2,"new":0,"median_price":197450,"ppsf":74,"dom":191,"pop":1165,"lat":38.44092,"lng":-80.98981},{"zip":"25831","name":"Danese","pending_pct":null,"pending":null,"active":3,"total":3,"new":0,"median_price":249900,"ppsf":206,"dom":67,"pop":1389,"lat":37.95645,"lng":-80.94037},{"zip":"26030","name":"Beech Bottom","pending_pct":null,"pending":null,"active":3,"total":3,"new":0,"median_price":68500,"ppsf":72,"dom":11,"pop":443,"lat":40.21662,"lng":-80.65965},{"zip":"26152","name":"Munday","pending_pct":null,"pending":null,"active":1,"total":1,"new":0,"median_price":169000,"ppsf":104,"dom":206,"pop":0,"lat":38.98355,"lng":-81.19308},{"zip":"26430","name":"Sand Fork","pending_pct":null,"pending":null,"active":1,"total":1,"new":0,"median_price":150000,"ppsf":195,"dom":40,"pop":216,"lat":38.88475,"lng":-80.7598},{"zip":"24946","name":"Hillsboro","pending_pct":null,"pending":null,"active":6,"total":6,"new":4,"median_price":332250,"ppsf":247,"dom":43,"pop":1075,"lat":38.17891,"lng":-80.2671},{"zip":"25302","name":"Charleston","pending_pct":0.3472,"pending":25,"active":47,"total":72,"new":20,"median_price":134997,"ppsf":86,"dom":43,"pop":13204,"lat":38.39053,"lng":-81.59879},{"zip":"25403","name":"Martinsburg","pending_pct":0.5864,"pending":95,"active":66,"total":162,"new":68,"median_price":371490,"ppsf":174,"dom":23,"pop":16470,"lat":39.4842,"lng":-78.00725},{"zip":"26234","name":"Rock Cave","pending_pct":0.25,"pending":1,"active":2,"total":4,"new":0,"median_price":259950,"ppsf":140,"dom":96,"pop":1045,"lat":38.76618,"lng":-80.30833},{"zip":"25275","name":"Sandyville","pending_pct":1.0,"pending":1,"active":0,"total":1,"new":0,"median_price":479900,"ppsf":173,"dom":70,"pop":2181,"lat":38.92451,"lng":-81.61687},{"zip":"25276","name":"Spencer","pending_pct":0.1154,"pending":3,"active":24,"total":26,"new":8,"median_price":165000,"ppsf":129,"dom":77,"pop":7127,"lat":38.78803,"lng":-81.33203},{"zip":"25434","name":"Paw Paw","pending_pct":0.2727,"pending":3,"active":7,"total":11,"new":8,"median_price":374000,"ppsf":246,"dom":30,"pop":3272,"lat":39.45797,"lng":-78.45038},{"zip":"26815","name":"Sugar Grove","pending_pct":0.5,"pending":2,"active":2,"total":4,"new":0,"median_price":306000,"ppsf":128,"dom":56,"pop":539,"lat":38.48923,"lng":-79.35884},{"zip":"25537","name":"Lesage","pending_pct":0.6,"pending":3,"active":2,"total":5,"new":0,"median_price":140000,"ppsf":91,"dom":46,"pop":1855,"lat":38.53399,"lng":-82.26926},{"zip":"25314","name":"Charleston","pending_pct":0.5263,"pending":40,"active":37,"total":76,"new":28,"median_price":275000,"ppsf":122,"dom":39,"pop":14794,"lat":38.29705,"lng":-81.65463},{"zip":"25550","name":"Point Pleasant","pending_pct":0.4138,"pending":12,"active":17,"total":29,"new":8,"median_price":209900,"ppsf":118,"dom":43,"pop":8963,"lat":38.86655,"lng":-82.0749},{"zip":"25882","name":"Mullens","pending_pct":0.2,"pending":1,"active":4,"total":5,"new":0,"median_price":119750,"ppsf":77,"dom":136,"pop":2268,"lat":37.60359,"lng":-81.39892},{"zip":"26405","name":"Moatsville","pending_pct":0.3333,"pending":1,"active":2,"total":3,"new":0,"median_price":325000,"ppsf":218,"dom":93,"pop":803,"lat":39.23093,"lng":-79.89076},{"zip":"26753","name":"Ridgeley","pending_pct":0.5,"pending":7,"active":8,"total":14,"new":4,"median_price":432995,"ppsf":195,"dom":48,"pop":5960,"lat":39.56017,"lng":-78.79026},{"zip":"25143","name":"Nitro","pending_pct":0.4815,"pending":13,"active":14,"total":27,"new":4,"median_price":147900,"ppsf":100,"dom":32,"pop":8714,"lat":38.42001,"lng":-81.82414},{"zip":"26810","name":"Lost City","pending_pct":0.1111,"pending":1,"active":8,"total":9,"new":0,"median_price":376500,"ppsf":328,"dom":43,"pop":319,"lat":38.97721,"lng":-78.74853},{"zip":"26767","name":"Wiley Ford","pending_pct":1.0,"pending":1,"active":0,"total":1,"new":0,"median_price":258000,"ppsf":106,"dom":102,"pop":393,"lat":39.61581,"lng":-78.75674},{"zip":"25705","name":"Huntington","pending_pct":0.469,"pending":53,"active":61,"total":113,"new":32,"median_price":179900,"ppsf":107,"dom":45,"pop":20922,"lat":38.40636,"lng":-82.36276},{"zip":"26039","name":"Glen Easton","pending_pct":0.5,"pending":1,"active":1,"total":2,"new":4,"median_price":450000,"ppsf":213,"dom":7,"pop":493,"lat":39.81641,"lng":-80.66969},{"zip":"25978","name":"Nimitz","pending_pct":0.5,"pending":1,"active":1,"total":2,"new":0,"median_price":959000,"ppsf":333,"dom":256,"pop":534,"lat":37.62861,"lng":-80.94138},{"zip":"26520","name":"Arthurdale","pending_pct":1.0,"pending":2,"active":1,"total":2,"new":0,"median_price":42483,"ppsf":40,"dom":36,"pop":483,"lat":39.50105,"lng":-79.82393},{"zip":"25505","name":"Big Creek","pending_pct":null,"pending":null,"active":1,"total":1,"new":0,"median_price":44900,"ppsf":28,"dom":14,"pop":380,"lat":38.01967,"lng":-82.03075},{"zip":"25669","name":"Crum","pending_pct":null,"pending":null,"active":3,"total":3,"new":0,"median_price":25900,"ppsf":47,"dom":71,"pop":633,"lat":37.93186,"lng":-82.4519},{"zip":"25005","name":"Amma","pending_pct":null,"pending":null,"active":1,"total":1,"new":0,"median_price":179000,"ppsf":63,"dom":16,"pop":281,"lat":38.58201,"lng":-81.26982},{"zip":"26546","name":"Pursglove","pending_pct":null,"pending":null,"active":0,"total":0,"new":0,"median_price":45000,"ppsf":90,"dom":32,"pop":341,"lat":39.66099,"lng":-80.03115},{"zip":"25125","name":"Lizemores","pending_pct":null,"pending":null,"active":1,"total":1,"new":0,"median_price":195000,"ppsf":null,"dom":328,"pop":990,"lat":38.31554,"lng":-81.19074},{"zip":"25061","name":"Drybranch","pending_pct":null,"pending":null,"active":1,"total":1,"new":0,"median_price":55000,"ppsf":41,"dom":164,"pop":363,"lat":38.1751,"lng":-81.43342},{"zip":"25918","name":"Shady Spring","pending_pct":0.303,"pending":10,"active":23,"total":33,"new":4,"median_price":131250,"ppsf":172,"dom":99,"pop":4844,"lat":37.74575,"lng":-81.00993},{"zip":"26280","name":"Mill Creek","pending_pct":0.3333,"pending":1,"active":3,"total":3,"new":0,"median_price":310000,"ppsf":181,"dom":94,"pop":1390,"lat":38.71738,"lng":-80.03775},{"zip":"26378","name":"Jane Lew","pending_pct":0.6667,"pending":2,"active":2,"total":3,"new":4,"median_price":363250,"ppsf":136,"dom":70,"pop":4778,"lat":39.12264,"lng":-80.44772},{"zip":"26075","name":"Windsor Heights","pending_pct":1.0,"pending":1,"active":1,"total":1,"new":0,"median_price":54000,"ppsf":73,"dom":90,"pop":519,"lat":40.19748,"lng":-80.64567},{"zip":"25306","name":"Charleston","pending_pct":0.4615,"pending":6,"active":6,"total":13,"new":4,"median_price":82400,"ppsf":49,"dom":150,"pop":6040,"lat":38.31071,"lng":-81.49087},{"zip":"24938","name":"Frankford","pending_pct":0.4,"pending":2,"active":3,"total":5,"new":0,"median_price":320000,"ppsf":279,"dom":53,"pop":1233,"lat":37.92516,"lng":-80.38083},{"zip":"24740","name":"Princeton","pending_pct":0.3023,"pending":13,"active":31,"total":43,"new":8,"median_price":179000,"ppsf":122,"dom":61,"pop":16498,"lat":37.4042,"lng":-81.10205},{"zip":"25401","name":"Martinsburg","pending_pct":0.4308,"pending":28,"active":37,"total":65,"new":20,"median_price":299900,"ppsf":182,"dom":63,"pop":14979,"lat":39.45642,"lng":-77.97267},{"zip":"25526","name":"Hurricane","pending_pct":0.5577,"pending":29,"active":23,"total":52,"new":20,"median_price":384950,"ppsf":151,"dom":29,"pop":22514,"lat":38.3984,"lng":-81.98279},{"zip":"24951","name":"Lindside","pending_pct":0.1667,"pending":1,"active":5,"total":6,"new":0,"median_price":229900,"ppsf":166,"dom":109,"pop":1416,"lat":37.48358,"lng":-80.63103},{"zip":"26559","name":"Barrackville","pending_pct":0.6667,"pending":2,"active":1,"total":3,"new":0,"median_price":295000,"ppsf":142,"dom":37,"pop":1619,"lat":39.52141,"lng":-80.18015},{"zip":"25443","name":"Shepherdstown","pending_pct":0.5,"pending":24,"active":21,"total":48,"new":12,"median_price":572000,"ppsf":237,"dom":42,"pop":7496,"lat":39.43835,"lng":-77.81477},{"zip":"25268","name":"Orma","pending_pct":1.0,"pending":1,"active":1,"total":1,"new":0,"median_price":129900,"ppsf":null,"dom":8,"pop":498,"lat":38.73969,"lng":-81.107},{"zip":"26218","name":"French Creek","pending_pct":1.0,"pending":2,"active":1,"total":2,"new":0,"median_price":285000,"ppsf":130,"dom":158,"pop":2883,"lat":38.84506,"lng":-80.26798},{"zip":"26292","name":"Thomas","pending_pct":0.1,"pending":1,"active":9,"total":10,"new":0,"median_price":260000,"ppsf":202,"dom":178,"pop":789,"lat":39.15247,"lng":-79.52916},{"zip":"26320","name":"Alma","pending_pct":1.0,"pending":1,"active":1,"total":1,"new":0,"median_price":449000,"ppsf":367,"dom":2,"pop":723,"lat":39.41514,"lng":-80.82614},{"zip":"26040","name":"Mcmechen","pending_pct":0.25,"pending":2,"active":5,"total":8,"new":0,"median_price":102000,"ppsf":60,"dom":52,"pop":1899,"lat":39.98389,"lng":-80.73104},{"zip":"26288","name":"Webster Springs","pending_pct":0.0769,"pending":1,"active":12,"total":13,"new":0,"median_price":84950,"ppsf":106,"dom":102,"pop":3148,"lat":38.49664,"lng":-80.3645},{"zip":"24970","name":"Ronceverte","pending_pct":0.2308,"pending":3,"active":10,"total":13,"new":0,"median_price":254000,"ppsf":117,"dom":107,"pop":3647,"lat":37.73238,"lng":-80.47574},{"zip":"25703","name":"Huntington","pending_pct":0.5,"pending":7,"active":7,"total":14,"new":0,"median_price":44900,"ppsf":41,"dom":75,"pop":4598,"lat":38.42201,"lng":-82.41827},{"zip":"25313","name":"Charleston","pending_pct":0.5128,"pending":20,"active":21,"total":39,"new":12,"median_price":162400,"ppsf":110,"dom":48,"pop":11760,"lat":38.41547,"lng":-81.75704},{"zip":"26210","name":"Adrian","pending_pct":0.5,"pending":1,"active":1,"total":2,"new":0,"median_price":155900,"ppsf":62,"dom":200,"pop":124,"lat":38.90315,"lng":-80.27812},{"zip":"25007","name":"Arnett","pending_pct":0.5,"pending":1,"active":1,"total":2,"new":0,"median_price":220900,"ppsf":131,"dom":33,"pop":687,"lat":37.8252,"lng":-81.42766},{"zip":"26884","name":"Seneca Rocks","pending_pct":0.6667,"pending":2,"active":1,"total":3,"new":0,"median_price":229900,"ppsf":290,"dom":52,"pop":204,"lat":38.84273,"lng":-79.40118},{"zip":"26264","name":"Durbin","pending_pct":0.5,"pending":1,"active":1,"total":2,"new":0,"median_price":59999,"ppsf":34,"dom":217,"pop":618,"lat":38.58923,"lng":-79.82277},{"zip":"26222","name":"Hacker Valley","pending_pct":1.0,"pending":1,"active":0,"total":1,"new":0,"median_price":50000,"ppsf":51,"dom":67,"pop":309,"lat":38.66123,"lng":-80.37122},{"zip":"25607","name":"Amherstdale","pending_pct":1.0,"pending":1,"active":1,"total":1,"new":0,"median_price":52000,"ppsf":42,"dom":40,"pop":847,"lat":37.78125,"lng":-81.77081},{"zip":"26631","name":"Napier","pending_pct":null,"pending":null,"active":3,"total":3,"new":0,"median_price":130000,"ppsf":103,"dom":128,"pop":214,"lat":38.79795,"lng":-80.56856},{"zip":"24853","name":"Kimball","pending_pct":null,"pending":null,"active":1,"total":1,"new":0,"median_price":7000,"ppsf":6,"dom":137,"pop":458,"lat":37.42924,"lng":-81.51686},{"zip":"25261","name":"Millstone","pending_pct":null,"pending":null,"active":1,"total":1,"new":0,"median_price":219000,"ppsf":140,"dom":330,"pop":325,"lat":38.83027,"lng":-81.08886},{"zip":"26215","name":"Cleveland","pending_pct":null,"pending":null,"active":1,"total":1,"new":0,"median_price":220000,"ppsf":178,"dom":123,"pop":166,"lat":38.71931,"lng":-80.37915},{"zip":"25173","name":"Robson","pending_pct":null,"pending":null,"active":1,"total":1,"new":0,"median_price":150000,"ppsf":21,"dom":75,"pop":67,"lat":38.07519,"lng":-81.21898},{"zip":"26059","name":"Triadelphia","pending_pct":null,"pending":null,"active":3,"total":3,"new":0,"median_price":390000,"ppsf":187,"dom":25,"pop":2888,"lat":40.07156,"lng":-80.59379},{"zip":"25260","name":"Mason","pending_pct":null,"pending":null,"active":3,"total":3,"new":0,"median_price":199000,"ppsf":112,"dom":45,"pop":1298,"lat":39.01653,"lng":-82.02465},{"zip":"26060","name":"Valley Grove","pending_pct":null,"pending":null,"active":4,"total":4,"new":0,"median_price":347000,"ppsf":203,"dom":48,"pop":1655,"lat":40.10465,"lng":-80.54649},{"zip":"26521","name":"Blacksville","pending_pct":null,"pending":null,"active":1,"total":1,"new":4,"median_price":265000,"ppsf":195,"dom":null,"pop":113,"lat":39.71374,"lng":-80.23065},{"zip":"25671","name":"Dingess","pending_pct":null,"pending":null,"active":0,"total":0,"new":0,"median_price":125000,"ppsf":96,"dom":311,"pop":1898,"lat":37.90411,"lng":-82.20283},{"zip":"25951","name":"Hinton","pending_pct":0.1818,"pending":8,"active":37,"total":44,"new":4,"median_price":219000,"ppsf":139,"dom":78,"pop":4904,"lat":37.65535,"lng":-80.87197},{"zip":"25121","name":"Lake","pending_pct":1.0,"pending":1,"active":1,"total":1,"new":0,"median_price":275000,"ppsf":131,"dom":4,"pop":948,"lat":37.91167,"lng":-81.87787},{"zip":"25266","name":"Newton","pending_pct":1.0,"pending":2,"active":0,"total":2,"new":0,"median_price":203000,"ppsf":97,"dom":203,"pop":680,"lat":38.60224,"lng":-81.1589},{"zip":"24715","name":"Bramwell","pending_pct":0.5,"pending":1,"active":2,"total":2,"new":0,"median_price":148900,"ppsf":82,"dom":61,"pop":275,"lat":37.33408,"lng":-81.32933},{"zip":"25678","name":"Matewan","pending_pct":0.5,"pending":1,"active":2,"total":2,"new":0,"median_price":179500,"ppsf":88,"dom":82,"pop":1336,"lat":37.59564,"lng":-82.08187},{"zip":"26426","name":"Salem","pending_pct":0.1538,"pending":2,"active":11,"total":13,"new":8,"median_price":86500,"ppsf":78,"dom":36,"pop":7575,"lat":39.28758,"lng":-80.56313},{"zip":"25510","name":"Culloden","pending_pct":0.3846,"pending":5,"active":8,"total":13,"new":4,"median_price":320000,"ppsf":175,"dom":30,"pop":5098,"lat":38.38832,"lng":-82.06599},{"zip":"26159","name":"Paden City","pending_pct":0.375,"pending":3,"active":6,"total":8,"new":0,"median_price":107450,"ppsf":104,"dom":54,"pop":2446,"lat":39.60724,"lng":-80.93216},{"zip":"25823","name":"Coal City","pending_pct":0.2222,"pending":2,"active":7,"total":9,"new":0,"median_price":104000,"ppsf":81,"dom":73,"pop":423,"lat":37.66626,"lng":-81.18231},{"zip":"26164","name":"Ravenswood","pending_pct":0.6667,"pending":10,"active":5,"total":15,"new":4,"median_price":250000,"ppsf":121,"dom":95,"pop":7435,"lat":38.99061,"lng":-81.71949},{"zip":"25523","name":"Hamlin","pending_pct":1.0,"pending":3,"active":1,"total":3,"new":0,"median_price":101000,"ppsf":53,"dom":52,"pop":2753,"lat":38.27934,"lng":-82.06754},{"zip":"25081","name":"Foster","pending_pct":1.0,"pending":2,"active":0,"total":2,"new":0,"median_price":144900,"ppsf":70,"dom":152,"pop":1084,"lat":38.08235,"lng":-81.76875},{"zip":"26537","name":"Kingwood","pending_pct":0.5789,"pending":11,"active":7,"total":19,"new":4,"median_price":294900,"ppsf":137,"dom":62,"pop":5276,"lat":39.4846,"lng":-79.71189},{"zip":"24874","name":"Pineville","pending_pct":1.0,"pending":3,"active":1,"total":3,"new":0,"median_price":169999,"ppsf":75,"dom":222,"pop":1851,"lat":37.60201,"lng":-81.53072},{"zip":"25064","name":"Dunbar","pending_pct":0.3939,"pending":13,"active":20,"total":33,"new":8,"median_price":132250,"ppsf":106,"dom":59,"pop":9090,"lat":38.37631,"lng":-81.74764},{"zip":"25267","name":"Normantown","pending_pct":1.0,"pending":1,"active":0,"total":1,"new":0,"median_price":239000,"ppsf":128,"dom":116,"pop":731,"lat":38.85778,"lng":-80.94187},{"zip":"26035","name":"Colliers","pending_pct":0.5,"pending":2,"active":2,"total":4,"new":0,"median_price":177500,"ppsf":122,"dom":27,"pop":2491,"lat":40.3482,"lng":-80.55522},{"zip":"26416","name":"Philippi","pending_pct":0.25,"pending":5,"active":15,"total":20,"new":4,"median_price":199500,"ppsf":106,"dom":68,"pop":7693,"lat":39.16349,"lng":-80.02245},{"zip":"25070","name":"Eleanor","pending_pct":0.5,"pending":2,"active":2,"total":4,"new":0,"median_price":299950,"ppsf":136,"dom":60,"pop":1875,"lat":38.54667,"lng":-81.93179},{"zip":"25844","name":"Glen Daniel","pending_pct":0.5,"pending":2,"active":2,"total":4,"new":0,"median_price":150000,"ppsf":92,"dom":58,"pop":607,"lat":37.81056,"lng":-81.37022},{"zip":"25862","name":"Lansing","pending_pct":1.0,"pending":1,"active":1,"total":1,"new":0,"median_price":397450,"ppsf":147,"dom":39,"pop":216,"lat":38.08448,"lng":-81.05192},{"zip":"25617","name":"Davin","pending_pct":0.6667,"pending":2,"active":2,"total":3,"new":0,"median_price":118749,"ppsf":116,"dom":52,"pop":163,"lat":37.74549,"lng":-81.80275},{"zip":"25938","name":"Victor","pending_pct":0.2,"pending":1,"active":4,"total":5,"new":0,"median_price":582450,"ppsf":260,"dom":41,"pop":1739,"lat":38.15993,"lng":-81.03447},{"zip":"25971","name":"Lerona","pending_pct":0.6667,"pending":2,"active":2,"total":3,"new":0,"median_price":406625,"ppsf":166,"dom":60,"pop":1438,"lat":37.48001,"lng":-80.97821},{"zip":"26833","name":"Maysville","pending_pct":0.1429,"pending":1,"active":6,"total":7,"new":0,"median_price":533995,"ppsf":217,"dom":86,"pop":2890,"lat":39.08119,"lng":-79.2083},{"zip":"26852","name":"Purgitsville","pending_pct":0.4,"pending":2,"active":3,"total":5,"new":0,"median_price":349900,"ppsf":195,"dom":166,"pop":1029,"lat":39.2477,"lng":-78.91599},{"zip":"25932","name":"Surveyor","pending_pct":1.0,"pending":1,"active":1,"total":1,"new":0,"median_price":143500,"ppsf":149,"dom":287,"pop":167,"lat":37.75623,"lng":-81.30282},{"zip":"25913","name":"Ravencliff","pending_pct":1.0,"pending":1,"active":1,"total":1,"new":0,"median_price":45600,"ppsf":32,"dom":21,"pop":137,"lat":37.70781,"lng":-81.47301},{"zip":"26335","name":"Burnsville","pending_pct":null,"pending":null,"active":3,"total":3,"new":0,"median_price":63500,"ppsf":71,"dom":219,"pop":1149,"lat":38.85364,"lng":-80.67683},{"zip":"25846","name":"Glen Jean","pending_pct":null,"pending":null,"active":1,"total":1,"new":0,"median_price":985000,"ppsf":246,"dom":117,"pop":34,"lat":37.92476,"lng":-81.16628},{"zip":"25208","name":"Wharton","pending_pct":null,"pending":null,"active":1,"total":1,"new":0,"median_price":149000,"ppsf":57,"dom":41,"pop":852,"lat":37.84579,"lng":-81.64282},{"zip":"25124","name":"Liberty","pending_pct":null,"pending":null,"active":2,"total":2,"new":0,"median_price":122500,"ppsf":75,"dom":97,"pop":1514,"lat":38.62006,"lng":-81.76536},{"zip":"26161","name":"Petroleum","pending_pct":null,"pending":null,"active":1,"total":1,"new":4,"median_price":150000,"ppsf":94,"dom":5,"pop":415,"lat":39.16789,"lng":-81.2526},{"zip":"24976","name":"Sinks Grove","pending_pct":null,"pending":null,"active":3,"total":3,"new":0,"median_price":359000,"ppsf":165,"dom":110,"pop":1095,"lat":37.66513,"lng":-80.52273},{"zip":"26425","name":"Rowlesburg","pending_pct":null,"pending":null,"active":2,"total":2,"new":0,"median_price":85000,"ppsf":70,"dom":70,"pop":999,"lat":39.3116,"lng":-79.68651},{"zip":"26253","name":"Beverly","pending_pct":0.2222,"pending":2,"active":7,"total":9,"new":0,"median_price":180000,"ppsf":95,"dom":70,"pop":2589,"lat":38.80772,"lng":-79.85654},{"zip":"26055","name":"Proctor","pending_pct":1.0,"pending":2,"active":1,"total":2,"new":0,"median_price":229000,"ppsf":183,"dom":25,"pop":1139,"lat":39.75338,"lng":-80.77396},{"zip":"26175","name":"Sistersville","pending_pct":0.3636,"pending":4,"active":6,"total":11,"new":4,"median_price":97500,"ppsf":66,"dom":40,"pop":2991,"lat":39.53899,"lng":-80.96577},{"zip":"26855","name":"Cabins","pending_pct":0.3333,"pending":1,"active":2,"total":3,"new":0,"median_price":714500,"ppsf":309,"dom":110,"pop":633,"lat":38.96933,"lng":-79.25935},{"zip":"26101","name":"Parkersburg","pending_pct":0.4086,"pending":38,"active":54,"total":93,"new":32,"median_price":149900,"ppsf":102,"dom":42,"pop":28005,"lat":39.23394,"lng":-81.57483},{"zip":"25071","name":"Elkview","pending_pct":0.4211,"pending":8,"active":12,"total":19,"new":8,"median_price":319450,"ppsf":142,"dom":37,"pop":11107,"lat":38.47732,"lng":-81.46756},{"zip":"24981","name":"Talcott","pending_pct":0.25,"pending":1,"active":3,"total":4,"new":0,"median_price":308000,"ppsf":113,"dom":51,"pop":463,"lat":37.63256,"lng":-80.73968},{"zip":"26710","name":"Burlington","pending_pct":0.25,"pending":1,"active":4,"total":4,"new":0,"median_price":324000,"ppsf":183,"dom":30,"pop":1912,"lat":39.30996,"lng":-78.94544},{"zip":"25661","name":"Williamson","pending_pct":0.0625,"pending":1,"active":15,"total":16,"new":0,"median_price":129000,"ppsf":74,"dom":132,"pop":4277,"lat":37.71062,"lng":-82.25377},{"zip":"26241","name":"Elkins","pending_pct":0.3333,"pending":17,"active":34,"total":51,"new":12,"median_price":249900,"ppsf":123,"dom":56,"pop":14102,"lat":38.9163,"lng":-79.79229},{"zip":"25164","name":"Procious","pending_pct":0.25,"pending":1,"active":3,"total":4,"new":0,"median_price":199900,"ppsf":156,"dom":31,"pop":571,"lat":38.50406,"lng":-81.19373},{"zip":"26851","name":"Wardensville","pending_pct":0.1667,"pending":2,"active":10,"total":12,"new":4,"median_price":359000,"ppsf":260,"dom":58,"pop":1870,"lat":39.04801,"lng":-78.62878},{"zip":"24935","name":"Forest Hill","pending_pct":0.4,"pending":2,"active":3,"total":5,"new":0,"median_price":169000,"ppsf":261,"dom":208,"pop":797,"lat":37.56362,"lng":-80.80344},{"zip":"24901","name":"Lewisburg","pending_pct":0.2778,"pending":15,"active":38,"total":54,"new":8,"median_price":365000,"ppsf":202,"dom":69,"pop":9093,"lat":37.85298,"lng":-80.47598},{"zip":"25387","name":"Charleston","pending_pct":0.3913,"pending":9,"active":14,"total":23,"new":0,"median_price":25000,"ppsf":25,"dom":90,"pop":4708,"lat":38.38523,"lng":-81.6642},{"zip":"25901","name":"Oak Hill","pending_pct":0.5517,"pending":16,"active":13,"total":29,"new":4,"median_price":228500,"ppsf":139,"dom":32,"pop":10012,"lat":37.93575,"lng":-81.11242},{"zip":"25504","name":"Barboursville","pending_pct":0.4722,"pending":17,"active":19,"total":36,"new":12,"median_price":280000,"ppsf":156,"dom":51,"pop":12251,"lat":38.37297,"lng":-82.26674},{"zip":"26801","name":"Baker","pending_pct":1.0,"pending":2,"active":1,"total":2,"new":0,"median_price":307175,"ppsf":199,"dom":60,"pop":1517,"lat":39.05694,"lng":-78.79374},{"zip":"25202","name":"Tornado","pending_pct":0.7143,"pending":5,"active":2,"total":7,"new":0,"median_price":207450,"ppsf":118,"dom":81,"pop":1451,"lat":38.31593,"lng":-81.85372},{"zip":"25234","name":"Arnoldsburg","pending_pct":0.2,"pending":1,"active":4,"total":5,"new":0,"median_price":294950,"ppsf":130,"dom":77,"pop":566,"lat":38.81291,"lng":-81.12343},{"zip":"25915","name":"Rhodell","pending_pct":1.0,"pending":1,"active":0,"total":1,"new":0,"median_price":5000,"ppsf":5,"dom":96,"pop":252,"lat":37.61575,"lng":-81.28691},{"zip":"24830","name":"Elbert","pending_pct":0.5,"pending":1,"active":2,"total":2,"new":0,"median_price":36750,"ppsf":33,"dom":176,"pop":125,"lat":37.33399,"lng":-81.55799},{"zip":"25511","name":"Dunlow","pending_pct":1.0,"pending":1,"active":1,"total":1,"new":0,"median_price":14900,"ppsf":9,"dom":16,"pop":855,"lat":38.03194,"lng":-82.35637},{"zip":"25547","name":"Pecks Mill","pending_pct":0.5,"pending":2,"active":2,"total":4,"new":0,"median_price":43950,"ppsf":59,"dom":44,"pop":583,"lat":37.92627,"lng":-81.9537},{"zip":"26717","name":"Elk Garden","pending_pct":null,"pending":null,"active":1,"total":1,"new":4,"median_price":1150000,"ppsf":523,"dom":2,"pop":1593,"lat":39.34583,"lng":-79.17597},{"zip":"26151","name":"Mount Zion","pending_pct":null,"pending":null,"active":1,"total":1,"new":0,"median_price":171000,"ppsf":81,"dom":94,"pop":572,"lat":38.89493,"lng":-81.17503},{"zip":"24934","name":"Dunmore","pending_pct":null,"pending":null,"active":1,"total":1,"new":0,"median_price":359000,"ppsf":312,"dom":295,"pop":362,"lat":38.32836,"lng":-79.89267},{"zip":"25515","name":"Gallipolis Ferry","pending_pct":null,"pending":null,"active":1,"total":1,"new":0,"median_price":245000,"ppsf":147,"dom":135,"pop":2386,"lat":38.75731,"lng":-82.15262},{"zip":"25204","name":"Twilight","pending_pct":null,"pending":null,"active":1,"total":1,"new":2,"median_price":37000,"ppsf":31,"dom":5,"pop":161,"lat":37.91546,"lng":-81.60914},{"zip":"25559","name":"Salt Rock","pending_pct":null,"pending":null,"active":3,"total":3,"new":0,"median_price":829000,"ppsf":303,"dom":191,"pop":1899,"lat":38.32753,"lng":-82.23181},{"zip":"26505","name":"Morgantown","pending_pct":0.5,"pending":56,"active":56,"total":112,"new":36,"median_price":329000,"ppsf":172,"dom":39,"pop":37492,"lat":39.6511,"lng":-79.94306},{"zip":"25419","name":"Falling Waters","pending_pct":0.3962,"pending":21,"active":33,"total":53,"new":16,"median_price":359950,"ppsf":179,"dom":45,"pop":13201,"lat":39.58286,"lng":-77.88493},{"zip":"25840","name":"Fayetteville","pending_pct":0.2821,"pending":11,"active":29,"total":39,"new":8,"median_price":317000,"ppsf":176,"dom":53,"pop":7746,"lat":38.04001,"lng":-81.11442},{"zip":"25506","name":"Branchland","pending_pct":0.6,"pending":3,"active":1,"total":5,"new":0,"median_price":89900,"ppsf":60,"dom":50,"pop":5299,"lat":38.20826,"lng":-82.18665},{"zip":"26386","name":"Lumberport","pending_pct":0.3333,"pending":1,"active":2,"total":3,"new":0,"median_price":79950,"ppsf":62,"dom":56,"pop":2243,"lat":39.39878,"lng":-80.40263},{"zip":"26582","name":"Mannington","pending_pct":0.375,"pending":3,"active":4,"total":8,"new":4,"median_price":149500,"ppsf":83,"dom":64,"pop":3743,"lat":39.53114,"lng":-80.38767},{"zip":"25832","name":"Daniels","pending_pct":0.1905,"pending":8,"active":33,"total":42,"new":4,"median_price":379900,"ppsf":169,"dom":60,"pop":4818,"lat":37.72637,"lng":-81.10494},{"zip":"25601","name":"Logan","pending_pct":0.3571,"pending":5,"active":9,"total":14,"new":4,"median_price":155000,"ppsf":105,"dom":40,"pop":4380,"lat":37.86255,"lng":-82.0026},{"zip":"25801","name":"Beckley","pending_pct":0.3265,"pending":48,"active":103,"total":147,"new":44,"median_price":165000,"ppsf":111,"dom":36,"pop":31128,"lat":37.83805,"lng":-81.27017},{"zip":"26836","name":"Moorefield","pending_pct":0.375,"pending":6,"active":9,"total":16,"new":0,"median_price":384950,"ppsf":180,"dom":55,"pop":5625,"lat":39.00693,"lng":-78.96366},{"zip":"25670","name":"Delbarton","pending_pct":0.375,"pending":3,"active":5,"total":8,"new":0,"median_price":127000,"ppsf":82,"dom":98,"pop":3203,"lat":37.7385,"lng":-82.15588},{"zip":"24963","name":"Peterstown","pending_pct":0.5,"pending":7,"active":7,"total":14,"new":0,"median_price":650000,"ppsf":155,"dom":162,"pop":3560,"lat":37.43743,"lng":-80.77617},{"zip":"25560","name":"Scott Depot","pending_pct":0.5185,"pending":14,"active":12,"total":27,"new":8,"median_price":317450,"ppsf":150,"dom":50,"pop":9303,"lat":38.44736,"lng":-81.89908},{"zip":"26142","name":"Davisville","pending_pct":0.5,"pending":2,"active":2,"total":4,"new":0,"median_price":209975,"ppsf":127,"dom":12,"pop":2262,"lat":39.21488,"lng":-81.45431},{"zip":"26757","name":"Romney","pending_pct":0.4167,"pending":10,"active":14,"total":24,"new":8,"median_price":282450,"ppsf":161,"dom":53,"pop":7029,"lat":39.31652,"lng":-78.75001},{"zip":"25535","name":"Lavalette","pending_pct":0.5,"pending":2,"active":2,"total":4,"new":0,"median_price":199900,"ppsf":109,"dom":79,"pop":2461,"lat":38.30772,"lng":-82.43405},{"zip":"26452","name":"Weston","pending_pct":0.3889,"pending":14,"active":22,"total":36,"new":4,"median_price":135000,"ppsf":96,"dom":95,"pop":9220,"lat":39.03286,"lng":-80.51315},{"zip":"25876","name":"Saulsville","pending_pct":1.0,"pending":1,"active":0,"total":1,"new":0,"median_price":199900,"ppsf":96,"dom":308,"pop":90,"lat":37.63677,"lng":-81.44731},{"zip":"26136","name":"Big Bend","pending_pct":0.3333,"pending":1,"active":2,"total":3,"new":0,"median_price":225000,"ppsf":173,"dom":181,"pop":307,"lat":38.96553,"lng":-81.11478},{"zip":"25180","name":"Saxon","pending_pct":1.0,"pending":1,"active":1,"total":1,"new":0,"median_price":110000,"ppsf":153,"dom":3,"pop":182,"lat":37.78961,"lng":-81.43316},{"zip":"24941","name":"Gap Mills","pending_pct":0.2222,"pending":2,"active":7,"total":9,"new":0,"median_price":39000,"ppsf":33,"dom":214,"pop":1243,"lat":37.58824,"lng":-80.3577},{"zip":"25251","name":"Left Hand","pending_pct":1.0,"pending":1,"active":0,"total":1,"new":0,"median_price":160000,"ppsf":73,"dom":136,"pop":377,"lat":38.62119,"lng":-81.23173},{"zip":"25529","name":"Julian","pending_pct":1.0,"pending":2,"active":1,"total":2,"new":0,"median_price":97500,"ppsf":90,"dom":12,"pop":1027,"lat":38.15573,"lng":-81.8245},{"zip":"25244","name":"Gay","pending_pct":null,"pending":null,"active":1,"total":1,"new":0,"median_price":350000,"ppsf":85,"dom":66,"pop":850,"lat":38.77068,"lng":-81.54237},{"zip":"25676","name":"Lenore","pending_pct":null,"pending":null,"active":1,"total":1,"new":0,"median_price":160000,"ppsf":82,"dom":169,"pop":1239,"lat":37.82509,"lng":-82.22972},{"zip":"26323","name":"Anmoore","pending_pct":null,"pending":null,"active":1,"total":1,"new":0,"median_price":17500,"ppsf":18,"dom":224,"pop":382,"lat":39.2623,"lng":-80.29057},{"zip":"25154","name":"Peytona","pending_pct":null,"pending":null,"active":1,"total":1,"new":0,"median_price":249000,"ppsf":169,"dom":12,"pop":1085,"lat":38.11572,"lng":-81.70249},{"zip":"25557","name":"Ranger","pending_pct":null,"pending":null,"active":1,"total":1,"new":0,"median_price":40000,"ppsf":24,"dom":16,"pop":1251,"lat":38.09923,"lng":-82.16262},{"zip":"26369","name":"Hepzibah","pending_pct":null,"pending":null,"active":1,"total":1,"new":0,"median_price":9900,"ppsf":12,"dom":72,"pop":387,"lat":39.33527,"lng":-80.33117},{"zip":"25649","name":"Verdunville","pending_pct":null,"pending":null,"active":2,"total":2,"new":0,"median_price":170000,"ppsf":111,"dom":52,"pop":1722,"lat":37.87166,"lng":-82.08489},{"zip":"24736","name":"Matoaka","pending_pct":null,"pending":null,"active":1,"total":1,"new":0,"median_price":65000,"ppsf":49,"dom":25,"pop":426,"lat":37.45045,"lng":-81.29589},{"zip":"25621","name":"Gilbert","pending_pct":null,"pending":null,"active":2,"total":2,"new":0,"median_price":190000,"ppsf":96,"dom":195,"pop":1739,"lat":37.63149,"lng":-81.89643},{"zip":"26217","name":"Diana","pending_pct":null,"pending":null,"active":1,"total":1,"new":2,"median_price":249900,"ppsf":94,"dom":9,"pop":283,"lat":38.60837,"lng":-80.45901},{"zip":"25644","name":"Sarah Ann","pending_pct":null,"pending":null,"active":0,"total":0,"new":0,"median_price":4000,"ppsf":null,"dom":133,"pop":761,"lat":37.70191,"lng":-82.00107},{"zip":"25063","name":"Duck","pending_pct":0.5,"pending":4,"active":4,"total":8,"new":0,"median_price":300000,"ppsf":158,"dom":94,"pop":1309,"lat":38.57761,"lng":-80.92572},{"zip":"26354","name":"Grafton","pending_pct":0.4667,"pending":7,"active":9,"total":15,"new":8,"median_price":147600,"ppsf":94,"dom":59,"pop":9558,"lat":39.34847,"lng":-80.02866},{"zip":"26719","name":"Fort Ashby","pending_pct":0.4286,"pending":6,"active":8,"total":14,"new":4,"median_price":392000,"ppsf":194,"dom":60,"pop":2082,"lat":39.49778,"lng":-78.7678},{"zip":"25420","name":"Gerrardstown","pending_pct":0.5455,"pending":12,"active":10,"total":22,"new":4,"median_price":449000,"ppsf":260,"dom":36,"pop":4945,"lat":39.38095,"lng":-78.11969},{"zip":"26451","name":"West Milford","pending_pct":0.5,"pending":1,"active":1,"total":2,"new":0,"median_price":357000,"ppsf":149,"dom":159,"pop":591,"lat":39.20439,"lng":-80.40352},{"zip":"25320","name":"Charleston","pending_pct":0.2857,"pending":2,"active":4,"total":7,"new":4,"median_price":272000,"ppsf":153,"dom":18,"pop":4595,"lat":38.54124,"lng":-81.62706},{"zip":"25414","name":"Charles Town","pending_pct":0.6051,"pending":167,"active":108,"total":276,"new":88,"median_price":443490,"ppsf":188,"dom":36,"pop":21073,"lat":39.25273,"lng":-77.87055},{"zip":"25053","name":"Danville","pending_pct":0.2857,"pending":2,"active":5,"total":7,"new":0,"median_price":300000,"ppsf":101,"dom":61,"pop":3801,"lat":38.04725,"lng":-81.87633},{"zip":"26590","name":"Wana","pending_pct":0.5,"pending":1,"active":1,"total":2,"new":0,"median_price":425000,"ppsf":213,"dom":22,"pop":550,"lat":39.67428,"lng":-80.31674},{"zip":"25177","name":"Saint Albans","pending_pct":0.527,"pending":39,"active":35,"total":74,"new":28,"median_price":143000,"ppsf":119,"dom":42,"pop":22665,"lat":38.36928,"lng":-81.85021},{"zip":"25425","name":"Harpers Ferry","pending_pct":0.4831,"pending":43,"active":45,"total":89,"new":32,"median_price":515000,"ppsf":241,"dom":29,"pop":13332,"lat":39.27613,"lng":-77.79184},{"zip":"26062","name":"Weirton","pending_pct":0.5077,"pending":33,"active":33,"total":65,"new":20,"median_price":174900,"ppsf":119,"dom":49,"pop":20578,"lat":40.42189,"lng":-80.56123},{"zip":"26273","name":"Huttonsville","pending_pct":0.1667,"pending":1,"active":5,"total":6,"new":0,"median_price":195900,"ppsf":98,"dom":248,"pop":1964,"lat":38.62993,"lng":-79.963},{"zip":"24868","name":"Northfork","pending_pct":0.3333,"pending":1,"active":3,"total":3,"new":0,"median_price":85000,"ppsf":199,"dom":95,"pop":999,"lat":37.42412,"lng":-81.40259},{"zip":"25820","name":"Camp Creek","pending_pct":0.5,"pending":2,"active":1,"total":4,"new":4,"median_price":299500,"ppsf":194,"dom":23,"pop":583,"lat":37.50812,"lng":-81.13549},{"zip":"25165","name":"Racine","pending_pct":1.0,"pending":1,"active":2,"total":1,"new":0,"median_price":60749,"ppsf":52,"dom":113,"pop":616,"lat":38.14907,"lng":-81.65308},{"zip":"26814","name":"Riverton","pending_pct":null,"pending":null,"active":1,"total":1,"new":0,"median_price":749000,"ppsf":629,"dom":16,"pop":440,"lat":38.75176,"lng":-79.46648},{"zip":"25638","name":"Omar","pending_pct":null,"pending":null,"active":0,"total":0,"new":0,"median_price":2000,"ppsf":null,"dom":133,"pop":249,"lat":37.74423,"lng":-82.05133},{"zip":"25270","name":"Reedy","pending_pct":null,"pending":null,"active":4,"total":4,"new":0,"median_price":264500,"ppsf":148,"dom":38,"pop":1127,"lat":38.88174,"lng":-81.43395},{"zip":"26141","name":"Creston","pending_pct":null,"pending":null,"active":1,"total":1,"new":0,"median_price":85000,"ppsf":106,"dom":132,"pop":356,"lat":38.92925,"lng":-81.26059},{"zip":"26267","name":"Ellamore","pending_pct":null,"pending":null,"active":2,"total":2,"new":8,"median_price":437500,"ppsf":183,"dom":2,"pop":650,"lat":38.92557,"lng":-80.08069},{"zip":"25028","name":"Bob White","pending_pct":null,"pending":null,"active":1,"total":1,"new":0,"median_price":29500,"ppsf":31,"dom":163,"pop":440,"lat":37.95598,"lng":-81.72535},{"zip":"26282","name":"Monterville","pending_pct":1.0,"pending":1,"active":1,"total":1,"new":0,"median_price":245500,"ppsf":113,"dom":13,"pop":205,"lat":38.52022,"lng":-80.14619},{"zip":"26338","name":"Camden","pending_pct":0.5,"pending":1,"active":1,"total":2,"new":0,"median_price":160000,"ppsf":84,"dom":144,"pop":518,"lat":39.08503,"lng":-80.61941},{"zip":"25271","name":"Ripley","pending_pct":0.3846,"pending":5,"active":8,"total":13,"new":8,"median_price":342000,"ppsf":140,"dom":20,"pop":7376,"lat":38.78845,"lng":-81.68625},{"zip":"26807","name":"Franklin","pending_pct":0.1154,"pending":3,"active":22,"total":26,"new":4,"median_price":310000,"ppsf":277,"dom":86,"pop":2228,"lat":38.62895,"lng":-79.36157},{"zip":"26372","name":"Horner","pending_pct":0.3333,"pending":1,"active":2,"total":3,"new":0,"median_price":1712450,"ppsf":197,"dom":150,"pop":635,"lat":38.95859,"lng":-80.37155},{"zip":"25508","name":"Chapmanville","pending_pct":0.2222,"pending":2,"active":7,"total":9,"new":4,"median_price":175000,"ppsf":95,"dom":17,"pop":8028,"lat":37.96388,"lng":-82.01394},{"zip":"26519","name":"Albright","pending_pct":0.6667,"pending":2,"active":1,"total":3,"new":0,"median_price":550000,"ppsf":175,"dom":21,"pop":2363,"lat":39.55179,"lng":-79.63212},{"zip":"25962","name":"Rainelle","pending_pct":0.2174,"pending":5,"active":17,"total":23,"new":4,"median_price":151500,"ppsf":95,"dom":63,"pop":3302,"lat":37.97044,"lng":-80.8098},{"zip":"26287","name":"Parsons","pending_pct":0.2727,"pending":3,"active":8,"total":11,"new":4,"median_price":185000,"ppsf":133,"dom":113,"pop":3034,"lat":39.16657,"lng":-79.69057},{"zip":"25136","name":"Montgomery","pending_pct":0.2857,"pending":2,"active":5,"total":7,"new":0,"median_price":95000,"ppsf":56,"dom":72,"pop":1543,"lat":38.15864,"lng":-81.31977},{"zip":"25976","name":"Meadow Bridge","pending_pct":0.3333,"pending":2,"active":4,"total":6,"new":0,"median_price":350000,"ppsf":143,"dom":75,"pop":2469,"lat":37.84372,"lng":-80.86221},{"zip":"25413","name":"Bunker Hill","pending_pct":0.5254,"pending":31,"active":27,"total":59,"new":20,"median_price":420000,"ppsf":213,"dom":35,"pop":9618,"lat":39.31632,"lng":-78.053},{"zip":"26525","name":"Bruceton Mills","pending_pct":0.3158,"pending":6,"active":13,"total":19,"new":8,"median_price":419000,"ppsf":269,"dom":29,"pop":8630,"lat":39.65465,"lng":-79.6184},{"zip":"25839","name":"Fairdale","pending_pct":0.75,"pending":3,"active":1,"total":4,"new":0,"median_price":349000,"ppsf":175,"dom":2,"pop":390,"lat":37.78091,"lng":-81.38228},{"zip":"25265","name":"New Haven","pending_pct":0.5,"pending":3,"active":3,"total":6,"new":0,"median_price":159950,"ppsf":129,"dom":125,"pop":1285,"lat":38.98129,"lng":-81.97356},{"zip":"26037","name":"Follansbee","pending_pct":0.4,"pending":8,"active":12,"total":20,"new":8,"median_price":127400,"ppsf":85,"dom":40,"pop":5714,"lat":40.3344,"lng":-80.58494},{"zip":"26588","name":"Rivesville","pending_pct":0.5,"pending":3,"active":6,"total":6,"new":0,"median_price":88000,"ppsf":73,"dom":35,"pop":2635,"lat":39.5738,"lng":-80.15339},{"zip":"26681","name":"Nettie","pending_pct":0.1667,"pending":1,"active":5,"total":6,"new":0,"median_price":182250,"ppsf":114,"dom":75,"pop":871,"lat":38.22983,"lng":-80.71905},{"zip":"26031","name":"Benwood","pending_pct":0.5385,"pending":7,"active":6,"total":13,"new":4,"median_price":69900,"ppsf":30,"dom":37,"pop":1770,"lat":40.00236,"lng":-80.71985},{"zip":"26301","name":"Clarksburg","pending_pct":0.5065,"pending":39,"active":38,"total":77,"new":24,"median_price":89900,"ppsf":81,"dom":50,"pop":28716,"lat":39.28629,"lng":-80.37735},{"zip":"26415","name":"Pennsboro","pending_pct":0.5,"pending":3,"active":4,"total":6,"new":0,"median_price":147500,"ppsf":70,"dom":138,"pop":3308,"lat":39.29808,"lng":-80.93499},{"zip":"26178","name":"Smithville","pending_pct":1.0,"pending":1,"active":0,"total":1,"new":0,"median_price":240000,"ppsf":938,"dom":77,"pop":184,"lat":39.06001,"lng":-81.02888},{"zip":"26033","name":"Cameron","pending_pct":0.4,"pending":2,"active":3,"total":5,"new":0,"median_price":142450,"ppsf":73,"dom":100,"pop":1801,"lat":39.8284,"lng":-80.57985},{"zip":"26676","name":"Leivasy","pending_pct":0.25,"pending":1,"active":4,"total":4,"new":0,"median_price":157450,"ppsf":97,"dom":83,"pop":126,"lat":38.16173,"lng":-80.65944},{"zip":"24712","name":"Athens","pending_pct":0.3,"pending":3,"active":7,"total":10,"new":0,"median_price":194900,"ppsf":119,"dom":52,"pop":2913,"lat":37.46903,"lng":-81.02029},{"zip":"25181","name":"Seth","pending_pct":1.0,"pending":1,"active":0,"total":1,"new":0,"median_price":233900,"ppsf":null,"dom":140,"pop":1457,"lat":38.04962,"lng":-81.63476},{"zip":"26374","name":"Independence","pending_pct":0.4,"pending":2,"active":3,"total":5,"new":0,"median_price":580000,"ppsf":170,"dom":47,"pop":1676,"lat":39.44755,"lng":-79.88101},{"zip":"25432","name":"Millville","pending_pct":1.0,"pending":1,"active":1,"total":1,"new":0,"median_price":329900,"ppsf":210,"dom":10,"pop":120,"lat":39.29562,"lng":-77.78663},{"zip":"25264","name":"Mount Alto","pending_pct":0.3333,"pending":1,"active":2,"total":3,"new":0,"median_price":945000,"ppsf":463,"dom":55,"pop":482,"lat":38.85547,"lng":-81.89516},{"zip":"26623","name":"Frametown","pending_pct":1.0,"pending":1,"active":1,"total":1,"new":0,"median_price":185000,"ppsf":136,"dom":26,"pop":1425,"lat":38.6576,"lng":-80.87714},{"zip":"25674","name":"Kermit","pending_pct":null,"pending":null,"active":1,"total":1,"new":0,"median_price":88000,"ppsf":69,"dom":57,"pop":1999,"lat":37.87114,"lng":-82.34672},{"zip":"25075","name":"Eskdale","pending_pct":null,"pending":null,"active":1,"total":1,"new":0,"median_price":39900,"ppsf":null,"dom":101,"pop":660,"lat":38.0526,"lng":-81.42915},{"zip":"24726","name":"Herndon","pending_pct":null,"pending":null,"active":2,"total":2,"new":0,"median_price":42400,"ppsf":71,"dom":14,"pop":275,"lat":37.52084,"lng":-81.37229},{"zip":"25812","name":"Ansted","pending_pct":null,"pending":null,"active":4,"total":4,"new":0,"median_price":129900,"ppsf":70,"dom":63,"pop":1339,"lat":38.14048,"lng":-81.11512},{"zip":"24944","name":"Green Bank","pending_pct":null,"pending":null,"active":1,"total":1,"new":2,"median_price":189900,"ppsf":189,"dom":7,"pop":448,"lat":38.39926,"lng":-79.77108},{"zip":"24918","name":"Ballard","pending_pct":null,"pending":null,"active":3,"total":3,"new":0,"median_price":1100000,"ppsf":727,"dom":319,"pop":1420,"lat":37.51793,"lng":-80.75461},{"zip":"25837","name":"Edmond","pending_pct":null,"pending":null,"active":1,"total":1,"new":4,"median_price":270000,"ppsf":138,"dom":3,"pop":314,"lat":38.06041,"lng":-81.0383},{"zip":"26447","name":"Walkersville","pending_pct":null,"pending":null,"active":2,"total":2,"new":0,"median_price":307000,"ppsf":107,"dom":152,"pop":1174,"lat":38.90546,"lng":-80.4854}]}